obs_alt,obs_vel,obs_fuel,obs_mass,obs_pitch,obs_heading,obs_roll,obs_pos_x,obs_pos_y,obs_pos_z,obs_ap,obs_pe,obs_time_to_ap,act_throttle,act_pitch,act_stage
14.19680042238906,2.477584543193634,2508.996826171875,39375.7421875,89.92340087890625,270.2597961425781,-90.0,159784.0966895606,-1018.0151575971395,-578422.0798035129,87.05525085912086,-598435.2532576254,0.25395117105802,1.0,1.0,0.0
14.536894849152304,3.073928305750744,2506.5517578125,39348.57421875,89.92599487304688,270.2501220703125,-90.0,159784.1864661184,-1018.0155474860221,-578422.4078326763,87.56501117325388,-598435.2795178473,0.3150765542364411,1.0,1.0,0.0
14.875029598362744,3.571812757371419,2504.51416015625,39325.93359375,89.92599487304688,270.24267578125,-90.0,159784.27569984,-1018.0159038119018,-578422.7339812056,88.07272245560307,-598435.3020792382,0.36611005439658584,1.0,1.0,0.0
15.34658866468817,4.170393515628517,2502.06884765625,39298.765625,89.91152954101562,270.2346496582031,-90.0,159784.4001101129,-1018.0163607858121,-578423.1888335713,88.78179173695389,-598435.3298807594,0.4274653113395743,1.0,1.0,0.0
15.890064263599925,4.770197085587258,2499.62353515625,39271.59765625,89.91607666015625,270.2276611328125,-90.0,159784.54345306655,-1018.0168416397646,-578423.7130660631,89.60010233160574,-598435.3581063009,0.4889463089367041,1.0,1.0,0.0
16.39800360123627,5.270968004421884,2497.5859375,39248.95703125,89.91607666015625,270.22259521484375,-90.0,159784.67739237938,-1018.0172580135986,-578424.2030287411,90.365745465504,-598435.3816609728,0.5402766227801976,1.0,1.0,0.0
17.073711965465918,5.87301636027823,2495.140869140625,39221.7890625,89.91607666015625,270.21734619140625,-90.0,159784.85553316068,-1018.0177747234702,-578424.8548300712,91.38530268403701,-598435.410086264,0.6019886074888632,1.0,1.0,0.0
17.82174656202551,6.476291190670305,2492.69580078125,39194.6171875,89.91607666015625,270.21307373046875,-90.0,159785.05270169314,-1018.0183092122898,-578425.5764178104,92.51516258448828,-598435.4387516236,0.663826881640091,1.0,1.0,0.0
18.642268800991587,7.080794066405018,2490.25048828125,39167.453125,89.91607666015625,270.20953369140625,-90.0,159785.26893026487,-1018.0188580574468,-578426.3679352165,93.75570137309842,-598435.4676793632,0.7257916682081031,1.0,1.0,0.0
19.535414386191405,7.686526771534852,2487.805419921875,39140.28515625,89.91152954101562,270.2066650390625,-90.0,159785.50425172682,-1018.0194196822122,-578427.229526453,95.10729717777576,-598435.4966376892,0.7878832131738136,1.0,1.0,0.0
20.50133825058583,8.293490370442978,2485.3603515625,39113.11328125,89.91375732421875,270.20440673828125,-90.0,159785.75870325588,-1018.0199927696958,-578428.1613345639,96.57032866368536,-598435.5252413295,0.8501016898586045,1.0,1.0,0.0
21.540183765930124,8.901686022226096,2482.9150390625,39085.9453125,89.91607666015625,270.20257568359375,-90.0,159786.03231885086,-1018.0205769613385,-578429.1635034386,98.14517508528661,-598435.5540118321,0.9124472793716905,1.0,1.0,0.0
22.652102343156002,9.511116120986067,2480.469970703125,39058.77734375,89.90936279296875,270.201171875,-90.0,159786.32513228222,-1018.0211725467816,-578430.236177281,99.83221832837444,-598435.5828679865,0.9749202914360922,1.0,1.0,0.0
23.63462848647032,10.019917603447796,2478.43212890625,39036.13671875,89.91152954101562,270.20025634765625,-90.0,159786.58383324946,-1018.0216769073159,-578431.1840340592,101.32406809250824,-598435.6068905029,1.0270785272747958,1.0,1.0,0.0
24.88089090876747,10.631612924851648,2475.987060546875,39008.96875,89.91152954101562,270.19940185546875,-90.0,159786.9119321858,-1018.0222940864041,-578432.3863415453,103.2177965604933,-598435.6357300639,1.0897855283676563,1.0,1.0,0.0
26.200652610627003,11.244545641326859,2473.5419921875,38981.80078125,89.91375732421875,270.1988220214844,-90.0,159787.25932609822,-1018.0229234313592,-578433.6595632328,105.22480559849646,-598435.6647022866,1.1526204385056644,1.0,1.0,0.0
27.59405145852361,11.858718035724396,2471.0966796875,38954.6328125,89.91152954101562,270.19842529296875,-90.0,159787.6260505829,-1018.0235633589327,-578435.0038432583,107.34548115963116,-598435.6933933073,1.2155835594115842,1.0,1.0,0.0
29.061243672622368,12.474130888543778,2468.651611328125,38927.46484375,89.91152954101562,270.1981201171875,-90.0,159788.01214026372,-1018.0242131552659,-578436.419326315,109.58020842354745,-598435.7222892668,1.278675035829167,1.0,1.0,0.0
30.602369136060588,13.09078589242184,2466.20654296875,38900.29296875,89.91152954101562,270.1978454589844,-90.0,159788.41762883592,-1018.0248718867078,-578437.9061579249,111.9293749970384,-598435.7512868355,1.341895108763424,1.0,1.0,0.0
32.21758549136575,13.708683686508387,2463.76123046875,38873.12890625,89.90936279296875,270.19769287109375,-90.0,159788.84255019767,-1018.0255377017893,-578439.4644837345,114.39336805872153,-598435.7803918443,1.4052439113090713,1.0,1.0,0.0
33.62029576988425,14.224549424294105,2461.7236328125,38850.484375,89.9072265625,270.1975402832031,-90.0,159789.21152082947,-1018.0261000585742,-578440.8178065141,116.53469183377456,-598435.804533638,1.4581331247953813,1.0,1.0,0.0
35.37172688904684,14.844729615463704,2459.278564453125,38823.3203125,89.90936279296875,270.1975402832031,-90.0,159789.67216003776,-1018.0267857881263,-578442.5075816994,119.21021214907523,-598435.8333952593,1.521718516011731,1.0,1.0,0.0
37.197667647968046,15.466157070348856,2456.83349609375,38796.1484375,89.91152954101562,270.197509765625,-90.0,159790.15233373086,-1018.0274816020392,-578444.269261159,122.0016644160496,-598435.8618490467,1.5854332927420387,1.0,1.0,0.0
38.77630750811659,15.984966666229369,2454.7958984375,38773.5078125,89.90936279296875,270.1975402832031,-90.0,159790.56742806357,-1018.0280683722813,-578445.792359555,124.41671672684606,-598435.885107558,1.638627890200894,1.0,1.0,0.0
40.73924177547451,16.608683135258758,2452.3505859375,38746.34375,89.9072265625,270.1975402832031,-90.0,159791.08351086648,-1018.0287817711942,-578447.686241758,127.42172939202283,-598435.913202543,1.702580295980681,1.0,1.0,0.0
42.7771045883419,17.233650409126767,2449.9052734375,38719.171875,89.9072265625,270.19775390625,-90.0,159791.6192307888,-1018.0295070824213,-578449.6524422457,130.54378810490016,-598435.9412728794,1.7666626474899658,1.0,1.0,0.0
44.890060281497426,17.859869520399727,2447.460205078125,38692.00390625,89.90936279296875,270.19793701171875,-90.0,159792.17462096288,-1018.0302443733672,-578451.6911056341,133.78328685369343,-598435.9695437374,1.8308751204409077,1.0,1.0,0.0
47.078250175807625,18.48734172096994,2445.01513671875,38664.8359375,89.9072265625,270.19818115234375,-90.0,159792.74971433482,-1018.0309901473229,-578453.8023786637,137.14062197029125,-598435.9980609077,1.8952179145458672,1.0,1.0,0.0
49.34182662202511,19.116068063969347,2442.56982421875,38637.66796875,89.91152954101562,270.1985168457031,-90.0,159793.34454791318,-1018.0317435517791,-578455.9864105718,140.6161904449109,-598436.0267921049,1.959691210063795,1.0,1.0,0.0
51.680936506483704,19.74605004387046,2440.124755859375,38610.5,89.9072265625,270.19879150390625,-90.0,159793.95915370455,-1018.032506854157,-578458.2433441635,144.2103904247051,-598436.0552402948,2.0242952363307722,1.0,1.0,0.0
54.09572375449352,20.377288829406947,2437.6796875,38583.33203125,89.9072265625,270.1990661621094,-90.0,159794.59356740583,-1018.0332795026479,-578460.573328989,147.9236205985071,-598436.0840434135,2.089030182270619,1.0,1.0,0.0
56.1659888002323,20.904282136051485,2435.64208984375,38560.6875,89.91152954101562,270.1991882324219,-90.0,159795.13740007338,-1018.033927941462,-578462.5708919219,151.1091939015314,-598436.1080087648,2.1430761289375937,1.0,1.0,0.0
58.719943247386254,21.537828609597824,2433.19677734375,38533.51953125,89.9072265625,270.19927978515625,-90.0,159795.80821745834,-1018.0347097374033,-578465.0351834462,155.04168818425387,-598436.1365635351,2.2080516562667754,1.0,1.0,0.0
61.35000835219398,22.17263489417288,2430.751708984375,38506.3515625,89.9072265625,270.1993713378906,-90.0,159796.4989465768,-1018.0354972765781,-578467.5729437439,159.09434890910052,-598436.1639869567,2.2731586334165854,1.0,1.0,0.0
64.05635381164029,22.80870323026881,2428.306640625,38479.18359375,89.9072265625,270.1994934082031,-90.0,159797.2096238703,-1018.0362896574661,-578470.1843138682,163.2675799598219,-598436.1928412232,2.33839734632528,1.0,1.0,0.0
66.83910225657746,23.446033611274657,2425.861328125,38452.015625,89.903076171875,270.1995849609375,-90.0,159797.94027616578,-1018.0370878549293,-578472.869446873,167.5617837489117,-598436.2213219758,2.4037678839329715,1.0,1.0,0.0
69.69841570488643,24.084628395196802,2423.416015625,38424.84765625,89.903076171875,270.1998596191406,-90.0,159798.69094540607,-1018.0378946387209,-578475.6284894315,171.97736865386833,-598436.2493395751,2.4692705656902376,1.0,1.0,0.0
72.63446487102192,24.724488088433382,2420.97119140625,38397.6796875,89.9072265625,270.199951171875,-90.0,159799.46166603532,-1018.0387117839418,-578478.4615858466,176.51473838847596,-598436.2772277654,2.534905518189305,1.0,1.0,0.0
75.13988810172305,25.258672610622618,2418.933349609375,38375.0390625,89.9072265625,270.2001647949219,-90.0,159800.11927578025,-1018.0393987717107,-578480.8791765727,180.38920568290632,-598436.3007892852,2.5897025954894843,1.0,1.0,0.0
78.21698003832716,25.900853175068463,2416.48828125,38347.87109375,89.90936279296875,270.20050048828125,-90.0,159800.92684485496,-1018.0402264883742,-578483.8484313869,185.15090351866093,-598436.3297220095,2.6555804274797197,1.0,1.0,0.0
81.37121945887338,26.544304134267847,2414.04296875,38320.703125,89.90512084960938,270.20050048828125,-90.0,159801.7545580212,-1018.0410545701161,-578486.8921574785,190.03554722224362,-598436.3589947626,2.7215913099584554,1.0,1.0,0.0
84.60277624812443,27.189022563266736,2411.597900390625,38293.53515625,89.903076171875,270.2006530761719,-90.0,159802.60245285463,-1018.0418819952756,-578490.010512269,195.0435381794814,-598436.3877138465,2.7877350305079176,1.0,1.0,0.0
87.91178051475435,27.83501255471643,2409.15283203125,38266.36328125,89.903076171875,270.2007141113281,-90.0,159803.47056642288,-1018.0427128421143,-578493.2036394353,200.17529663618188,-598436.4163803358,2.8540120844915577,1.0,1.0,0.0
91.29840176121797,28.48227500837699,2406.70751953125,38239.19921875,89.903076171875,270.2008972167969,-90.0,159804.3589370465,-1018.0435452526435,-578496.4716879015,205.43123117205687,-598436.4454809829,2.9204226398059063,1.0,1.0,0.0
94.76278140419163,29.130808791908084,2404.262451171875,38212.02734375,89.9072265625,270.2007141113281,-90.0,159805.26758930113,-1018.044380441308,-578499.8148070995,210.81174992083106,-598436.4748822266,2.9869666628576397,1.0,1.0,0.0
98.30509495933075,29.780617038032396,2401.8173828125,38184.859375,89.90109252929688,270.20098876953125,-90.0,159806.1965647571,-1018.0452230833471,-578503.2331479507,216.3172716818517,-598436.5038120666,3.05364456395597,1.0,1.0,0.0
101.92545240058098,30.431699870970924,2399.3720703125,38157.69140625,89.90512084960938,270.20123291015625,-90.0,159807.1459024797,-1018.0460732448846,-578506.7268508822,221.94820808584336,-598436.5318929609,3.120456442633781,1.0,1.0,0.0
105.62402714008931,31.08405891926764,2396.9267578125,38130.5234375,89.903076171875,270.20166015625,-90.0,159808.11563479705,-1018.0469284886494,-578510.2960745678,227.7049804776907,-598436.559889568,3.187402541389872,1.0,1.0,0.0
109.40100416762289,31.73769552186423,2394.48193359375,38103.35546875,89.90512084960938,270.2016296386719,-90.0,159809.1058092718,-1018.0477880146354,-578513.9409601793,233.58800395717844,-598436.5878204913,3.2544830805897504,1.0,1.0,0.0
113.25647074508015,32.392609570683305,2392.03662109375,38076.1875,89.903076171875,270.2019348144531,-90.0,159810.1164537295,-1018.048651477322,-578517.6616591461,239.59769201895688,-598436.6155600557,3.321698134840858,1.0,1.0,0.0
116.5294773245696,32.93934964412473,2389.9990234375,38053.546875,89.903076171875,270.2023620605469,-90.0,159810.97432172552,-1018.0493752285838,-578520.8202626612,244.70283316483255,-598436.6387639372,3.3778137536621102,1.0,1.0,0.0
120.52933601650875,33.59661107589777,2387.5537109375,38026.37890625,89.90109252929688,270.20233154296875,-90.0,159812.02258766812,-1018.0502464212477,-578524.6803354205,250.94584338529967,-598436.666951054,3.445276184278839,1.0,1.0,0.0
124.60817922989372,34.25515439385472,2385.108642578125,37999.2109375,89.903076171875,270.20318603515625,-90.0,159813.09143080248,-1018.0511215478182,-578528.6166590652,257.3167171208188,-598436.6957176862,3.5128738177934338,1.0,1.0,0.0
128.76608751772437,34.91498084528036,2382.66357421875,37972.0390625,89.903076171875,270.2039794921875,-90.0,159814.180858202,-1018.0519933607429,-578532.6293677926,263.8158729133429,-598436.7259818335,3.5806068576505368,1.0,1.0,0.0
133.00330015621148,35.5760891344457,2380.21826171875,37944.87109375,89.903076171875,270.20452880859375,-90.0,159815.2909179369,-1018.0528600029647,-578536.7186165192,270.44372832158115,-598436.7561560774,3.648475275829128,1.0,1.0,0.0
137.31992994470056,36.238482184764095,2377.773193359375,37917.703125,89.89913940429688,270.20465087890625,-90.0,159816.42165157755,-1018.0537249557674,-578540.8845561665,277.2007128065452,-598436.7846532828,3.7164794797495233,1.0,1.0,0.0
141.716133588925,36.90216051030588,2375.328125,37890.53515625,89.89913940429688,270.20458984375,-90.0,159817.57309818917,-1018.0545845106244,-578545.1273271614,284.08724928996526,-598436.8137018704,3.7846195831836553,1.0,1.0,0.0
146.19209525140468,37.567124414829514,2372.8828125,37863.3671875,89.89913940429688,270.20416259765625,-90.0,159818.74528485257,-1018.0554352626204,-578549.4470894303,291.1037609113846,-598436.8423732294,3.8528957181114265,1.0,1.0,0.0
150.7478919705609,38.23337540172338,2370.437744140625,37836.19921875,89.903076171875,270.2038879394531,-90.0,159819.93825963794,-1018.0562727209181,-578553.8439978899,298.2506807530299,-598436.869565216,3.9213081428444525,1.0,1.0,0.0
155.38378175417893,38.900915372189196,2367.99267578125,37809.02734375,89.89913940429688,270.20361328125,-90.0,159821.15206310037,-1018.0571039542556,-578558.3181759722,305.52843615133315,-598436.8954871257,3.989857140648951,1.0,1.0,0.0
160.09985387057532,39.56974492945472,2365.54736328125,37781.859375,89.89913940429688,270.20361328125,-90.0,159822.3867378255,-1018.0579281263053,-578562.8698020884,312.93745748803485,-598436.9224742615,4.058542833564331,1.0,1.0,0.0
164.89626801898703,40.239864324742804,2363.10205078125,37754.69140625,89.897216796875,270.2035827636719,-90.0,159823.64230987872,-1018.0587460938841,-578567.4990086755,320.4781717436854,-598436.9501163804,4.127365343352153,1.0,1.0,0.0
169.7732154498808,40.91127744632248,2360.6572265625,37727.5234375,89.89166259765625,270.20343017578125,-90.0,159824.91881284074,-1018.0595585852861,-578572.2059596549,328.1510226489045,-598436.9769358763,4.196325181829195,1.0,1.0,0.0
174.73079520335887,41.583980930444284,2358.2119140625,37700.35546875,89.89532470703125,270.2036437988281,-90.0,159826.21628178196,-1018.060368815437,-578576.9908019532,335.95642445539124,-598437.0062931383,4.265422048716346,1.0,1.0,0.0
179.76921569928527,42.25797883344465,2355.7666015625,37673.1875,89.897216796875,270.2039794921875,-90.0,159827.534741278,-1018.0611818749458,-578581.8536850025,343.89482190215494,-598437.0348471594,4.33465650039841,1.0,1.0,0.0
184.88856881437823,42.93327145748757,2353.321533203125,37646.01953125,89.89532470703125,270.204345703125,-90.0,159828.8742354043,-1018.0619862377644,-578586.7947702191,351.9666454431135,-598437.0644600552,4.404028634834276,1.0,1.0,0.0
189.21669203788042,43.49700537972797,2351.283935546875,37623.37890625,89.89532470703125,270.20465087890625,-90.0,159830.00656995727,-1018.0626494307071,-578590.972180291,358.7954057516763,-598437.0893601261,4.4619441047857435,1.0,1.0,0.0
194.48494715604465,44.174674909862254,2348.8388671875,37596.20703125,89.89346313476562,270.2054138183594,-90.0,159831.38470792444,-1018.0634362995625,-578596.0570153808,367.1129847342381,-598437.1176672701,4.531569284582702,1.0,1.0,0.0
199.83458516409155,44.85363982041209,2346.3935546875,37569.04296875,89.89346313476562,270.20556640625,-90.0,159832.78395973364,-1018.0642077475786,-578601.2204774385,375.56521904596593,-598437.149285338,4.601332449600022,1.0,1.0,0.0
204.3549092648318,45.42043639204804,2344.35595703125,37546.3984375,89.89166259765625,270.2063293457031,-90.0,159833.96618525713,-1018.0648419223726,-578605.5835287898,382.71193347580265,-598437.1723304309,4.659574286574809,1.0,1.0,0.0
209.85423643805552,46.101785180960896,2341.910888671875,37519.23046875,89.88986206054688,270.206787109375,-90.0,159835.4043027739,-1018.065583974123,-578610.8915308081,391.4122047412675,-598437.1971849713,4.7295917973087285,1.0,1.0,0.0
215.4353685467504,46.78443127603879,2339.4658203125,37492.0625,89.88809204101562,270.2076416015625,-90.0,159836.8636173392,-1018.0662999004126,-578616.2785780951,400.2483671095688,-598437.2368058496,4.799747581650877,1.0,1.0,0.0
220.14898786775302,47.354297573046054,2337.42822265625,37469.421875,89.88809204101562,270.2078552246094,-90.0,159838.09592035264,-1018.0668784864247,-578620.8283077434,407.71597473183647,-598437.2691908972,4.858316981756786,1.0,1.0,0.0
225.88063325849362,48.03932725442234,2334.98291015625,37442.25390625,89.8846435546875,270.20770263671875,-90.0,159839.59415207096,-1018.0675538852811,-578626.3607146638,416.80243443360087,-598437.2996629949,4.928727627457022,1.0,1.0,0.0
231.69451789511368,48.7256572890844,2332.53759765625,37415.0859375,89.88809204101562,270.20758056640625,-90.0,159841.113741028,-1018.0682040415704,-578631.972605603,426.0260471062502,-598437.3302616964,4.999277370283778,1.0,1.0,0.0
237.59090423653834,49.41328940069756,2330.092529296875,37387.91796875,89.88809204101562,270.2086181640625,-90.0,159842.65469331486,-1018.068828586489,-578637.6641454974,435.38726354553364,-598437.3598591363,5.069966507113861,1.0,1.0,0.0
243.56990909518208,50.10222491111919,2327.6474609375,37360.75,89.88809204101562,270.2088317871094,-90.0,159844.21701800253,-1018.0694358795881,-578643.4354652943,444.8865120221162,-598437.3945118795,5.140795171557443,1.0,1.0,0.0
249.6316727094818,50.792461332943304,2325.2021484375,37333.58203125,89.8846435546875,270.2099304199219,-90.0,159845.80076018142,-1018.070019107312,-578649.2867538995,454.52424045593943,-598437.4281124348,5.211763311818515,1.0,1.0,0.0
255.77633994596545,51.48400253734997,2322.757080078125,37306.41015625,89.8863525390625,270.2117004394531,-90.0,159847.40596291184,-1018.0705828219652,-578655.2181452402,464.3009001426399,-598437.4595353319,5.282871448037724,1.0,1.0,0.0
262.0041690656217,52.176847118652596,2320.31201171875,37279.2421875,89.8863525390625,270.2119140625,-90.0,159849.03269024342,-1018.0711249820888,-578661.2297682329,474.21693462412804,-598437.4884448184,5.354119545892274,1.0,1.0,0.0
268.3151287538931,52.870995016320165,2317.86669921875,37252.078125,89.8846435546875,270.2116394042969,-90.0,159850.6809532774,-1018.07162931934,-578667.321808804,484.2727763374569,-598437.5161893726,5.425507680886085,1.0,1.0,0.0
274.7095347144641,53.56644815638268,2315.421630859375,37224.90625,89.88809204101562,270.2117919921875,-90.0,159852.3508320429,-1018.072105307132,-578673.4943698706,494.4688815786503,-598437.5445067788,5.497036122775057,1.0,1.0,0.0
281.1874590899097,54.26320603385304,2312.9765625,37197.73828125,89.8846435546875,270.21197509765625,-90.0,159854.04232965157,-1018.0725629627705,-578679.7476503588,504.80569639755413,-598437.5715626107,5.568704959216689,1.0,1.0,0.0
287.74909320950974,54.96127294433028,2310.53125,37170.5703125,89.8863525390625,270.2109069824219,-90.0,159855.75548916342,-1018.0729985460639,-578686.0817841955,515.2836898510577,-598437.6035422825,5.6405146207640655,1.0,1.0,0.0
294.3946185830282,55.66064737846293,2308.086181640625,37143.40234375,89.8863525390625,270.2088623046875,-90.0,159857.4903246595,-1018.0734135694802,-578692.4969233174,525.9032980954507,-598437.6348885793,5.7124651611252375,1.0,1.0,0.0
301.1241372465156,56.36132965978816,2305.64111328125,37116.23046875,89.8846435546875,270.20928955078125,-90.0,159859.2468762202,-1018.0738068260252,-578698.9932356409,536.6649707916658,-598437.6655524636,5.784556721809565,1.0,1.0,0.0
307.9377944187727,57.06332117334849,2303.19580078125,37089.06640625,89.8846435546875,270.20904541015625,-90.0,159861.02519990553,-1018.0741920098662,-578705.5708630827,547.569169452996,-598437.6912270583,5.856789637035035,1.0,1.0,0.0
314.8358535771258,57.766621254476064,2300.75048828125,37061.89453125,89.8846435546875,270.20953369140625,-90.0,159862.82535177548,-1018.0745622292161,-578712.2299475593,558.616340758279,-598437.719055131,5.9291638094350105,1.0,1.0,0.0
320.6487390869297,58.35370690717689,2298.712890625,37039.2578125,89.88809204101562,270.2088928222656,-90.0,159864.3421725663,-1018.0748578086495,-578717.8415341763,567.9318696522387,-598437.7398047412,5.989583955841738,1.0,1.0,0.0
327.70177995064296,59.059416015898435,2296.267822265625,37012.08984375,89.8846435546875,270.208740234375,-90.0,159866.1824156447,-1018.0751970075071,-578724.6503625282,579.2423820855329,-598437.7691179529,6.062218455651987,1.0,1.0,0.0
334.8396195388632,59.766436904004486,2293.82275390625,36984.91796875,89.88131713867188,317.91180419921875,-42.209808349609375,159868.04458412933,-1018.0755255520344,-578731.5411016948,590.6971735198749,-598437.7960295244,6.134994942629248,1.0,1.0,0.0
342.06236945616547,60.474772318685375,2291.37744140625,36957.75,89.88296508789062,317.72784423828125,-42.3929443359375,159869.9286791012,-1018.0758426263928,-578738.5138956236,602.296693875338,-598437.8294012975,6.207913629259281,1.0,1.0,0.0
349.3702097311616,61.184421368663585,2288.932373046875,36930.58203125,89.8846435546875,270.2078552246094,-90.0,159871.83472764108,-1018.0761349014938,-578745.568904241,614.0414057492744,-598437.8592917919,6.280974738250791,1.0,1.0,0.0
356.7633489345899,61.89538701849714,2286.4873046875,36903.4140625,89.88131713867188,317.767822265625,-42.35211181640625,159873.76280679848,-1018.0764135457575,-578752.7062644534,625.9317836371483,-598437.8894059965,6.3541786107057305,1.0,1.0,0.0
364.2418219734682,62.607668056155084,2284.0419921875,36876.24609375,89.88131713867188,317.7738037109375,-42.345977783203125,159875.71291467478,-1018.0766859836876,-578759.9261541974,637.9682802122552,-598437.920470677,6.427525220161272,1.0,1.0,0.0
371.80592803668696,63.32126813425061,2281.596923828125,36849.078125,89.87966918945312,317.8531494140625,-42.266143798828125,159877.68509934028,-1018.0769358724356,-578767.2287283895,650.1513718120987,-598437.9515509717,6.501015074911038,1.0,1.0,0.0
378.1748713592533,63.91694000425398,2279.55908203125,36826.4375,89.87966918945312,317.9649658203125,-42.154388427734375,159879.34547607225,-1018.0771267488599,-578773.3774674943,660.4162445653928,-598437.9781461257,6.562365858576413,1.0,1.0,0.0
385.89625315577723,64.63295420102044,2277.1142578125,36799.26953125,89.8780517578125,318.2900085449219,-41.831329345703125,159881.3582490235,-1018.0773545652628,-578780.8320074725,672.8692675805651,-598438.0074241045,6.636118244096508,1.0,1.0,0.0
392.3964088400826,65.2306404635885,2275.076416015625,36776.62890625,89.87646484375,318.7325744628906,-41.389862060546875,159883.0524842611,-1018.0775462910533,-578787.1075853065,683.3597498440649,-598438.0299869748,6.697688292813723,1.0,1.0,0.0
400.2755791991949,65.9490737925246,2272.63134765625,36749.4609375,89.8780517578125,319.0266418457031,-41.09716796875,159885.10597873948,-1018.0777491927147,-578794.7146028095,696.0842863228172,-598438.057137067,6.77170412498225,1.0,1.0,0.0
408.24112481996417,66.66882740346112,2270.18603515625,36722.2890625,89.8780517578125,319.10162353515625,-41.02215576171875,159887.1817623282,-1018.0779187530279,-578802.4050083845,708.9575829276582,-598438.0832279745,6.845863896755702,1.0,1.0,0.0
416.29309455282055,67.38990293944168,2267.740966796875,36695.12109375,89.8780517578125,319.19183349609375,-40.934326171875,159889.27983109828,-1018.0780329406261,-578810.1789249892,721.9800973545061,-598438.1121797914,6.920167806341908,1.0,1.0,0.0
424.4316827333532,68.11229840600679,2265.2958984375,36667.953125,89.8748779296875,319.4580078125,-40.66595458984375,159891.400219171,-1018.078112617135,-578818.0365885185,735.1523051826516,-598438.1410346322,6.994615834622778,1.0,1.0,0.0
431.2800802635029,68.71530476243632,2263.25830078125,36645.3125,89.8748779296875,319.534423828125,-40.589752197265625,159893.18431225885,-1018.0781596638262,-578824.6486571756,746.2438259772025,-598438.163321533,7.056766263920338,1.0,1.0,0.0
439.5780103895813,69.44012353494702,2260.81298828125,36618.14453125,89.8780517578125,319.59722900390625,-40.526611328125,159895.34576850221,-1018.0781894773245,-578832.6601575393,759.6916811680421,-598438.1945611364,7.131479111243095,1.0,1.0,0.0
447.96277275751345,70.16626803934881,2258.367919921875,36590.9765625,89.8748779296875,319.61090087890625,-40.512481689453125,159897.52965020874,-1018.078196555376,-578840.7557566396,773.2905831101816,-598438.2171874881,7.206337216780071,1.0,1.0,0.0
455.0168073642999,70.77240198595997,2256.330078125,36568.3359375,89.8748779296875,319.8152770996094,-40.3084716796875,159899.36673251627,-1018.0781924389303,-578847.5664930874,784.7387373825768,-598438.2441248827,7.268829753718194,1.0,1.0,0.0
463.5617790161632,71.50097600880606,2253.88525390625,36541.16796875,89.8748779296875,319.9734191894531,-40.151336669921875,159901.591882796,-1018.0781840346754,-578855.8167686035,798.6157701086486,-598438.2641033399,7.343954071900157,1.0,1.0,0.0
472.1942461557919,72.23087539860138,2251.43994140625,36514.0,89.8748779296875,320.2957763671875,-39.83099365234375,159903.83961073932,-1018.078156247735,-578864.1515946058,812.6451757326722,-598438.2899682045,7.419223610275253,1.0,1.0,0.0
480.9143432964338,72.96210495931118,2248.99462890625,36486.83203125,89.8748779296875,320.3094787597656,-39.815704345703125,159906.10994044726,-1018.078076351434,-578872.5711650102,826.8274543032749,-598438.3144262596,7.494639164710236,1.0,1.0,0.0
488.24822420522105,73.57248082161063,2246.95703125,36464.19140625,89.8748779296875,320.48016357421875,-39.644256591796875,159908.01916760695,-1018.0779706574976,-578879.6522703426,838.7631543603493,-598438.3365480811,7.5575972035831,1.0,1.0,0.0
497.1296051136451,74.30614981493365,2244.511962890625,36437.0234375,89.8748779296875,320.5342712402344,-39.58953857421875,159910.33101639125,-1018.0778111703694,-578888.2275666395,853.2269470762694,-598438.3628002685,7.633280749366975,1.0,1.0,0.0
506.0989586535143,75.04115115060098,2242.06689453125,36409.8515625,89.8748779296875,320.1865539550781,-39.936492919921875,159912.6655831209,-1018.0776134803891,-578896.8880011297,867.8449945873581,-598438.3812343368,7.709111054543598,1.0,1.0,0.0
513.6409545259085,75.6546691697316,2240.029296875,36387.21484375,89.87179565429688,320.1195983886719,-40.005035400390625,159914.62842264655,-1018.0774075463414,-578904.1701990187,880.1448441948742,-598438.4048777441,7.772414722601582,1.0,1.0,0.0
522.7723949537612,76.39211369793892,2237.583984375,36360.04296875,89.87026977539062,319.94378662109375,-40.180084228515625,159917.00468285548,-1018.0771118067205,-578912.9871830032,895.046895239153,-598438.4346802772,7.848513814831676,1.0,1.0,0.0
531.9925416267943,77.13089195360413,2235.138671875,36332.875,89.87179565429688,319.7185974121094,-40.406280517578125,159919.40371327256,-1018.0767795592546,-578921.8898029705,910.1045411702944,-598438.4678593295,7.924759878600469,1.0,1.0,0.0
539.7436541415518,77.74755529850256,2233.10107421875,36310.234375,89.87332153320312,319.87408447265625,-40.2515869140625,159921.42033170923,-1018.0764704346657,-578929.374162933,922.7717707044212,-598438.4906097905,7.988410411333746,1.0,1.0,0.0
549.1264579197159,78.48877476077689,2230.656005859375,36283.06640625,89.87179565429688,319.6682434082031,-40.462188720703125,159924.27027295146,-1018.0759950429201,-578939.9524605611,938.115919575328,-598438.5146020906,8.064926258734602,1.0,1.0,0.0
560.1856844549766,79.35521302666163,2227.80322265625,36251.37109375,89.87179565429688,319.6457214355469,-40.48553466796875,159926.73795035298,-1018.0755620971322,-578949.1128399763,956.2158123619156,-598438.5427979911,8.154380731197705,1.0,1.0,0.0
569.7616408417234,80.09932273268946,2225.358154296875,36224.203125,89.87332153320312,319.8312683105469,-40.2991943359375,159929.22853824447,-1018.0751371122897,-578958.3594430813,971.9006471701432,-598438.5691235946,8.231216165896512,1.0,1.0,0.0
579.4270362491952,80.84476829695924,2222.9130859375,36197.03125,89.8687744140625,319.93121337890625,-40.20013427734375,159931.74216066452,-1018.0746969394386,-578967.692417752,987.7435283174273,-598438.5907808535,8.30819966275186,1.0,1.0,0.0
589.1819523865124,81.59155324568869,2220.4677734375,36169.8671875,89.87179565429688,320.1815185546875,-39.950408935546875,159934.2788157146,-1018.0742536857724,-578977.1119419247,1003.7449418728938,-598438.6121549238,8.385331600613654,1.0,1.0,0.0
599.0266126288334,82.33968096117238,2218.022705078125,36142.6953125,89.8687744140625,320.3293762207031,-39.805572509765625,159936.83853345507,-1018.0737903118134,-578986.6181415366,1019.9053904962493,-598438.6398521976,8.462612274056085,1.0,1.0,0.0
608.9611314648064,83.08914996075829,2215.57763671875,36115.52734375,89.87179565429688,320.34600830078125,-39.788299560546875,159939.42133798703,-1018.0733111947775,-578996.2112105037,1036.2253738016589,-598438.6660378336,8.540041883337835,1.0,1.0,0.0
620.6651174525032,83.96522812211222,2212.724853515625,36083.83203125,89.87179565429688,320.23388671875,-39.89892578125,159942.4638749045,-1018.0727144367993,-579007.5131040894,1055.4676618119702,-598438.6846494066,8.630565386719127,1.0,1.0,0.0
630.7949324273504,84.71760784261662,2210.27978515625,36052.1328125,89.8687744140625,320.19390869140625,-39.937103271484375,159945.53799952983,-1018.0720302090049,-579018.9336706579,1072.135008682846,-598438.7134454218,8.708318466353774,1.0,1.0,0.0
641.0150806938764,85.4713336946729,2207.83447265625,36029.49609375,89.8687744140625,320.2727966308594,-39.858428955078125,159947.7531561564,-1018.0715032033622,-579027.164013077,1088.9634701416362,-598438.7360182273,8.786221550736457,1.0,1.0,0.0
651.3257100436604,86.22640733911345,2205.389404296875,36002.32421875,89.8658447265625,319.9185791015625,-40.215606689453125,159950.43270537083,-1018.0708486661315,-579037.1206591234,1105.9535820696037,-598438.7565234997,8.86427483168103,1.0,1.0,0.0
661.7271955530159,86.98283508550816,2202.9443359375,35975.15625,89.8658447265625,319.7135314941406,-40.421905517578125,159953.135531759,-1018.0701662786305,-579047.1649721272,1123.1058716435218,-598438.7820375208,8.942478889233541,1.0,1.0,0.0
673.9770455817925,87.8670395075502,2200.091552734375,35943.4609375,89.8658447265625,319.50347900390625,-40.633880615234375,159956.31832833885,-1018.0693089291453,-579058.994344583,1143.3224422894418,-598438.8187399671,9.033907058465104,1.0,1.0,0.0
684.5755477678031,88.62638845110737,2197.646484375,35916.29296875,89.86294555664062,319.5355529785156,-40.603851318359375,159959.07166623318,-1018.0685253292322,-579069.2291757422,1160.8276927303523,-598438.8505743804,9.112437094497352,1.0,1.0,0.0
695.2652141209692,89.38708288134735,2195.201171875,35889.125,89.860107421875,319.63214111328125,-40.50604248046875,159961.84837554328,-1018.067703153938,-579079.5521616285,1178.4966060100123,-598438.8825452072,9.191117602413158,1.0,1.0,0.0
706.0463244229322,90.14912751470743,2192.756103515625,35861.95703125,89.86151123046875,319.95477294921875,-40.184356689453125,159964.6485223492,-1018.0668374560773,-579089.9634861372,1196.329759588698,-598438.9050208654,9.269949508988987,1.0,1.0,0.0
716.9191007066984,90.91252135083764,2190.31103515625,35830.26171875,89.86294555664062,319.9726257324219,-40.166656494140625,159967.94508247837,-1018.0658118575811,-579102.22188025,1214.3276094208704,-598438.9261088808,9.34893260820985,1.0,1.0,0.0
729.719497965998,91.80484652969962,2187.458251953125,35798.5625,89.8658447265625,320.3937683105469,-39.744598388671875,159971.27364330273,-1018.0647341236472,-579114.6009563815,1235.5338572857436,-598438.9588153742,9.44126989365219,1.0,1.0,0.0
742.6452389803017,92.69900658291718,2184.60546875,35766.8671875,89.8658447265625,320.7901916503906,-39.349365234375,159974.63423894343,-1018.0636101402342,-579127.1009504267,1256.9657416774426,-598438.9917259421,9.533813167441679,1.0,1.0,0.0
755.6965205237502,93.59500163010614,2181.7529296875,35739.69921875,89.8687744140625,321.1349182128906,-39.004608154296875,159977.5403993644,-1018.0626258067787,-579137.9117097338,1278.624127394869,-598439.0067979099,9.626563252865424,1.0,1.0,0.0
766.9830151982605,94.36446343881649,2179.3076171875,35712.53125,89.8687744140625,320.8807067871094,-39.25823974609375,159980.47029762124,-1018.0615805629641,-579148.8116012051,1297.3693140961695,-598439.0175383639,9.706228302476063,1.0,1.0,0.0
778.361997711705,95.13528287649196,2176.862548828125,35685.359375,89.8687744140625,320.98773193359375,-39.148040771484375,159983.42392585616,-1018.060533221811,-579159.8008707556,1316.282005312154,-598439.0484689214,9.786045519722052,1.0,1.0,0.0
787.9151926053455,95.77866558995011,2174.824951171875,35662.72265625,89.8673095703125,321.5048828125,-38.633819580078125,159985.90331219434,-1018.0596802253276,-579169.0269416652,1332.1708930867026,-598439.0834485737,9.852676006199601,1.0,1.0,0.0
799.4641948584467,96.55195350482606,2172.3798828125,35635.55078125,89.8687744140625,322.6208190917969,-37.520477294921875,159988.9002736755,-1018.0586106851697,-579180.1804669808,1351.39188684884,-598439.1085623447,9.932771850527672,1.0,1.0,0.0
811.1059651098913,97.32658838236964,2169.9345703125,35608.3828125,89.87179565429688,324.35888671875,-35.783294677734375,159991.92114929407,-1018.057576270774,-579191.423770126,1370.7817704683403,-598439.1076017247,10.01302070591828,1.0,1.0,0.0
822.8407572236611,98.10257630421567,2167.4892578125,35581.21484375,89.87179565429688,324.8742980957031,-35.26507568359375,159994.96604304842,-1018.0564555395395,-579202.7569150187,1390.3411396761658,-598439.103053433,10.093422617671592,1.0,1.0,0.0
834.6687980135903,98.87993297169874,2165.04443359375,35554.046875,89.87332153320312,325.2444763183594,-34.896820068359375,159998.03498310043,-1018.0553202368319,-579214.1802055323,1410.0705869812518,-598439.1073623947,10.173978936652873,1.0,1.0,0.0
848.5862538296496,99.78858054987923,2162.19140625,35522.3515625,89.8687744140625,324.9149475097656,-35.225250244140625,160001.6457087121,-1018.0539917331189,-579227.6214118655,1433.3039237667108,-598439.127646935,10.268156674362785,1.0,1.0,0.0
862.6308784135617,100.69909936772817,2159.3388671875,35490.65234375,89.8673095703125,324.82489013671875,-35.316375732421875,160005.81228877287,-1018.0523685310036,-579243.1335267917,1456.7704443199327,-598439.1378460707,10.362546621912202,1.0,1.0,0.0
874.7711424962617,101.48103923266872,2156.8935546875,35463.484375,89.8658447265625,324.431884765625,-35.71148681640625,160008.4381497299,-1018.0513501558453,-579252.9104185688,1477.070820465684,-598439.1535020851,10.443621463381874,1.0,1.0,0.0
887.0050375289284,102.26436428984329,2154.44873046875,35436.31640625,89.8643798828125,323.87664794921875,-36.265289306640625,160011.61126997764,-1018.050090547651,-579264.7259275418,1497.5437510289485,-598439.152799114,10.52485394371405,1.0,1.0,0.0
899.3331028589746,103.0490970682726,2152.00341796875,35409.1484375,89.86151123046875,323.17254638671875,-36.969696044921875,160014.80866888445,-1018.0487729292363,-579276.6323697183,1518.1900022613117,-598439.1530798154,10.606245945018827,1.0,1.0,0.0
911.755220316234,103.83523721620489,2149.55810546875,35381.98046875,89.8546142578125,321.67431640625,-38.468017578125,160018.03025057344,-1018.0474162995815,-579288.6299010955,1539.010008853511,-598439.1875494097,10.687796406565326,1.0,1.0,0.0
924.2717497677077,104.62278361099014,2147.113037109375,35354.8125,89.8546142578125,321.4789123535156,-38.66180419921875,160021.275823291,-1018.0459841527045,-579300.7188336689,1560.0043724853313,-598439.2222367619,10.769506566022528,1.0,1.0,0.0
936.8831025937106,105.41174025082111,2144.66796875,35327.64453125,89.85195922851562,321.08966064453125,-39.048828125,160024.54552299442,-1018.04449084308,-579312.8991793569,1581.1736383793177,-598439.2494421833,10.85137727154023,1.0,1.0,0.0
949.5892088792752,106.20209991239933,2142.22265625,35300.4765625,89.85064697265625,321.7913513183594,-38.345794677734375,160027.8394417635,-1018.0429414529353,-579325.1711380349,1602.5182765374193,-598439.283062333,10.933407440891642,1.0,1.0,0.0
962.3903912559617,106.99385700463488,2139.777587890625,35273.30859375,89.84933471679688,322.4613952636719,-37.674163818359375,160031.15763971888,-1018.0413089320064,-579337.5349615773,1624.0387864252552,-598439.3101714416,11.015597127340868,1.0,1.0,0.0
975.2863742787158,107.7870109315339,2137.33251953125,35246.140625,89.84805297851562,322.942138671875,-37.192474365234375,160034.5000529427,-1018.0395461013541,-579349.9907539824,1645.7357051663566,-598439.3382411015,11.097946166329223,1.0,1.0,0.0
986.1061127544381,108.44904015982748,2135.294921875,35223.49609375,89.84677124023438,323.46795654296875,-36.667205810546875,160037.30401435532,-1018.037987429183,-579360.4409242125,1663.9516113743884,-598439.3561399962,11.166692500707086,1.0,1.0,0.0
999.1769675636897,109.24476079043045,2132.849609375,35196.328125,89.84933471679688,323.7086486816406,-36.4305419921875,160040.6911549941,-1018.0360540780239,-579373.0656978758,1685.9734287369065,-598439.3588777874,11.2493357260322,1.0,1.0,0.0
1012.3434990610695,110.04191355644761,2130.404541015625,35169.16015625,89.84548950195312,322.83477783203125,-37.31072998046875,160044.6739085693,-1018.0336796510965,-579387.9114030944,1708.17356664408,-598439.3586615572,11.332142576188858,1.0,1.0,0.0
1027.8256674746517,110.97375251916185,2127.5517578125,35137.46484375,89.84423828125,322.12091064453125,-38.028045654296875,160048.11428729593,-1018.0315432796197,-579400.736537792,1734.2999658966437,-598439.3748734499,11.428958618184993,1.0,1.0,0.0
1041.199949524249,111.77404685872139,2125.106689453125,35110.296875,89.84051513671875,320.9101867675781,-39.240875244140625,160051.57921765087,-1018.0292942337692,-579413.6544928526,1756.8887139576254,-598439.4096113327,11.512122969233076,1.0,1.0,0.0
1056.9245847832644,112.70956043086991,2122.25390625,35078.59765625,89.83685302734375,320.3733825683594,-39.78094482421875,160055.65245243325,-1018.026536367368,-579428.843018241,1783.4702018401586,-598439.452602078,11.609358049878153,1.0,1.0,0.0
1070.5076364445267,113.51299034607435,2119.808837890625,35051.43359375,89.83685302734375,320.5894775390625,-39.5673828125,160059.1703657318,-1018.0240877768956,-579441.9626819905,1806.450197347789,-598439.500588677,11.692880875246829,1.0,1.0,0.0
1084.1866206226405,114.31786822718774,2117.36376953125,35024.26171875,89.83447265625,321.28033447265625,-38.87933349609375,160062.71281494276,-1018.0215535806492,-579455.1756579329,1829.6117154766107,-598439.5209116271,11.77657081843148,1.0,1.0,0.0
1097.9626208399422,115.12419895021533,2114.91845703125,34997.09375,89.8321533203125,321.3031921386719,-38.8524169921875,160066.27989214595,-1018.0189058985561,-579468.4821459436,1852.955317854532,-598439.5421200377,11.86042745504733,1.0,1.0,0.0
1109.5167332738638,115.7972561907142,2112.880859375,34974.453125,89.829833984375,321.0540466308594,-39.10174560546875,160069.27141143056,-1018.0165858929977,-579479.6424278845,1872.5478980178013,-598439.5548379625,11.930436200611098,1.0,1.0,0.0
1123.4703936678125,116.60627967794927,2110.435546875,34947.28515625,89.82754516601562,320.7981872558594,-39.355010986328125,160072.88394941637,-1018.0136901643127,-579493.1207836891,1896.2271744004684,-598439.5844454652,12.014601643880155,1.0,1.0,0.0
1137.5212961666984,117.41677289094844,2107.990478515625,34920.1171875,89.82528686523438,320.7413024902344,-39.41015625,160076.5210476793,-1018.0106604397297,-579506.693111433,1920.0903122491436,-598439.6291942066,12.098935445087477,1.0,1.0,0.0
1149.3045668523991,118.09330282986882,2105.952880859375,34897.4765625,89.826416015625,320.79193115234375,-39.357513427734375,160079.57095539616,-1018.0080085564405,-579518.0753316499,1940.1171307489276,-598439.6619393743,12.16934259744562,1.0,1.0,0.0
1163.5340964792995,118.90648100853969,2103.5078125,34870.30859375,89.82528686523438,320.8475646972656,-39.299560546875,160083.25351496905,-1018.0046496707946,-579531.8204588487,1964.31887449231,-598439.688085076,12.253986394101048,1.0,1.0,0.0
1177.8614845681004,119.72112428077115,2101.0625,34843.140625,89.82754516601562,320.68646240234375,-39.456268310546875,160086.96094301713,-1018.0011138152331,-579545.6601056133,1988.7061210938264,-598439.71607935,12.338799115087056,1.0,1.0,0.0
1192.2864845107542,120.53724333898796,2098.617431640625,34815.97265625,89.82528686523438,320.37823486328125,-39.76336669921875,160090.6932595806,-1017.9974968731403,-579559.594355902,2013.2795570247108,-598439.7430577285,12.423782161576469,1.0,1.0,0.0
1206.8098732370418,121.35484955486716,2096.17236328125,34788.80078125,89.82867431640625,320.6723327636719,-39.4693603515625,160094.4505567392,-1017.9937848336995,-579573.6234095899,2038.039918471477,-598439.7629380398,12.508937147814038,1.0,1.0,0.0
1223.8775616971543,122.31060704999825,2093.319580078125,34757.10546875,89.82528686523438,320.8898010253906,-39.252655029296875,160098.8657105888,-1017.989341840148,-579590.1107413257,2067.164055916015,-598439.8020538127,12.608501564847245,1.0,1.0,0.0
1238.613227847265,123.13144784606612,2090.87451171875,34729.9375,89.82754516601562,321.0899658203125,-39.05224609375,160102.67714870113,-1017.985404483974,-579604.3457974863,2092.331586717046,-598439.8316476188,12.69402995886577,1.0,1.0,0.0
1253.448223458603,123.95378466991649,2088.42919921875,34702.76953125,89.826416015625,321.35223388671875,-38.791534423828125,160106.51372773058,-1017.981344986707,-579618.6763287112,2117.6880370742874,-598439.857947198,12.779731642057811,1.0,1.0,0.0
1268.3816465787822,124.7776263787478,2085.984130859375,34675.6015625,89.82415771484375,321.8590087890625,-38.28497314453125,160110.37544767704,-1017.9771412760019,-579633.1023350004,2143.2341126917163,-598439.8737413799,12.865608028311271,1.0,1.0,0.0
1283.4145718163345,125.60298509988829,2083.5390625,34648.43359375,89.82528686523438,321.8472595214844,-38.296630859375,160114.2624206606,-1017.972798306495,-579647.6241001872,2168.97056529345,-598439.8938696496,12.95165993539581,1.0,1.0,0.0
1298.546329403529,126.42987209077778,2081.09375,34621.26171875,89.82305908203125,321.5233459472656,-38.61932373046875,160118.1745827633,-1017.9683228544891,-579662.2417282702,2194.8980948355747,-598439.9215097408,13.037888575035481,1.0,1.0,0.0
1313.7768806266831,127.25829013556603,2078.648681640625,34594.09765625,89.82305908203125,321.25048828125,-38.891143798828125,160122.11202606486,-1017.9636872522533,-579676.9554191243,2221.017448529252,-598439.9367424536,13.124295293180978,1.0,1.0,0.0
1329.1077499189414,128.0882594650385,2076.203369140625,34566.92578125,89.81869506835938,320.5063171386719,-39.63336181640625,160126.0748946442,-1017.9589009173214,-579691.7654045839,2247.329467642121,-598439.9492150829,13.210881964375801,1.0,1.0,0.0
1344.5378595560323,128.91979768436383,2073.75830078125,34539.7578125,89.8165283203125,319.4342041015625,-40.70458984375,160130.06310454317,-1017.9539838843048,-579706.6717046893,2273.8349223982077,-598439.9732298709,13.297649975903198,1.0,1.0,0.0
1360.0679983566515,129.752920755976,2071.31298828125,34512.58984375,89.81231689453125,318.8111877441406,-41.326416015625,160134.07675596292,-1017.9489138759673,-579721.6747392309,2300.534722034936,-598440.004860732,13.384601343551026,1.0,1.0,0.0
1375.6983479070477,130.5876338367135,2068.867919921875,34485.421875,89.80819702148438,317.61700439453125,-42.5203857421875,160138.1157329865,-1017.9437040127814,-579736.7745802484,2327.429536492564,-598440.04746686,13.471736644931411,1.0,1.0,0.0
1391.4285030944739,131.42391901508225,2066.4228515625,34458.25390625,89.81024169921875,317.15576171875,-42.982635498046875,160142.1799917362,-1017.9383644424379,-579751.9714156983,2354.5197458878392,-598440.1011128647,13.559054212053582,1.0,1.0,0.0
1407.2598126819357,132.2617832714757,2063.9775390625,34431.0859375,89.81024169921875,316.8382568359375,-43.300445556640625,160146.26964433203,-1017.9328841380775,-579767.2655294138,2381.8061873876723,-598440.1432565207,13.64655598532579,1.0,1.0,0.0
1423.1911726688268,133.10122314023383,2061.532470703125,34403.91796875,89.80819702148438,316.3349914550781,-43.8089599609375,160150.38479477234,-1017.927291829139,-579782.656985313,2409.289423657814,-598440.1764600088,13.734241700560574,1.0,1.0,0.0
1439.2236069310457,133.94224645404412,2059.08740234375,34376.75,89.80416870117188,316.1893310546875,-43.9556884765625,160154.5255031778,-1017.921567287296,-579798.1460352702,2436.970131200389,-598440.2126665659,13.822111829951268,1.0,1.0,0.0
1455.357452086988,134.7848816559243,2056.64208984375,34349.578125,89.80020141601562,315.5927429199219,-44.549774169921875,160158.69175762986,-1017.9157492853701,-579813.7328152426,2464.8494469869183,-598440.2451298457,13.910169841301013,1.0,1.0,0.0
1471.5919283371186,135.62913577419604,2054.197021484375,34322.41015625,89.79730224609375,315.02630615234375,-45.1153564453125,160162.88375420653,-1017.909841131419,-579829.4175890236,2492.9280523550697,-598440.2765937429,13.998416539803031,1.0,1.0,0.0
1487.9283419965068,136.4750229725254,2051.751953125,34295.2421875,89.79254150390625,314.88427734375,-45.25579833984375,160167.10142898996,-1017.9037334509194,-579845.2004606114,2521.2067523311125,-598440.3234611381,14.086852836314677,1.0,1.0,0.0
1504.365870971349,137.32254363422197,2049.306640625,34268.07421875,89.78878784179688,313.9601135253906,-46.175262451171875,160171.34462218537,-1017.8973475880921,-579861.0816900019,2549.6862863239367,-598440.3808374989,14.1754792058195,1.0,1.0,0.0
1520.9057213164633,138.17170136136968,2046.861572265625,34240.90625,89.78692626953125,313.77056884765625,-46.35955810546875,160175.6134778717,-1017.8907481916249,-579877.0615090295,2578.3672989850165,-598440.4466343839,14.26429631528282,1.0,1.0,0.0
1540.3307027337141,139.16441711784634,2044.0087890625,34209.2109375,89.7906494140625,313.0533447265625,-47.078704833984375,160180.626057768,-1017.8827931620181,-579895.8294176151,2612.083542854758,-598440.5361073932,14.368153663556654,1.0,1.0,0.0
1557.0916363497963,140.0170488552103,2041.563720703125,34182.04296875,89.78970336914062,312.0258483886719,-48.10382080078125,160184.9503586062,-1017.8757223971188,-579912.0234913775,2641.202526810579,-598440.5890126748,14.457378692138093,1.0,1.0,0.0
1573.9548325899523,140.87127796334852,2039.1185302734375,34154.87109375,89.79345703125,312.3163757324219,-47.817108154296875,160189.30050609465,-1017.8685763068497,-579928.3165545275,2670.5245691289892,-598440.6389357867,14.546791570135667,1.0,1.0,0.0
1590.92077364109,141.72711787225396,2036.67333984375,34127.703125,89.79443359375,312.45294189453125,-47.677459716796875,160193.67651647652,-1017.8614282347262,-579944.7090468957,2700.0505424235016,-598440.6833924793,14.6363940339578,1.0,1.0,0.0
1605.1377067305148,142.4415558171419,2034.6357421875,34105.0625,89.79254150390625,313.2853698730469,-46.8385009765625,160197.3430169472,-1017.8554457463324,-579958.4454503574,2724.811818183516,-598440.7328603739,14.711207706007485,1.0,1.0,0.0
1622.2924019552302,143.30036249172556,2032.1905517578125,34077.89453125,89.7906494140625,313.6831970214844,-46.43280029296875,160201.76659339265,-1017.8481878377497,-579975.0204894462,2754.7136155329645,-598440.7711139284,14.801159542643063,1.0,1.0,0.0
1639.5502256335458,144.1608219151167,2029.745361328125,34050.7265625,89.78970336914062,314.07373046875,-46.032318115234375,160206.21632088927,-1017.840719986707,-579991.6954214217,2784.8219372137683,-598440.7856470189,14.89130685597695,1.0,1.0,0.0
1654.0107190703275,144.87914823385282,2027.707763671875,34028.0859375,89.78509521484375,313.64013671875,-46.462554931640625,160209.9443084368,-1017.8343334682286,-580005.6674884163,2810.070466509671,-598440.828980215,14.966578141251944,1.0,1.0,0.0
1671.458150554914,145.74267593261922,2025.2625732421875,34000.91796875,89.78421020507812,313.5065002441406,-46.5926513671875,160214.44184247995,-1017.8265260346234,-580022.5259746099,2840.559422372491,-598440.9025598468,15.057083279703875,1.0,1.0,0.0
1689.0094251700211,146.60787081420145,2022.8173828125,33973.75,89.781494140625,313.9723815917969,-46.125823974609375,160218.9653759012,-1017.818608764559,-580039.4848336017,2871.2569628336933,-598440.968303949,15.147785226454062,1.0,1.0,0.0
1706.6645699130604,147.47471040726057,2020.372314453125,33946.58203125,89.781494140625,314.67889404296875,-45.417327880859375,160223.5149888614,-1017.8105906881392,-580056.5444012242,2902.163555883337,-598441.0138550199,15.238682512789183,1.0,1.0,0.0
1721.4571927223587,148.19834133017284,2018.334716796875,33923.94140625,89.78329467773438,315.44732666015625,-44.652374267578125,160227.32639195028,-1017.8037379719317,-580070.8376802427,2928.0793207943207,-598441.0425901193,15.314580185084992,1.0,1.0,0.0
1739.3029336663894,149.0682312918729,2015.889404296875,33896.7734375,89.78240966796875,315.5238037109375,-44.56939697265625,160231.924196019,-1017.7953175194561,-580088.0820414152,2959.3713250453584,-598441.0944956142,15.405837649963416,1.0,1.0,0.0
1757.2536816641223,149.9397991734093,2013.4443359375,33869.6015625,89.78329467773438,316.16888427734375,-43.919769287109375,160236.5481998682,-1017.7866509892046,-580105.4276149671,2990.874665496056,-598441.1529132641,15.49729320063392,1.0,1.0,0.0
1772.2925252526766,150.6673663359897,2011.40673828125,33846.96484375,89.78329467773438,316.4500732421875,-43.635772705078125,160240.42168364718,-1017.7792265154421,-580119.9597880081,3017.289183595334,-598441.2009408032,15.573655734333045,1.0,1.0,0.0
1790.435732920887,151.5419643575271,2008.9615478515625,33819.79296875,89.78692626953125,317.044189453125,-43.037567138671875,160245.09405517,-1017.7701368965209,-580137.4912666061,3049.181415275787,-598441.2264115101,15.66547259266838,1.0,1.0,0.0
1808.6831411939347,152.41823533447607,2006.516357421875,33788.09765625,89.7860107421875,316.98895263671875,-43.09320068359375,160250.57885848216,-1017.7592492438853,-580158.0732164959,3081.287036844529,-598441.2367833717,15.757488825575251,1.0,1.0,0.0
1830.105848405161,153.44272880150078,2003.6636962890625,33760.9296875,89.78692626953125,316.26934814453125,-43.802581787109375,160256.09995110318,-1017.7481362260878,-580178.793815446,3119.0150325619616,-598441.2772993924,15.865097456930812,1.0,1.0,0.0
1848.581856457633,154.32275432182527,2001.218505859375,33729.234375,89.78329467773438,316.18927001953125,-43.8974609375,160260.86123468113,-1017.73849985376,-580196.6650722078,3151.5873873817036,-598441.3077145648,15.9575572269502,1.0,1.0,0.0
1870.27109453117,155.35165971050748,1998.3658447265625,33702.06640625,89.781494140625,316.33697509765625,-43.75555419921875,160265.64899860314,-1017.7287319637835,-580214.6387167631,3189.862347253016,-598441.3736688565,16.065687116066044,1.0,1.0,0.0
1888.9765826092334,156.2354543354377,1995.920654296875,33674.89453125,89.77883911132812,316.2499694824219,-43.83978271484375,160270.4633468676,-1017.7186959125102,-580232.7148130296,3222.9049550972413,-598441.4349287065,16.158592447626347,1.0,1.0,0.0
1907.7884645108134,157.12097134485833,1993.4755859375,33647.7265625,89.77972412109375,316.15423583984375,-43.939697265625,160275.30439971588,-1017.7083337940276,-580250.8938647563,3256.1656647640048,-598441.4688622097,16.25170425081734,1.0,1.0,0.0
1926.7066042915685,158.00823356584414,1991.0302734375,33620.55859375,89.781494140625,315.5275573730469,-44.56414794921875,160280.17238898238,-1017.6977514661849,-580269.1757278644,3289.6455018962733,-598441.5024924198,16.345023705678045,1.0,1.0,0.0
1942.5534818088636,158.74894342497527,1988.99267578125,33597.91796875,89.78329467773438,315.15252685546875,-44.94158935546875,160284.24938530914,-1017.6887515820563,-580284.4895015998,3317.7130665846635,-598441.5565420603,16.422946408641167,1.0,1.0,0.0
1961.6672756733606,159.639374999167,1986.547607421875,33570.75,89.78421020507812,314.48565673828125,-45.61077880859375,160289.16647994128,-1017.6777573861182,-580302.9607320778,3351.5960223881993,-598441.5943689888,16.516643794393758,1.0,1.0,0.0
1980.8879057687009,160.53155190551908,1984.1024169921875,33543.58203125,89.787841796875,314.29119873046875,-45.810272216796875,160294.11050339727,-1017.6666930653155,-580321.5354856825,3385.7003588682273,-598441.5960342984,16.610551539204096,1.0,1.0,0.0
2000.2157761537237,161.42551909940406,1981.6572265625,33516.4140625,89.78329467773438,313.22308349609375,-46.8778076171875,160299.0817676722,-1017.6554966010153,-580340.213954168,3420.027245118632,-598441.6379207707,16.70467035710641,1.0,1.0,0.0
2019.6512173825176,162.32128904105076,1979.212158203125,33489.24609375,89.78329467773438,312.26025390625,-47.842803955078125,160304.07991309624,-1017.6442238725722,-580358.9964896096,3454.577814534423,-598441.6857706017,16.799003687613208,1.0,0.9996191624538271,0.0
2039.1942804594291,163.21887663616906,1976.766845703125,33462.078125,89.781494140625,311.8077087402344,-48.298828125,160309.10527550182,-1017.632884029299,-580377.8830118463,3489.3532044818858,-598441.7141436096,16.893554760422035,1.0,0.9992404209213289,0.0
2058.844931874075,164.1182717881249,1974.32177734375,33434.91015625,89.78060913085938,311.5587158203125,-48.5538330078125,160314.15770321584,-1017.6213745810091,-580396.8740007897,3524.3537097207736,-598441.7798595047,16.988319594640586,1.0,0.9988595943435257,0.0
2078.603659364977,165.0194735465903,1971.8765869140625,33407.7421875,89.78509521484375,310.5603332519531,-49.5609130859375,160319.23706840258,-1017.6097132302821,-580415.9696644366,3559.580339655746,-598441.840981909,17.083300709465902,1.0,0.9984766732681205,0.0
2098.4706008989597,165.9224497357595,1969.431396484375,33380.57421875,89.78329467773438,310.48541259765625,-49.635040283203125,160324.3435790587,-1017.5979605652392,-580435.1701306226,3595.0332338142907,-598441.9196176549,17.178493749348092,1.0,0.9980916550213379,0.0
2118.4464106445666,166.82717705463995,1966.986328125,33353.40234375,89.78692626953125,310.62872314453125,-49.490875244140625,160329.47704343064,-1017.5860900618136,-580454.475711343,3630.713005778729,-598441.9663673191,17.273899384956792,1.0,0.9977045269254928,0.0
2138.531023942749,167.73364791569443,1964.5411376953125,33326.234375,89.79254150390625,310.7259521484375,-49.395660400390625,160334.6379414298,-1017.5741634108126,-580473.8865582709,3666.6200934614753,-598442.0116758854,17.369515351410826,1.0,0.9973152902336676,0.0
2155.3510669851676,168.49038993186798,1962.50341796875,33303.59375,89.79345703125,311.10467529296875,-49.0252685546875,160338.95965432623,-1017.564265165478,-580490.142658954,3696.717246715678,-598442.0337398581,17.44935888290979,1.0,0.9969893204072642,0.0
2175.63500710926,169.4001276655388,1960.058349609375,33276.42578125,89.79443359375,311.09637451171875,-49.03167724609375,160344.17095545563,-1017.5523777343333,-580509.7468230815,3733.0445474610897,-598442.031756917,17.545371106116136,1.0,0.9965962207924562,0.0
2196.0282454673434,170.31171483393706,1957.6131591796875,33249.2578125,89.7906494140625,311.12225341796875,-49.0152587890625,160349.4098104538,-1017.5405097343028,-580529.4567571654,3769.6029085360933,-598442.0910569662,17.641601813246382,1.0,0.996201002994819,0.0
2216.531334769097,171.22512305802434,1955.16796875,33222.08984375,89.79443359375,312.1127624511719,-48.028594970703125,160354.67602756698,-1017.5286556221545,-580549.2727732008,3806.3928885102505,-598442.1627847659,17.738051147199997,1.0,0.9958036563029246,0.0
2237.1441805360373,172.14033639256252,1952.722900390625,33194.921875,89.79443359375,314.08709716796875,-46.06036376953125,160359.969814792,-1017.5167686678469,-580569.1949990233,3843.415317615145,-598442.1909397439,17.834721034168183,1.0,0.9954041825477513,0.0
2257.866984569351,173.05735631656077,1950.2777099609375,33167.75390625,89.79254150390625,314.97418212890625,-45.17529296875,160365.29114829152,-1017.5048577524722,-580589.223706548,3880.670711186016,-598442.2280299583,17.931608817929032,1.0,0.9950025778184235,0.0
2278.699658270809,173.9761813770369,1947.83251953125,33140.5859375,89.79443359375,316.8124694824219,-43.341583251953125,160370.64023606226,-1017.4928961135447,-580609.3590236104,3918.15986830194,-598442.2665066379,18.028715062390575,1.0,0.9945988438319611,0.0
2299.642557935207,174.89677865021258,1945.387451171875,33113.4140625,89.79443359375,318.6077880859375,-41.55035400390625,160376.0169502684,-1017.4807478524745,-580629.6011582072,3955.8828419112833,-598442.3332828827,18.126034988961067,1.0,0.9941929736834262,0.0
2320.6965405015508,175.81909221350259,1942.942138671875,33086.24609375,89.80120849609375,322.69720458984375,-37.466705322265625,160381.42130715313,-1017.4684446193278,-580649.9505501695,3993.839739369927,-598442.3733270704,18.223566355509604,1.0,0.9937849507654739,0.0
2341.8612432052614,176.7430431332056,1940.4970703125,33059.078125,89.81231689453125,326.9741516113281,-33.19696044921875,160386.85364254896,-1017.4559166766703,-580670.4071193362,4032.029759951867,-598442.4020748683,18.321300276587465,1.0,0.9933747821084252,0.0
2363.136368514155,177.6686006946457,1938.0518798828125,33031.91015625,89.82086181640625,332.5802917480469,-27.596466064453125,160392.31389253805,-1017.443253967911,-580690.9709697057,4070.4531228634296,-598442.4025970076,18.419234869920103,1.0,0.9929624734784078,0.0
2384.5234653478255,178.5957568580999,1935.606689453125,33004.7421875,89.82867431640625,338.71478271484375,-21.459136962890625,160397.80251319442,-1017.4304880835116,-580711.642524866,4109.110611361684,-598442.3537311208,18.517370903985352,1.0,0.9925479948576003,0.0
2406.0215397310676,179.52455563379837,1933.16162109375,32977.57421875,89.829833984375,343.37152099609375,-16.793670654296875,160403.31990426852,-1017.4176736213267,-580732.4216006575,4148.003631053842,-598442.2675803871,18.615712541881464,1.0,0.9921313655090878,0.0
2427.631258184556,180.45506175152477,1930.7164306640625,32950.40625,89.829833984375,347.9051513671875,-12.2579345703125,160408.86587400667,-1017.40476045385,-580753.3085090755,4187.1337509001605,-598442.2092841743,18.71426281292213,1.0,0.9917125725158031,0.0
2449.352870824863,181.38728121552847,1928.271240234375,32923.234375,89.82754516601562,352.55560302734375,-7.60064697265625,160414.44056648776,-1017.3917109705508,-580774.303481954,4226.5021692266455,-598442.1405220955,18.81302500301473,1.0,0.991291611030526,0.0
2471.1860261460533,182.3211723074296,1925.826171875,32896.06640625,89.82305908203125,358.17095947265625,-1.9822998046875,160420.04385387604,-1017.3786079622805,-580795.40672729,4266.108546284842,-598442.112246999,18.911991843358066,1.0,0.9908684878653866,0.0
2493.1318076872267,183.25668017236023,1923.380859375,32868.8984375,89.81231689453125,4.534187316894531,4.386138916015625,160425.67611208456,-1017.3653350807726,-580816.6183328385,4305.953116639517,-598442.015906678,19.011164698446407,1.0,0.9904431820215653,0.0
2515.1917969407514,184.1937324703153,1920.935791015625,32841.73046875,89.80416870117188,11.038114547729492,10.88836669921875,160431.33717514604,-1017.3517377447706,-580837.9385745716,4346.034621461062,-598441.9741421624,19.11052856990227,1.0,0.9900156628499854,0.0
