obs_alt,obs_vel,obs_fuel,obs_mass,obs_pitch,obs_heading,obs_roll,obs_pos_x,obs_pos_y,obs_pos_z,obs_ap,obs_pe,obs_time_to_ap,act_throttle,act_pitch,act_stage
11.388927613035776,1.6637526692008922,2868.996826171875,43875.7421875,89.9515380859375,271.3035888671875,-90.0,159783.35676295703,-1018.0114983083336,-578419.1906495349,83.90064624452498,-598435.2841563046,0.17053203959585517,1.0,1.0,0.0
11.619270587572828,2.0786168889413794,2866.5517578125,43848.57421875,89.95574951171875,271.695556640625,-90.0,159783.41734327297,-1018.0119298683135,-578419.4128843894,84.2105579188792,-598435.3047598348,0.21305515762367122,1.0,1.0,0.0
11.899466389790177,2.4944659174506425,2864.1064453125,43821.40625,89.94406127929688,272.119384765625,-90.0,159783.49104018565,-1018.0124880881635,-578419.6832174895,84.588217261713,-598435.3272373463,0.2556793423870545,1.0,1.0,0.0
12.229640809237026,2.911301860628681,2861.6611328125,43794.23828125,89.95574951171875,272.5584716796875,-90.0,159783.57787834038,-1018.0131713511078,-578420.0017652905,85.03386958467308,-598435.3496228557,0.2984048376604278,1.0,1.0,0.0
12.609899261733517,3.3291265766131963,2859.21630859375,43767.0703125,89.96044921875,273.0016784667969,-90.0,159783.6778834002,-1018.0139752613036,-578420.3686426345,85.54776036378462,-598435.3726033377,0.3412318601970128,1.0,1.0,0.0
13.04037396388594,3.7479419638214453,2856.77099609375,43739.90234375,89.95574951171875,273.442138671875,-90.0,159783.79108531564,-1018.0148998113004,-578420.7839665039,86.13013693899848,-598435.394788944,0.3841606333861023,1.0,1.0,0.0
13.521179706905968,4.167749908634867,2854.32568359375,43712.734375,89.96044921875,273.8756103515625,-90.0,159783.9175178963,-1018.015942751023,-578421.2478495501,86.78124671126716,-598435.4158808979,0.4271913788592201,1.0,1.0,0.0
14.052429818548262,4.588552299783344,2851.880615234375,43685.56640625,89.9515380859375,274.29998779296875,-90.0,159784.05720684867,-1018.0171029554335,-578421.760408334,87.50133762054611,-598435.438835297,0.47032431377914463,1.0,1.0,0.0
14.634250820614398,5.010351389811285,2849.435546875,43658.39453125,89.96044921875,274.71453857421875,-90.0,159784.2101726177,-1018.0183816538779,-578422.3217606075,88.29065923276357,-598435.4620160537,0.513559699105258,1.0,1.0,0.0
15.266757097328082,5.433148396472313,2846.990234375,43631.2265625,89.9515380859375,275.11920166015625,-90.0,159784.37644069892,-1018.0197803662745,-578422.9320250538,89.14946186577436,-598435.4862784669,0.556897686185664,1.0,1.0,0.0
15.832656234619208,5.786243177303244,2844.95263671875,43608.58984375,89.9515380859375,275.44940185546875,-90.0,159784.52517563832,-1018.0210361281065,-578423.4780268068,89.91838767228182,-598435.5067050878,0.5930912417981631,1.0,1.0,0.0
16.558407527045347,6.210875211921471,2842.507568359375,43581.41796875,89.9515380859375,275.8379821777344,-90.0,159784.7158961318,-1018.0226501771836,-578424.1782671722,90.90522512793541,-598435.5313540262,0.6366179737964899,1.0,1.0,0.0
17.33518611465115,6.636510410307863,2840.0625,43554.25,89.9515380859375,276.2189636230469,-90.0,159784.91998904475,-1018.0243820013134,-578424.927753695,91.96225763706025,-598435.5572506542,0.6802479256261336,1.0,1.0,0.0
18.16310541704297,7.063151108403084,2837.6171875,43527.08203125,89.95574951171875,276.593505859375,-90.0,159785.13748402978,-1018.0262316824524,-578425.7266020422,93.08973831497133,-598435.5818058088,0.7239813715844434,1.0,1.0,0.0
19.0423012181418,7.490798775952338,2835.172119140625,43499.9140625,89.9515380859375,276.96246337890625,-90.0,159785.36841549235,-1018.0282008150248,-578426.574927496,94.28792140632868,-598435.6062546186,0.7678184892583317,1.0,1.0,0.0
19.972889360855334,7.919455670413289,2832.72705078125,43472.74609375,89.96044921875,277.326904296875,-90.0,159785.61280892807,-1018.0302905091671,-578427.4728487392,95.55706288246438,-598435.6314845813,0.8117595374405937,1.0,1.0,0.0
20.954984147916548,8.349122690007842,2830.28173828125,43445.578125,89.9515380859375,277.68756103515625,-90.0,159785.8706869909,-1018.0325002656905,-578428.4204871724,96.89741779048927,-598435.6576635019,0.8558046373796628,1.0,1.0,0.0
21.98871346609667,8.77980227650189,2827.83642578125,43418.40625,89.94406127929688,278.104736328125,-90.0,159786.18862365923,-1018.0352301584212,-578429.5890566937,98.30924353329465,-598435.6835195996,0.899954073011827,1.0,1.0,0.0
23.074197108857334,9.211496366319247,2825.3916015625,43391.23828125,89.9515380859375,278.40069580078125,-90.0,159786.42701225835,-1018.0372824730007,-578430.4653818015,99.79279900609981,-598435.7083515303,0.9442080757142435,1.0,1.0,0.0
24.211557444068603,9.644205909272324,2822.9462890625,43364.0703125,89.94766235351562,278.75421142578125,-90.0,159786.7255233972,-1018.0398564325301,-578431.562874506,101.34834097337443,-598435.7342975349,0.9885667670077964,1.0,1.0,0.0
25.40091950877104,10.077933412866257,2820.5009765625,43336.90234375,89.95574951171875,279.1063232421875,-90.0,159787.0376326863,-1018.0425495342938,-578432.7105551352,102.97613063117024,-598435.7600537051,1.0330304390336664,1.0,1.0,0.0
26.64240356371738,10.512680132952429,2818.055908203125,43309.734375,89.95574951171875,279.4574279785156,-90.0,159787.363370759,-1018.0453638756303,-578433.9085467396,104.67642789427191,-598435.7864639007,1.0775992488781299,1.0,1.0,0.0
27.93612524785567,10.948448599738771,2815.61083984375,43282.56640625,89.9515380859375,279.80767822265625,-90.0,159787.70276323485,-1018.0483005107967,-578435.1569624428,106.44949466409162,-598435.8124597871,1.1222734911727343,1.0,1.0,0.0
29.28222106024623,11.385239799302045,2813.16552734375,43255.3984375,89.9515380859375,280.1573791503906,-90.0,159788.0558387121,-1018.0513603264121,-578436.4559285219,108.2955922629917,-598435.8399705344,1.1670532915755985,1.0,1.0,0.0
30.680798251531087,11.823056313628324,2810.720458984375,43228.2265625,89.94406127929688,280.5069274902344,-90.0,159788.4226234061,-1018.0545476959674,-578437.8055607311,110.21498437947594,-598435.8656707973,1.2119389596627457,1.0,1.0,0.0
31.886467872885987,12.188687552044964,2808.682861328125,43205.58984375,89.94766235351562,280.7979736328125,-90.0,159788.73877729598,-1018.0573035763232,-578438.9690426902,111.87065702164546,-598435.887496586,1.2494246646143665,1.0,1.0,0.0
33.38159677560907,12.62838769161332,2806.23779296875,43178.41796875,89.93743896484375,281.1473388671875,-90.0,159789.13078317375,-1018.0607298208056,-578440.4118743849,113.92510865791701,-598435.9145700581,1.294504887190385,1.0,1.0,0.0
34.92956544063054,13.06911794477848,2803.79248046875,43151.25,89.94406127929688,281.49664306640625,-90.0,159789.53657410902,-1018.0642784578381,-578441.9057131929,116.05360519431997,-598435.9426312296,1.339691550358566,1.0,1.0,0.0
36.530495463171974,13.510879176581927,2801.34716796875,43124.08203125,89.94406127929688,281.84613037109375,-90.0,159789.9561807351,-1018.0679471144108,-578443.4506821649,118.25641214230563,-598435.971021104,1.3849847784420604,1.0,1.0,0.0
38.184508964419365,13.953674150805499,2798.90234375,43096.9140625,89.94766235351562,282.1957702636719,-90.0,159790.38962621478,-1018.071740205924,-578445.0469018947,120.53379834326915,-598435.9997707278,1.430384888058029,1.0,1.0,0.0
39.891747487708926,14.39750413503018,2796.45703125,43069.74609375,89.940673828125,282.54571533203125,-90.0,159790.83694160316,-1018.0756618274031,-578446.6944911892,122.8860301214736,-598436.027619478,1.475892048906644,1.0,1.0,0.0
41.65230446483474,14.842371100816981,2794.01171875,43042.578125,89.94766235351562,282.89605712890625,-90.0,159791.29816703917,-1018.0797094038576,-578448.3935723291,125.313379011699,-598436.0550070864,1.5215064952626562,1.0,1.0,0.0
43.46632524766028,15.288276516871425,2791.566650390625,43015.40625,89.94406127929688,283.2465515136719,-90.0,159791.7733267031,-1018.0838829440186,-578450.1442642949,127.81611317268107,-598436.0828697155,1.5672284073713172,1.0,1.0,0.0
45.33392763673328,15.735222241573236,2789.12158203125,42988.2421875,89.94406127929688,283.59765625,-90.0,159792.26244961514,-1018.0881875870405,-578451.9466891198,130.394504804397,-598436.1113793814,1.6130580092000173,1.0,1.0,0.0
47.255237263510935,16.18321017827727,2786.67626953125,42961.0703125,89.94766235351562,283.9490051269531,-90.0,159792.76555851617,-1018.092622465047,-578453.800971642,133.0488251108909,-598436.1395760166,1.6589955358628572,1.0,1.0,0.0
49.23039053555112,16.63224234156477,2784.231201171875,42933.90234375,89.93438720703125,284.30078125,-90.0,159793.28268709217,-1018.0971848168997,-578455.7072300721,135.77934647980146,-598436.1682277335,1.7050412247500049,1.0,1.0,0.0
51.259502111468464,17.08231933382125,2781.7861328125,42906.734375,89.93743896484375,284.6530456542969,-90.0,159793.81385969752,-1018.1018667300818,-578457.6655902658,138.58634232054465,-598436.198592745,1.751195165517288,1.0,1.0,0.0
52.99173242924735,17.45818399242419,2779.74853515625,42884.09375,89.94406127929688,284.94677734375,-90.0,159794.26724696954,-1018.105865615013,-578459.3374439399,140.9841220678063,-598436.2240382867,1.7897397499297654,1.0,1.0,0.0
55.1200889024185,17.9101824036806,2777.30322265625,42856.92578125,89.93145751953125,285.29962158203125,-90.0,159794.82422884076,-1018.110786142352,-578461.3916430566,143.9320350656053,-598436.2536418426,1.8360928725265353,1.0,1.0,0.0
57.30276434367988,18.363231687973975,2774.858154296875,42829.7578125,89.940673828125,285.6527404785156,-90.0,159795.395339666,-1018.1158357994286,-578463.4982883947,146.95720340125263,-598436.2822972914,1.8825549845306568,1.0,1.0,0.0
59.163238929235376,18.74157642711412,2772.8203125,42807.1171875,89.93145751953125,285.9474792480469,-90.0,159795.88208415266,-1018.1201426149933,-578465.293972525,149.53739038377535,-598436.3067551077,1.9213567794373034,1.0,1.0,0.0
61.445824384340085,19.196554883964215,2770.37548828125,42779.94921875,89.93743896484375,286.30145263671875,-90.0,159796.47917270026,-1018.1254324154584,-578467.4970907024,152.70491180149838,-598436.3372753635,1.9680190415078869,1.0,1.0,0.0
63.78306681965478,19.65258948934656,2767.93017578125,42752.78125,89.94406127929688,286.6557922363281,-90.0,159797.09046884748,-1018.1308519826857,-578469.753002363,155.95047554303892,-598436.3670869143,2.014790936804559,1.0,1.0,0.0
66.17512903362513,20.109680268939073,2765.48486328125,42725.61328125,89.93743896484375,287.01092529296875,-90.0,159797.71600119272,-1018.1364016780285,-578472.0618337843,159.27435882366262,-598436.3971309748,2.0616724993633966,1.0,1.0,0.0
68.21046461071819,20.491397476199204,2763.447265625,42702.97265625,89.940673828125,287.30731201171875,-90.0,159798.2481780665,-1018.1411220380692,-578474.0263746842,162.1042913463898,-598436.422349451,2.1008244148515587,1.0,1.0,0.0
70.7033142556902,20.950429014760147,2761.002197265625,42675.8046875,89.93743896484375,287.663330078125,-90.0,159798.89989000978,-1018.1469071568577,-578476.4325459092,165.5724894066807,-598436.4530992983,2.147907585168298,1.0,1.0,0.0
73.25132418284193,21.410521447711094,2758.55712890625,42648.6328125,89.940673828125,288.0198059082031,-90.0,159799.56592121496,-1018.1528224708168,-578478.8919914537,169.11980465159286,-598436.4839490309,2.1951010149838908,1.0,1.0,0.0
75.85463391430676,21.871676521326894,2756.11181640625,42621.46484375,89.94406127929688,288.37628173828125,-90.0,159800.24630112379,-1018.1588621424166,-578481.4048291068,172.7465188106289,-598436.514237477,2.2424049269792476,1.0,1.0,0.0
78.51336006552447,22.333894978169226,2753.666748046875,42594.296875,89.93438720703125,288.73321533203125,-90.0,159800.94106682274,-1018.165024949762,-578483.971185989,176.45291255484335,-598436.5448853179,2.2898194293103415,1.0,1.0,0.0
81.22761136631016,22.79717962641429,2751.2216796875,42567.12890625,89.94406127929688,289.0902404785156,-90.0,159801.65023196905,-1018.1713209064333,-578486.5911834643,180.2392736886395,-598436.5769792921,2.3373448406519515,1.0,1.0,0.0
83.9975401252741,23.261531615380072,2748.7763671875,42539.9609375,89.93743896484375,289.4478759765625,-90.0,159802.3738316143,-1018.1777579100458,-578489.2649518797,184.10588610591367,-598436.6083581166,2.3849813349984856,1.0,1.0,0.0
86.82326092803851,23.726952525029393,2746.331298828125,42512.79296875,89.93145751953125,289.8065490722656,-90.0,159803.11189113025,-1018.1843365268437,-578491.9926154776,188.05303675401956,-598436.6412376468,2.432729096452306,1.0,1.0,0.0
89.7049367375439,24.193444341273214,2743.88623046875,42485.625,89.94406127929688,290.16534423828125,-90.0,159803.86445693497,-1018.1910508038131,-578494.774293734,192.08101316005923,-598436.6704219255,2.4805884111355567,1.0,1.0,0.0
92.64263567188755,24.661007357847797,2741.44091796875,42458.45703125,89.93743896484375,290.5243225097656,-90.0,159804.6315576269,-1018.1978920088736,-578497.6101129258,196.1900988142006,-598436.7008723627,2.5285593096529055,1.0,1.0,0.0
95.63654401316307,25.129645647277727,2738.99560546875,42431.28515625,89.94406127929688,290.8839111328125,-90.0,159805.41321773455,-1018.204862667772,-578500.5002057835,200.38059390732087,-598436.7314597452,2.5766422597413907,1.0,1.0,0.0
98.68675867083948,25.599359970978107,2736.55078125,42404.12109375,89.93743896484375,291.2437438964844,-90.0,159806.20948010104,-1018.2119554267852,-578503.4446759984,204.6527791110566,-598436.761210954,2.6248373886747345,1.0,1.0,0.0
101.79342067928519,26.070150390804777,2734.10546875,42376.94921875,89.93743896484375,291.603759765625,-90.0,159807.02035908002,-1018.2191678123204,-578506.4436724336,209.00694252585527,-598436.7921917599,2.673144726737121,1.0,1.0,0.0
104.95667192013934,26.5420201519644,2731.66015625,42349.78125,89.93743896484375,291.9642333984375,-90.0,159807.84589786304,-1018.226512520167,-578509.49731253,213.44338574423455,-598436.8232778851,2.7215646578513315,1.0,1.0,0.0
108.17660194879863,27.01496978585885,2729.215087890625,42322.61328125,89.93743896484375,292.325439453125,-90.0,159808.68611452525,-1018.2339904443947,-578512.6057249481,217.96238925342914,-598436.8543966396,2.7700972794349923,1.0,1.0,0.0
111.45335520186927,27.489002808192044,2726.77001953125,42295.4453125,89.93743896484375,292.68682861328125,-90.0,159809.54103528202,-1018.2415964739052,-578515.769025442,222.5642569117481,-598436.887429332,2.8187429767647814,1.0,1.0,0.0
114.78709605406038,27.964118023835184,2724.32470703125,42268.27734375,89.93438720703125,293.0491027832031,-90.0,159810.4106934981,-1018.2493411140172,-578518.987361335,227.24927760765422,-598436.9190735235,2.867501700837863,1.0,1.0,0.0
118.17790632182732,28.44031949681759,2721.879638671875,42241.109375,89.93743896484375,293.4118957519531,-90.0,159811.29511945858,-1018.2572259591548,-578522.2608419282,232.01774821535219,-598436.9520236294,2.9163738857286035,1.0,1.0,0.0
121.62595992279239,28.917607648679933,2719.4345703125,42213.94140625,89.92599487304688,293.775390625,-90.0,159812.19433769208,-1018.2652435885398,-578525.589599952,236.86996340879705,-598436.9849362925,2.965359631101535,1.0,1.0,0.0
124.54314640315715,29.31617709545811,2717.39697265625,42191.30078125,89.92599487304688,294.0784912109375,-90.0,159812.95500428148,-1018.2720322744576,-578528.4058873355,240.97765484382398,-598437.0142141489,3.006267765594828,1.0,1.0,0.0
128.0964291933924,29.795463126154196,2714.95166015625,42164.1328125,89.93145751953125,294.4422607421875,-90.0,159813.8814357641,-1018.280306188914,-578531.8363172532,245.98418161191512,-598437.0395612823,3.0554624731143463,1.0,1.0,0.0
131.70731762098148,30.275839861799028,2712.506591796875,42136.96484375,89.92868041992188,294.8072204589844,-90.0,159814.82276397792,-1018.2887162552802,-578535.3223881435,251.0752927006688,-598437.0749680448,3.104771176883503,1.0,1.0,0.0
135.3759192135185,30.757308540112636,2710.0615234375,42109.79296875,89.92599487304688,295.1726379394531,-90.0,159815.7789519995,-1018.2972642169921,-578538.8642300599,256.25128952693194,-598437.1184057819,3.154194065246031,1.0,1.0,0.0
139.1023828657344,31.239870571719692,2707.6162109375,42082.625,89.92086791992188,295.53826904296875,-90.0,159816.75003726367,-1018.3059433983294,-578542.4619838726,261.51247176376637,-598437.1590710174,3.203731438940224,1.0,1.0,0.0
142.8868589141639,31.723529971352697,2705.1708984375,42055.45703125,89.92599487304688,295.9037780761719,-90.0,159817.73605650873,-1018.3147571818558,-578546.1157629525,266.8591486349469,-598437.1943306254,3.2533837857399135,1.0,1.0,0.0
146.72941258817445,32.20828628880456,2702.72607421875,42028.2890625,89.92868041992188,296.2694091796875,-90.0,159818.73707466875,-1018.3237042264668,-578549.8257074734,272.291619116324,-598437.2286440186,3.3031510584855255,1.0,1.0,0.0
150.63023273798171,32.69414205902964,2700.28076171875,42001.12109375,89.93145751953125,296.6358642578125,-90.0,159819.75310505275,-1018.332778303477,-578553.5919250497,277.81018592137843,-598437.2660839217,3.3530335184901787,1.0,1.0,0.0
153.92550577269867,33.09986197755947,2698.2431640625,41978.48046875,89.92599487304688,296.94146728515625,-90.0,159820.61128783404,-1018.340446321818,-578556.7735369811,282.4749768244801,-598437.296822865,3.394690315685523,1.0,1.0,0.0
157.9334726962261,33.587735390948964,2695.7978515625,41951.3125,89.92599487304688,297.3086853027344,-90.0,159821.65491695804,-1018.3497793065039,-578560.6432751437,288.1521718974691,-598437.3330962585,3.444784352007389,1.0,1.0,0.0
162.00005696399603,34.07671160743895,2693.352783203125,41924.14453125,89.92599487304688,297.67706298828125,-90.0,159822.71366107752,-1018.3592495606867,-578564.56966688,293.9163234082516,-598437.3681566366,3.4949941001491993,1.0,1.0,0.0
166.12537947669625,34.566793348062326,2690.90771484375,41896.9765625,89.92868041992188,298.0461120605469,-90.0,159823.7875358845,-1018.3688551174132,-578568.5528303271,299.7677441263804,-598437.4051038603,3.545319851089971,1.0,1.0,0.0
170.30961758212652,35.05798111674722,2688.46240234375,41869.8046875,89.92599487304688,298.4150390625,-90.0,159824.8765577676,-1018.3785862015216,-578572.592911122,305.7067364086397,-598437.445739742,3.595761681774434,1.0,1.0,0.0
174.55287102726288,35.55027614365483,2686.017333984375,41842.63671875,89.92086791992188,298.78521728515625,-90.0,159825.98075939514,-1018.388444869372,-578576.6900290888,311.73360958253033,-598437.4829117275,3.6463198515316435,1.0,1.0,0.0
178.85527586354874,36.04367947424569,2683.572265625,41815.46875,89.92086791992188,299.15472412109375,-90.0,159827.10019686495,-1018.3984395252196,-578580.844309808,317.8486706818221,-598437.5188228171,3.696994490866132,1.0,1.0,0.0
183.2169856473338,36.53819281337443,2681.126953125,41788.30078125,89.92340087890625,299.5242004394531,-90.0,159828.23487772915,-1018.4085712419478,-578585.0558843233,324.05222356831655,-598437.5599791751,3.74778574298756,1.0,1.0,0.0
187.6381068538176,37.03381991534396,2678.681640625,41761.12890625,89.92599487304688,299.89361572265625,-90.0,159829.3848224464,-1018.4188349233596,-578589.3248918183,330.34459580131806,-598437.5999568261,3.7986941211497083,1.0,1.0,0.0
192.1187740425812,37.5305587827312,2676.23681640625,41733.96484375,89.92086791992188,300.26318359375,-90.0,159830.55005147503,-1018.4292198704211,-578593.6514714767,336.7260865550488,-598437.6421932186,3.849719426911861,1.0,1.0,0.0
196.65913180820644,38.02841233023613,2673.79150390625,41706.79296875,89.92086791992188,300.6339416503906,-90.0,159831.73059748358,-1018.4397408650843,-578598.0357431221,343.1970074753044,-598437.6867048292,3.90086200726131,1.0,1.0,0.0
201.25930203695316,38.52738061881076,2671.34619140625,41679.625,89.92599487304688,301.00433349609375,-90.0,159832.92650604658,-1018.4504081891505,-578602.4778347189,349.7576729581924,-598437.7220758455,3.95212206849277,1.0,1.0,0.0
205.91947292501573,39.027465641527684,2668.901123046875,41652.45703125,89.92086791992188,301.37506103515625,-90.0,159834.1378349487,-1018.4612143324343,-578606.9778548714,356.4083909919718,-598437.7570106869,4.003499754589029,1.0,1.0,0.0
210.6397114195861,39.52866882533837,2666.4560546875,41625.2890625,89.92086791992188,301.74609375,-90.0,159835.3646256945,-1018.4721485660998,-578611.5359379968,363.1494807275012,-598437.7902873317,4.054995279614843,1.0,1.0,0.0
216.22277306753676,40.114823324056104,2663.603271484375,41593.59375,89.92086791992188,302.17962646484375,-90.0,159836.8154722204,-1018.485050140473,-578616.927276296,371.1287346620811,-598437.829942097,4.115222790402015,1.0,1.0,0.0
221.07365818344988,40.61845694441182,2661.158203125,41566.421875,89.92599487304688,302.5517272949219,-90.0,159838.07586567727,-1018.4962167726485,-578621.6116538396,378.06673545134254,-598437.8701498959,4.166974462850703,1.0,1.0,0.0
225.9850912860129,41.12321358875761,2658.712890625,41539.2578125,89.92599487304688,302.92529296875,-90.0,159839.35176130728,-1018.507533817145,-578626.354516673,385.096103108488,-598437.9160776814,4.218844533063361,1.0,1.0,0.0
230.95715383719653,41.62909626416712,2656.267822265625,41507.55859375,89.91842651367188,303.36181640625,-90.0,159840.85994858408,-1018.5209068642584,-578631.9619690392,392.21718198107556,-598437.9557078052,4.270833531001244,1.0,1.0,0.0
235.98998078145087,42.13610540680186,2653.82275390625,41480.390625,89.91842651367188,303.73626708984375,-90.0,159842.169617928,-1018.5324783311812,-578636.832027904,399.4302834956907,-598437.9899939741,4.322941543767513,1.0,1.0,0.0
241.93866055971012,42.72904206606075,2650.969970703125,41453.21875,89.92086791992188,304.111572265625,-90.0,159843.49494791162,-1018.5441804514853,-578641.7609786836,407.9622990670614,-598438.0299530036,4.383884855723977,1.0,1.0,0.0
247.10367124387994,43.23849735165145,2648.52490234375,41426.0546875,89.92086791992188,304.4869384765625,-90.0,159844.83593794738,-1018.5560021387068,-578646.7489653279,415.37587319803424,-598438.0703267049,4.436251226027991,1.0,1.0,0.0
252.32993398536928,43.74908460069841,2646.07958984375,41398.88671875,89.91607666015625,304.8635559082031,-90.0,159846.19260035382,-1018.5679468201129,-578651.7961399266,422.88249616429675,-598438.1156066053,4.48873719570571,1.0,1.0,0.0
257.6175024723634,44.26080358223063,2643.634521484375,41371.71484375,89.92086791992188,305.2411193847656,-90.0,159847.56495082303,-1018.5800012336699,-578656.9026206173,430.48247958917636,-598438.1607913384,4.54134286880759,1.0,1.0,0.0
262.9666108090896,44.773656066018546,2641.189453125,41344.546875,89.91842651367188,305.6204528808594,-90.0,159848.9530274863,-1018.5921567069022,-578662.0685757692,438.17614971497096,-598438.2077993765,4.594068452596616,1.0,1.0,0.0
268.3773095846409,45.28764375250282,2638.744140625,41317.37890625,89.91375732421875,306.00030517578125,-90.0,159850.35685754908,-1018.6044361577956,-578667.2940766612,445.96383322495967,-598438.2487727224,4.646914297859553,1.0,1.0,0.0
273.8497700332664,45.802766741264186,2636.299072265625,41290.2109375,89.91607666015625,306.3806457519531,-90.0,159851.77653414133,-1018.6168408976523,-578672.5792902699,453.8458532009972,-598438.282789681,4.6998804886225685,1.0,1.0,0.0
279.38416800566483,46.31902696502671,2633.85400390625,41263.04296875,89.91842651367188,306.7602844238281,-90.0,159853.21208586148,-1018.6293651448218,-578677.9243428725,461.82253688480705,-598438.3196807528,4.752967127850184,1.0,1.0,0.0
284.98056733666454,46.83642764555481,2631.40869140625,41235.875,89.91375732421875,307.14013671875,-90.0,159854.66352840164,-1018.6419925080268,-578683.3293526062,469.8942223567283,-598438.3627826693,4.80617454744214,1.0,1.0,0.0
290.6391259689117,47.35496700733905,2628.96337890625,41208.70703125,89.91842651367188,307.5218811035156,-90.0,159856.13083198798,-1018.6547450409857,-578688.7944810939,478.0612201556796,-598438.4093940667,4.859502663394153,1.0,1.0,0.0
296.3599720518105,47.87464889818792,2626.5185546875,41181.53515625,89.91607666015625,307.903564453125,-90.0,159857.61410940374,-1018.6676204787223,-578694.3198355469,486.32387401070446,-598438.4463882272,4.912952140312711,1.0,1.0,0.0
302.14331841282547,48.3954728867307,2624.0732421875,41154.3671875,89.91152954101562,308.2853088378906,-90.0,159859.11333087517,-1018.6806162582366,-578699.9055775881,494.6825034667272,-598438.4924288008,4.966522689509134,1.0,1.0,0.0
307.98923972353805,48.91744002065681,2621.6279296875,41127.203125,89.91607666015625,308.6690368652344,-90.0,159860.62853314052,-1018.6937314258544,-578705.5518205885,503.13744599360507,-598438.538134566,5.020214628082385,1.0,1.0,0.0
313.8978546804283,49.44055252347571,2619.182861328125,41100.03125,89.91842651367188,309.0519104003906,-90.0,159862.15975770462,-1018.7069568024604,-578711.2586989648,511.68902978731785,-598438.5777545285,5.074028340684322,1.0,1.0,0.0
319.86930713185575,49.964812888491146,2616.73779296875,41072.86328125,89.91152954101562,309.43670654296875,-90.0,159863.70708002456,-1018.7203083024947,-578717.026350508,520.3376093803672,-598438.6121701854,5.127964131445594,1.0,1.0,0.0
325.903801937704,50.49021787335124,2614.29248046875,41045.6953125,89.91375732421875,309.82098388671875,-90.0,159865.27052869886,-1018.7337719784705,-578722.8549014952,529.083476079395,-598438.6543099311,5.182021505470743,1.0,1.0,0.0
332.0014088889584,51.0167754980568,2611.847412109375,41018.52734375,89.91375732421875,310.20526123046875,-90.0,159866.85013232584,-1018.7473041401831,-578728.7444782035,537.927008217317,-598438.6888145529,5.236201610701926,1.0,1.0,0.0
338.16229300410487,51.54448367640172,2609.40234375,40991.359375,89.91152954101562,310.5912170410156,-90.0,159868.4459453167,-1018.7609232650725,-578734.6952231901,546.8685313357273,-598438.7271780985,5.290504094582047,1.0,1.0,0.0
344.3866039129207,52.07334488269435,2606.95703125,40964.19140625,89.91375732421875,310.9771423339844,-90.0,159870.0579460373,-1018.7746650563208,-578740.7072851713,555.9083750527352,-598438.7706839814,5.344929248105188,1.0,1.0,0.0
350.6744068089174,52.60335824475246,2604.511962890625,40937.0234375,89.91607666015625,311.3656921386719,-90.0,159871.68616308624,-1018.78855687246,-578746.7807904242,565.0468673877185,-598438.8167515261,5.399477085294336,1.0,1.0,0.0
357.02590673055965,53.13452654792258,2602.06689453125,40909.8515625,89.91152954101562,311.75262451171875,-90.0,159873.33062506188,-1018.802560149285,-578752.9158652262,574.2843732474139,-598438.8561224826,5.4541481223055825,1.0,1.0,0.0
362.3676036617253,53.57805071689718,2600.029296875,40887.21484375,89.91375732421875,312.07550048828125,-90.0,159874.71346736047,-1018.8143071518866,-578758.0755605352,582.0581574984826,-598438.8919283809,5.499801499725891,1.0,1.0,0.0
368.83626486582216,54.1113405157823,2597.583984375,40860.04296875,89.91375732421875,312.460205078125,-90.0,159876.38785712788,-1018.828513561341,-578764.3238781706,591.4780408513034,-598438.9273489366,5.554698838165564,1.0,1.0,0.0
375.3689439393347,54.64578949362083,2595.138671875,40832.875,89.91607666015625,312.8463439941406,-90.0,159878.07863261597,-1018.8428781615225,-578770.6341427937,600.9978933504317,-598438.9688059529,5.609719757072355,1.0,1.0,0.0
381.9658623323776,55.18139701290762,2592.69384765625,40805.70703125,89.91375732421875,313.2326354980469,-90.0,159879.78580614325,-1018.8573949919669,-578777.0065064945,610.6180542611983,-598439.0026447297,5.664864509722634,1.0,1.0,0.0
388.62715908756945,55.71816630998736,2590.24853515625,40778.5390625,89.91152954101562,313.61932373046875,-90.0,159881.50941444823,-1018.8720431314437,-578783.4410826438,620.3388675039168,-598439.0465009912,5.720133159971624,1.0,1.0,0.0
395.3529272903688,56.25610104145344,2587.80322265625,40751.37109375,89.90936279296875,314.00555419921875,-90.0,159883.2494535696,-1018.8867830024687,-578789.938049144,630.1606975385221,-598439.0882167018,5.775526376731193,1.0,1.0,0.0
402.1433555940166,56.79520222729024,2585.358154296875,40724.203125,89.90936279296875,314.3909912109375,-90.0,159885.00605257036,-1018.9015915380446,-578796.4974873941,640.0838852931047,-598439.122761983,5.831044426181393,1.0,1.0,0.0
407.8515523481183,57.245347972753706,2583.320556640625,40701.5625,89.9072265625,314.7122802734375,-90.0,159886.48251169513,-1018.9140049801795,-578802.0115420585,648.4309077325743,-598439.1559015999,5.877405066944391,1.0,1.0,0.0
414.76083055511117,57.78659286435315,2580.87548828125,40674.39453125,89.9072265625,315.099853515625,-90.0,159888.26939538016,-1018.9289793954817,-578808.6859455573,658.5408373973332,-598439.2038558697,5.933152168972356,1.0,1.0,0.0
421.7351354964776,58.32900888644653,2578.43017578125,40647.22265625,89.903076171875,315.4892578125,-90.0,159890.0727821829,-1018.9440307007758,-578815.4232540488,668.753112948034,-598439.2550559496,5.989024565547709,1.0,1.0,0.0
428.77463808853645,58.87259261635801,2575.985107421875,40620.0546875,89.90512084960938,315.8795471191406,-90.0,159891.89278488653,-1018.9592086063353,-578822.2235747445,679.0680648051202,-598439.2975798307,6.045022208367243,1.0,1.0,0.0
435.87951550399885,59.41735508024503,2573.5400390625,40592.88671875,89.897216796875,316.26690673828125,-90.0,159893.72948371465,-1018.9745243774382,-578829.0870664814,689.4861032782355,-598439.3258672401,6.10114641634226,1.0,1.0,0.0
443.04973335110117,59.96329114708558,2571.0947265625,40565.71875,89.897216796875,316.6572570800781,-90.0,159895.58288145313,-1018.989976583573,-578836.0138392567,700.007537163212,-598439.3701352897,6.157396118487611,1.0,1.0,0.0
450.28565751342103,60.51040223574677,2568.649658203125,40538.55078125,89.89913940429688,317.0477600097656,-90.0,159897.45288995592,-1019.0055496679274,-578843.0040900386,710.6326928545022,-598439.4341186573,6.213771441310712,1.0,1.0,0.0
457.5871682316065,61.05868931351662,2566.20458984375,40511.3828125,89.89346313476562,317.4394836425781,-90.0,159899.33951200888,-1019.0212193118064,-578850.0579288244,721.3619520632783,-598439.5003080696,6.2702729061288665,1.0,1.0,0.0
464.95471301546786,61.608153812960694,2563.75927734375,40484.21484375,89.89166259765625,317.83447265625,-90.0,159901.24280202296,-1019.037002264115,-578857.1754981714,732.1956758740125,-598439.5406871217,6.326901320001241,1.0,1.0,0.0
472.38824681797996,62.15879595414101,2561.31396484375,40457.04296875,89.897216796875,318.2299499511719,-90.0,159903.1629081269,-1019.052876769158,-578864.3569636631,743.1342209960567,-598439.5864626688,6.383656125542586,1.0,1.0,0.0
479.8879019196611,62.710612994760346,2558.869140625,40429.87890625,89.897216796875,318.6285400390625,-90.0,159905.09978148117,-1019.0688132630316,-578871.6024027375,754.1778822852066,-598439.652261317,6.440536792051432,1.0,1.0,0.0
487.45386844465975,63.26360701174366,2556.423828125,40402.7109375,89.89346313476562,319.0247497558594,-90.0,159907.05342765755,-1019.0848751054732,-578878.9120353893,765.3270503997337,-598439.7060135888,6.497544286615778,1.0,1.0,0.0
495.08634470717516,63.81777928175692,2553.978515625,40375.5390625,89.89913940429688,319.42041015625,-90.0,159909.02390781388,-1019.101057885739,-578886.2859362707,776.5820802220842,-598439.7555576388,6.554678647341802,1.0,1.0,0.0
502.78525105980225,64.37313118061817,2551.533447265625,40348.37109375,89.89346313476562,319.817138671875,-90.0,159911.0113089209,-1019.1173145757643,-578893.7241963133,787.9433076012647,-598439.7933203601,6.611940254857984,1.0,1.0,0.0
510.5510383659275,64.92966768007716,2549.08837890625,40321.203125,89.89532470703125,320.2120666503906,-90.0,159913.01576282745,-1019.1337001310317,-578901.2270069137,799.4111471127253,-598439.8221613895,6.669329635241013,1.0,1.0,0.0
518.3837120535318,65.48739247503698,2546.64306640625,40294.03515625,89.89532470703125,320.6083679199219,-90.0,159915.03727231934,-1019.1502341018645,-578908.7944780693,810.9859501263127,-598439.8621319016,6.726846796543214,1.0,1.0,0.0
524.9620063225739,65.9530716531699,2544.60546875,40271.39453125,89.897216796875,320.94000244140625,-90.0,159916.73486401918,-1019.1640719161956,-578915.150227107,820.7135937298881,-598439.9071475995,6.774875431024952,1.0,1.0,0.0
532.9175923650619,66.5129759287435,2542.160400390625,40244.2265625,89.89532470703125,321.3390808105469,-90.0,159918.78747962703,-1019.1807101951567,-578922.8366813555,832.4854179943213,-598439.9703312886,6.832627061539256,1.0,1.0,0.0
540.9404741296312,67.07406804062212,2539.71533203125,40217.05859375,89.89346313476562,321.73944091796875,-90.0,159920.85711033823,-1019.1974157081572,-578930.5882035892,844.3652212680317,-598440.0243524599,6.890507077532277,1.0,1.0,0.0
547.677647022414,67.54255424897327,2537.677734375,40194.41796875,89.89166259765625,322.0732116699219,-90.0,159922.59484059768,-1019.2114006267516,-578937.0976408449,854.3478171979077,-598440.0602507627,6.938838817597571,1.0,1.0,0.0
555.8242304883897,68.10582798327542,2535.232421875,40167.25,89.89166259765625,322.4747619628906,-90.0,159924.6958915724,-1019.2282536016432,-578944.9688494238,866.4265329788905,-598440.1077595269,6.996954579016915,1.0,1.0,0.0
564.0383512922563,68.67029592267787,2532.787109375,40140.08203125,89.89346313476562,322.87652587890625,-90.0,159926.81402716588,-1019.2451899038283,-578952.9055306322,878.6142826752039,-598440.1586066579,7.055199310994453,1.0,1.0,0.0
572.3204896801617,69.23595428766848,2530.34228515625,40112.9140625,89.89532470703125,323.27703857421875,-90.0,159928.94941178654,-1019.2621905790297,-578960.9078242414,890.9113988850731,-598440.1988920342,7.113573025574226,1.0,1.0,0.0
580.6705072384793,69.8028108027766,2527.89697265625,40085.7421875,89.89166259765625,323.6798095703125,-90.0,159931.10207403294,-1019.2792503820388,-578968.9758565286,903.3182818684727,-598440.2388828876,7.172076354619946,1.0,1.0,0.0
589.0886865189532,70.37086627134683,2525.45166015625,40058.57421875,89.88986206054688,324.08087158203125,-90.0,159933.2720262235,-1019.2963980422942,-578977.1097795835,915.8353171846829,-598440.2816861365,7.230709382161933,1.0,1.0,0.0
597.575125991134,70.9401257363965,2523.006591796875,40031.40625,89.8863525390625,324.48309326171875,-90.0,159935.4592969568,-1019.313687919232,-578985.3097196835,928.4628916885704,-598440.3283183728,7.28947267767137,1.0,1.0,0.0
606.1297781644389,71.51059037031206,2520.5615234375,40004.23828125,89.88809204101562,324.88470458984375,-90.0,159937.66385645905,-1019.3310590969054,-578993.575838451,941.201370729832,-598440.3824912565,7.3483663464631945,1.0,1.0,0.0
614.7531561711803,72.08226013586513,2518.1162109375,39977.0703125,89.8863525390625,325.2874755859375,-90.0,159939.8857849537,-1019.348439453694,-579001.9082947231,954.0511501751607,-598440.4333543779,7.407390724652828,1.0,1.0,0.0
623.4452570083085,72.65513438109761,2515.671142578125,39949.90234375,89.8846435546875,325.6934814453125,-90.0,159942.12508522673,-1019.3658685670821,-579010.307198497,967.0125566632487,-598440.4796873952,7.46654585649361,1.0,1.0,0.0
632.2060284889303,73.22921738577044,2513.22607421875,39922.734375,89.8846435546875,326.09844970703125,-90.0,159944.3818116891,-1019.383388994786,-579018.7726923298,980.085997426766,-598440.5279463043,7.525832101629135,1.0,1.0,0.0
641.0359575614566,73.80450875626873,2510.78076171875,39895.5625,89.8863525390625,326.50421142578125,-90.0,159946.65600247204,-1019.4010291086165,-579027.3049445912,993.2718442977639,-598440.5786792601,7.585249484131907,1.0,1.0,0.0
649.9348478089087,74.3810126109687,2508.335693359375,39868.39453125,89.8846435546875,326.91302490234375,-90.0,159948.9476603614,-1019.4187886701552,-579035.9040652786,1006.5704909733031,-598440.6344745245,7.644798440382033,1.0,1.0,0.0
658.903050089837,74.95872447336959,2505.890625,39841.23046875,89.87966918945312,267.754150390625,-149.66940307617188,159951.2567718631,-1019.4366490827529,-579044.5701902019,1019.9822542764014,-598440.6929892577,7.704478646403686,1.0,1.0,0.0
667.9407309077214,75.53764874363816,2503.4453125,39814.05859375,89.88131713867188,267.62054443359375,-150.211669921875,159953.58341045384,-1019.4546076045958,-579053.3035461031,1033.5075835719472,-598440.7467115899,7.764290829906486,1.0,1.0,0.0
677.0479487157427,76.11778727295142,2501.0,39786.890625,89.8780517578125,267.5621643066406,-150.67984008789062,159955.92761147898,-1019.4726546989409,-579062.1041913542,1047.1468276723754,-598440.7976798309,7.82423521141186,1.0,1.0,0.0
684.6903665454593,76.60216328770305,2498.96240234375,39764.25,89.8748779296875,267.3634033203125,-151.22103881835938,159957.8945802892,-1019.4877345548598,-579069.4895520329,1058.600170006277,-598440.8356135568,7.874289938912796,1.0,1.0,0.0
693.9255443012808,77.18453492951978,2496.517333984375,39737.08203125,89.87332153320312,267.146728515625,-151.84747314453125,159960.2711683524,-1019.5058616386382,-579078.4139570601,1072.44932683988,-598440.8785237127,7.9344776998615885,1.0,1.0,0.0
703.2306152406381,77.76812410453888,2494.072265625,39709.9140625,89.8748779296875,266.5773620605469,-152.82962036132812,159962.6654304579,-1019.5240586982695,-579087.4060465487,1086.4134867858374,-598440.9282036867,7.994797982151113,1.0,1.0,0.0
712.6058244854212,78.35293878899323,2491.626953125,39682.74609375,89.87332153320312,266.2943115234375,-153.523681640625,159965.07744682932,-1019.5424045310942,-579096.4659793357,1100.4930783156306,-598440.9798157056,8.055251815072893,1.0,1.0,0.0
722.0512726107845,78.93897834534673,2489.181884765625,39655.57421875,89.8687744140625,265.8057861328125,-154.42742919921875,159967.507103508,-1019.560882567021,-579105.5939361092,1114.688479933655,-598441.0499794792,8.115838768440653,1.0,1.0,0.0
731.5671839670977,79.52623937312673,2486.73681640625,39628.40625,89.87026977539062,265.2953796386719,-155.35255432128906,159969.95443862525,-1019.5793997035948,-579114.790085239,1129.0000676506897,-598441.1199414959,8.176559075611351,1.0,1.0,0.0
741.1536188386381,80.11471752605266,2484.29150390625,39601.23828125,89.87026977539062,265.13031005859375,-155.93185424804688,159972.4194712466,-1019.5980458246199,-579124.0545109097,1143.4281879570335,-598441.1865119035,8.237412462001771,1.0,1.0,0.0
750.8107956107706,80.70441171183163,2481.846435546875,39574.0703125,89.87026977539062,264.9381103515625,-156.53773498535156,159974.90227484878,-1019.6168925748793,-579133.3874398634,1157.9731840437744,-598441.2465531176,8.29839898856136,1.0,1.0,0.0
760.5387234961381,81.29532328820916,2479.4013671875,39546.90234375,89.87026977539062,266.029541015625,-155.85702514648438,159977.40290105692,-1019.6359614120452,-579142.7889046595,1172.635453394265,-598441.3003002834,8.35951887895817,1.0,1.0,0.0
770.3376603882061,81.88745590882215,2476.9560546875,39519.734375,89.87646484375,266.56768798828125,-155.73577880859375,159979.92147218712,-1019.6551493392913,-579152.2590546021,1187.4154039106797,-598441.3539418719,8.420772425584914,1.0,1.0,0.0
780.2077801678097,82.48080863518993,2474.510986328125,39492.56640625,89.87332153320312,266.913818359375,-155.80429077148438,159982.45799381094,-1019.6744241701094,-579161.798109686,1202.3134285543347,-598441.4048074128,8.48215969456129,1.0,1.0,0.0
790.1493637728272,83.07538993948653,2472.06591796875,39465.3984375,89.87646484375,267.2430419921875,-155.89010620117188,159985.01251755358,-1019.6936691986052,-579171.4061024707,1217.329971294268,-598441.4390331069,8.543682044788,1.0,1.0,0.0
800.1621988185216,83.67119895059797,2469.62060546875,39438.23046875,89.8780517578125,266.75921630859375,-156.79083251953125,159987.58513317158,-1019.7128778682677,-579181.0832338857,1232.465399005916,-598441.4896420577,8.605338535731278,1.0,1.0,0.0
810.2465667617507,84.26823615984281,2467.17529296875,39411.05859375,89.8748779296875,266.1685791015625,-157.8008575439453,159990.1757755456,-1019.7321180091826,-579190.8296071813,1247.7200614766916,-598441.546790479,8.66712958027938,1.0,1.0,0.0
820.4027865790995,84.86649514830731,2464.73046875,39383.890625,89.87646484375,265.2637939453125,-159.1265869140625,159992.78441768774,-1019.751542805287,-579200.6454939775,1263.0943223001668,-598441.6105543758,8.729054603657403,1.0,1.0,0.0
830.630909922882,85.46598382524041,2462.28515625,39356.7265625,89.87966918945312,265.4423828125,-159.36849975585938,159995.41119540803,-1019.7711173282592,-579210.5309077683,1278.5886370996013,-598441.6621776464,8.791115050818178,1.0,1.0,0.0
840.931096086977,86.06670308120812,2459.83984375,39329.5546875,89.87966918945312,265.1852722167969,-160.04806518554688,159998.05619846287,-1019.7908157096831,-579220.486049483,1294.203457044321,-598441.6993489208,8.853311184782513,1.0,1.0,0.0
851.3032867673319,86.66865053423807,2457.394775390625,39302.38671875,89.87966918945312,265.7408142089844,-159.91458129882812,160000.71936173312,-1019.8106520162551,-579230.5110223719,1309.9390465865145,-598441.7542725801,8.915641901424749,1.0,1.0,0.0
861.7478766037384,87.27182147371434,2454.94970703125,39275.21875,89.8846435546875,335.96923828125,-90.0,160003.4007559095,-1019.8305122838942,-579240.6059431796,1325.7957812871318,-598441.8163069912,8.978107112978819,1.0,1.0,0.0
870.5069749759277,87.77538436313739,2452.912109375,39252.578125,89.8846435546875,336.3245849609375,-90.0,160005.64900464803,-1019.8471224294631,-579249.0720073247,1339.1023989440873,-598441.8777821029,9.030262669138267,1.0,1.0,0.0
881.084545310121,88.38079306906214,2450.466796875,39225.41015625,89.89166259765625,336.7518005371094,-90.0,160008.36385236128,-1019.867123006436,-579259.2956901578,1355.1823100063484,-598441.8854732524,9.092976179998061,1.0,1.0,0.0
891.7348778883461,88.98742649665134,2448.021728515625,39198.2421875,89.897216796875,337.1787109375,-90.0,160011.09724630363,-1019.887211679074,-579269.5897362621,1371.3844476966187,-598441.909506963,9.155824309143725,1.0,1.0,0.0
902.4580774049973,89.59529206407677,2445.57666015625,39171.0703125,89.89532470703125,337.6094055175781,-90.0,160013.84912135583,-1019.9074387536971,-579279.954248888,1387.709316869732,-598441.9461621135,9.218808019620838,1.0,1.0,0.0
911.4498412366956,90.10279073218773,2443.5390625,39148.43359375,89.89532470703125,337.9667663574219,-90.0,160016.15651041223,-1019.9244115339247,-579288.6453012633,1401.4074022256536,-598441.9755819223,9.27139869715245,1.0,1.0,0.0
922.3070874749683,90.71293072723003,2441.09375,39121.26171875,89.903076171875,338.39532470703125,-90.0,160018.94235290267,-1019.9448508010832,-579299.1394773105,1417.9584432730917,-598441.9927190114,9.334634125630998,1.0,1.0,0.0
933.2374899029965,91.32432445163869,2438.648681640625,39094.09765625,89.90109252929688,338.81884765625,-90.0,160021.74699182593,-1019.9653658853499,-579309.7045352316,1434.63354357332,-598441.993714659,9.398008524023737,1.0,1.0,0.0
944.2414876524126,91.93697799426857,2436.203369140625,39066.92578125,89.89532470703125,339.2440185546875,-90.0,160024.57027787785,-1019.9859490381209,-579320.3405973427,1451.4330981284147,-598442.0273814228,9.461521091716861,1.0,1.0,0.0
955.3190660838736,92.55090890958782,2433.75830078125,39039.7578125,89.89532470703125,339.6702880859375,-90.0,160027.41235244027,-1020.0066370950667,-579331.0478971328,1468.3577745121438,-598442.0346200414,9.525175588323577,1.0,1.0,0.0
966.4703173158923,93.16612768076897,2431.31298828125,39012.58984375,89.88986206054688,340.09246826171875,-90.0,160030.27326713823,-1020.0274349437682,-579341.8264671614,1485.4080424335552,-598442.0293708754,9.588972765488222,1.0,1.0,0.0
977.6956774153514,93.78264468453331,2428.867919921875,38985.421875,89.8863525390625,340.5170593261719,-90.0,160033.15294335864,-1020.048322676274,-579352.6765464891,1502.5843242316041,-598442.0727789869,9.652911834937981,1.0,1.0,0.0
987.106638347148,94.29740961851171,2426.830322265625,38962.78125,89.88131713867188,268.2127685546875,-162.77053833007812,160035.5670199385,-1020.0657190071074,-579361.7730289341,1516.9946395051666,-598442.0946492252,9.70630543013067,1.0,1.0,0.0
998.4678342780098,94.91631998772301,2424.38525390625,38935.61328125,89.87179565429688,269.0663757324219,-162.3397979736328,160038.48108304056,-1020.0865769372908,-579372.7546237488,1534.4033232938964,-598442.1450206959,9.77050887040059,1.0,1.0,0.0
1009.9033508878201,95.53652211906423,2421.93994140625,38908.4453125,89.87026977539062,268.8084716796875,-163.02113342285156,160041.41380206385,-1020.1075105653731,-579383.8082385431,1551.9391844684724,-598442.2088272467,9.834854920419389,1.0,1.0,0.0
1021.41350140539,96.15802067444007,2419.494873046875,38881.27734375,89.8643798828125,269.032470703125,-163.22076416015625,160044.36516351442,-1020.1285002218215,-579394.9340091267,1569.602726397803,-598442.2794326358,9.899344373289068,1.0,1.0,0.0
1032.9982324363664,96.78080214544488,2417.0498046875,38854.10546875,89.8643798828125,268.83245849609375,-163.84735107421875,160047.33517296385,-1020.1495156274764,-579406.1321554948,1587.394245177391,-598442.3467095213,9.963976268650242,1.0,1.0,0.0
1044.6577843950363,97.4048586581455,2414.6044921875,38826.9375,89.8643798828125,268.9075012207031,-164.2001953125,160050.32391459696,-1020.1705636964766,-579417.4026585816,1605.3140766961733,-598442.4062381873,10.028750046027085,1.0,1.0,0.0
1056.392332676216,98.03020360062531,2412.159423828125,38799.76953125,89.86294555664062,268.5960388183594,-164.94866943359375,160053.3314972358,-1020.1916863904921,-579428.7458035011,1623.3627834097715,-598442.4400640114,10.09366779828656,1.0,1.0,0.0
1068.2022024941398,98.65681790567126,2409.71435546875,38772.6015625,89.85873413085938,268.5576171875,-165.41943359375,160056.3580241308,-1020.2128934846846,-579440.1616553727,1641.5405090743443,-598442.5016140902,10.158725870317994,1.0,1.0,0.0
1080.0870605105301,99.28472027002387,2407.26904296875,38745.43359375,89.85873413085938,268.37957763671875,-166.03285217285156,160059.40344922835,-1020.2341411100356,-579451.6504016315,1659.8479592688382,-598442.5482948964,10.22392772834553,1.0,1.0,0.0
1092.0474385722773,99.91390567804245,2404.823974609375,38718.265625,89.85736083984375,267.8317565917969,-167.01779174804688,160062.4678432193,-1020.2553877817122,-579463.212159022,1678.2854162312578,-598442.6048885724,10.289272118716042,1.0,1.0,0.0
1104.0834471387789,100.54436689727956,2402.378662109375,38691.09765625,89.85736083984375,267.4958190917969,-167.79254150390625,160065.55110842484,-1020.27671480045,-579474.8470824198,1696.8532482299488,-598442.6660947213,10.354758577616337,1.0,1.0,0.0
1116.1953476883937,101.17610786619255,2399.93359375,38663.9296875,89.85873413085938,267.2312927246094,-168.49429321289062,160068.65341878615,-1020.2981297956435,-579486.5553536884,1715.5519384316867,-598442.7142924416,10.42038822450138,1.0,1.0,0.0
1128.3829518689308,101.80914766741556,2397.48828125,38636.76171875,89.85598754882812,266.7315368652344,-169.4274139404297,160071.774929179,-1020.3195919977156,-579498.3370705068,1734.382150098565,-598442.7263269733,10.486163953810774,1.0,1.0,0.0
1140.6466208460042,102.44348379543278,2395.043212890625,38609.58984375,89.85195922851562,266.33154296875,-170.26260375976562,160074.91567773448,-1020.3411502824752,-579510.1924012444,1753.3441742705181,-598442.7765206319,10.55208302813054,1.0,1.0,0.0
1152.98669940955,103.0791285195106,2392.59814453125,38582.421875,89.85064697265625,266.84954833984375,-170.17872619628906,160078.07548258905,-1020.3628489957778,-579522.1215198428,1772.4385794197442,-598442.8460913905,10.618147459640909,1.0,1.0,0.0
1165.4029418190476,103.7160874172008,2390.15283203125,38555.25390625,89.84805297851562,266.85955810546875,-170.6077880859375,160081.25438187388,-1020.3846697793929,-579534.1245946713,1791.6659356793389,-598442.894754422,10.684359355732738,1.0,1.0,0.0
1177.8956126422854,104.35435968102068,2387.707763671875,38528.0859375,89.84298706054688,267.54376220703125,-170.36318969726562,160084.45249790506,-1020.4066057191817,-579546.2017750341,1811.0266265785322,-598442.9508306709,10.750717742610448,1.0,1.0,0.0
1190.4653426889563,104.99394724695118,2385.2626953125,38500.91796875,89.84298706054688,267.4035949707031,-170.94119262695312,160087.66978462896,-1020.4286112771956,-579558.3532483664,1830.5210756949382,-598443.021986545,10.817222649447615,1.0,1.0,0.0
1203.1115893156966,105.63484102470287,2382.8173828125,38473.75,89.84173583984375,267.86083984375,-170.9154510498047,160090.90617692636,-1020.4506402002303,-579570.5791179185,1850.1496381808538,-598443.0952580885,10.883873708408771,1.0,1.0,0.0
1215.835163641139,106.27706113113442,2380.372314453125,38446.58203125,89.83807373046875,267.8709716796875,-171.33872985839844,160094.161965483,-1020.4727473245589,-579582.8794948633,1869.9130775596714,-598443.1148707721,10.950675138492443,1.0,1.0,0.0
1228.6355776943965,106.92061105426558,2377.92724609375,38419.4140625,89.83447265625,268.5726318359375,-171.07240295410156,160097.43715587043,-1020.4949426637618,-579595.2545991958,1889.81168618449,-598443.1756058522,11.017623977109679,1.0,1.0,0.0
1241.5135419860017,107.56550352851464,2375.48193359375,38392.2421875,89.82867431640625,268.4117431640625,-171.67227172851562,160100.7316829695,-1020.5171878324477,-579607.7045341663,1909.8461550849024,-598443.2265559295,11.084723500678365,1.0,1.0,0.0
1254.4689269114751,108.21175346231377,2373.036865234375,38365.07421875,89.82196044921875,268.2461853027344,-172.27630615234375,160104.045739787,-1020.5394361005751,-579620.229565823,1930.0171424371656,-598443.2601225912,11.151975656516697,1.0,1.0,0.0
1265.3243216738338,108.75132984896183,2370.9990234375,38342.4375,89.81869506835938,268.4005126953125,-172.48977661132812,160106.82232107766,-1020.5580112920729,-579630.724467493,1946.9307683769148,-598443.3121275664,11.208134187964902,1.0,1.0,0.0
1278.4221217160812,109.40005782520049,2368.553955078125,38315.265625,89.81231689453125,268.462158203125,-172.87060546875,160110.1719095836,-1020.5804116712538,-579643.3874373201,1967.352788413642,-598443.4285972803,11.275661082111185,1.0,1.0,0.0
1291.5979265283095,110.05014486267856,2366.10888671875,38288.09765625,89.81024169921875,268.40765380859375,-173.36688232421875,160113.54056640193,-1020.6028783307997,-579656.1260065918,1987.9125960676465,-598443.5229385482,11.343341264792457,1.0,1.0,0.0
1304.8518153253244,110.70157794557153,2363.66357421875,38260.9296875,89.80718994140625,268.25213623046875,-173.95648193359375,160116.928614778,-1020.6254270063368,-579668.9402348555,2008.6104984662961,-598443.6030006157,11.41117322319701,1.0,1.0,0.0
1318.1840570858913,111.35434606045514,2361.218505859375,38233.76171875,89.80517578125,268.5154113769531,-174.11851501464844,160120.33606028333,-1020.6480157361952,-579681.8303421064,2029.446765961009,-598443.691912822,11.47915506440097,1.0,1.0,0.0
1331.5945454296889,112.0084489149339,2358.7734375,38206.59375,89.80718994140625,267.7440185546875,-175.306884765625,160123.76297360883,-1020.6706147180525,-579694.7964450886,2050.4218698405894,-598443.7704162073,11.54728760733866,1.0,1.0,0.0
1345.0838432534365,112.66386385535154,2356.328125,38179.42578125,89.80819702148438,267.6107177734375,-175.84454345703125,160127.20934126043,-1020.6932446943251,-579707.8386796121,2071.53593225847,-598443.8667387894,11.615567547522858,1.0,1.0,0.0
1358.651606756379,113.32059915232577,2353.883056640625,38152.25390625,89.80923461914062,267.151123046875,-176.69766235351562,160130.67514974417,-1020.7159607397048,-579720.9571814872,2092.789594164351,-598443.9407397755,11.68399740697447,1.0,1.0,0.0
1370.0186075054808,113.868894171727,2351.845458984375,38129.61328125,89.811279296875,266.7975769042969,-177.36981201171875,160133.57839783764,-1020.7349672304122,-579731.9476863071,2110.608015459031,-598443.9826982217,11.741137735981738,1.0,1.0,0.0
1383.7313062528847,114.5280762339178,2349.400390625,38102.4453125,89.811279296875,266.3815612792969,-178.15203857421875,160137.0804727762,-1020.7578854547469,-579745.2063937708,2132.119009726448,-598444.0411460092,11.809844501422958,1.0,1.0,0.0
1397.5233055031858,115.18859193361638,2346.955078125,38075.27734375,89.811279296875,266.3211364746094,-178.56796264648438,160140.6022387505,-1020.7808642374007,-579758.5418871888,2153.770940538845,-598444.1208183769,11.878701213095894,1.0,1.0,0.0
1411.3943781380076,115.85042749987534,2344.510009765625,38048.109375,89.81442260742188,266.2121887207031,-179.015625,160144.14354645667,-1020.8039674745528,-579771.9542888773,2175.5641025929945,-598444.222240272,11.94770653501837,1.0,1.0,0.0
1425.3453113867436,116.51359234781484,2342.064697265625,38020.94140625,89.8165283203125,265.620361328125,-179.934326171875,160147.7044856511,-1020.8272795663802,-579785.4437997653,2197.499184717657,-598444.2961906826,12.016863514673503,1.0,1.0,0.0
1439.3756051944802,117.17810674803899,2339.61962890625,37993.7734375,89.82086181640625,265.535400390625,179.66297912597656,160151.28539307305,-1020.8506546007125,-579799.0103435905,2219.5768450563774,-598444.3334773643,12.086174760789447,1.0,1.0,0.0
1453.4860987672582,117.84395643703722,2337.17431640625,37966.60546875,89.826416015625,265.5623779296875,179.38632202148438,160154.8864482354,-1020.8740167604415,-579812.6543222114,2241.797316229786,-598444.3889817805,12.155636728055754,1.0,1.0,0.0
1467.6761723828968,118.5111309277398,2334.729248046875,37939.4375,89.82754516601562,264.4627685546875,177.99639892578125,160158.50727626763,-1020.8973958478896,-579826.3756435207,2264.160836690804,-598444.4682561003,12.225248218953084,1.0,1.0,0.0
1481.946652619401,119.17962344975604,2332.2841796875,37912.26953125,89.83331298828125,263.1861877441406,176.44281005859375,160162.1480566826,-1020.9208252416579,-579840.1747093769,2286.6678906048182,-598444.5310894146,12.295010283775866,1.0,1.0,0.0
1498.697162526776,119.96121648204685,2329.431396484375,37880.57421875,89.83685302734375,262.4334411621094,175.38992309570312,160166.421112778,-1020.9483375535933,-579856.3718915019,2313.108444745885,-598444.5602234696,12.376592810183467,1.0,1.0,0.0
1513.1420226898044,120.63259931033501,2326.986328125,37853.40234375,89.83685302734375,262.0389099121094,174.75088500976562,160170.10578798322,-1020.9721519933669,-579870.3395704906,2335.928600967047,-598444.5812426304,12.446685440203396,1.0,1.0,0.0
1527.6670017528813,121.30536865426836,2324.541015625,37826.234375,89.84173583984375,262.0030517578125,174.47836303710938,160173.81062764366,-1020.9962921129195,-579884.3853442594,2358.8944986615097,-598444.6039582811,12.5169354251924,1.0,1.0,0.0
1542.2733439571457,121.97954960088045,2322.095947265625,37799.06640625,89.835693359375,262.6872253417969,174.93463134765625,160177.53600662985,-1021.020605085942,-579898.5093049156,2382.00700302294,-598444.6411634757,12.587344949635735,1.0,1.0,0.0
1556.9605156319449,122.65516390933199,2319.65087890625,37771.8984375,89.83447265625,263.5964660644531,175.6234130859375,160181.28179470333,-1021.0451114164321,-579912.71165896,2405.266910407692,-598444.6532385654,12.657918060555176,1.0,1.0,0.0
1571.7290186446626,123.33223060794747,2317.20556640625,37744.7265625,89.829833984375,265.16400146484375,176.97804260253906,160185.04802999535,-1021.0697512613265,-579926.9925747621,2428.674861879321,-598444.6772759203,12.728655311234206,1.0,1.0,0.0
1586.5785656436346,124.01075741372692,2314.760498046875,37717.5625,89.82305908203125,266.4002685546875,178.00991821289062,160188.8347506371,-1021.094475983235,-579941.3522206916,2452.2314710832434,-598444.7403220327,12.7995564760364,1.0,1.0,0.0
1601.5098947172519,124.69075554535412,2312.3154296875,37690.39453125,89.82086181640625,267.49517822265625,178.91485595703125,160192.64159290143,-1021.1193928705184,-579955.7909446312,2475.9374766540714,-598444.8039232949,12.870624478240472,1.0,1.0,0.0
1616.522755651502,125.37223311146579,2309.8701171875,37663.22265625,89.81442260742188,268.2004089355469,179.44503784179688,160196.46882840828,-1021.1442856775252,-579970.3087735687,2499.7935023909668,-598444.8543509947,12.941860880014701,1.0,1.0,0.0
1631.6179097720888,126.0551816169605,2307.425048828125,37636.0546875,89.811279296875,268.7260437011719,179.81692504882812,160200.31659853936,-1021.1690225587813,-579984.905940993,2523.799959881231,-598444.8894485045,13.013265043949048,1.0,1.0,0.0
1646.7944497548742,126.73956304832313,2304.97998046875,37608.88671875,89.80517578125,268.41693115234375,179.38388061523438,160204.18483817545,-1021.1936840997664,-579999.5825501544,2547.956676642876,-598444.9793459702,13.084830129563045,1.0,1.0,0.0
1662.0539677332854,127.42536650933123,2302.53466796875,37581.71875,89.80416870117188,267.71099853515625,178.58238220214844,160208.0733519589,-1021.2184171663253,-580014.3389108044,2572.264083523536,-598445.0957504378,13.156556341579915,1.0,1.0,0.0
1677.3952139397152,128.1125918528528,2300.089599609375,37554.55078125,89.80517578125,267.5044250488281,178.31399536132812,160211.981906401,-1021.2432167516677,-580029.1751643245,2596.7228823746555,-598445.1691538458,13.228446853470984,1.0,1.0,0.0
1692.8196302897995,128.80124187795226,2297.644287109375,37527.3828125,89.80218505859375,266.8721008300781,177.64479064941406,160215.91121311137,-1021.268090008351,-580044.0913265593,2621.3334657910746,-598445.2064405759,13.300501807643514,1.0,1.0,0.0
1708.3264145860448,129.49129580082936,2295.19921875,37500.2109375,89.80218505859375,266.35015869140625,177.10552978515625,160219.86124510205,-1021.2930126176802,-580059.0876691291,2646.095955790952,-598445.2786988332,13.372716059462334,1.0,1.0,0.0
1723.9160817924421,130.18274174426222,2292.75390625,37473.04296875,89.80517578125,265.7332763671875,176.48519897460938,160223.83160051456,-1021.3180201040236,-580074.1643715468,2671.0107159343315,-598445.3756105823,13.445088958950976,1.0,1.0,0.0
1739.5888624246,130.87559052016434,2290.308837890625,37445.875,89.80718994140625,264.97998046875,175.740234375,160227.8224858498,-1021.3430879102675,-580089.3215640506,2696.0785463781795,-598445.4422052887,13.517624216183094,1.0,1.0,0.0
1755.3451266195625,131.56983727720237,2287.86376953125,37418.70703125,89.80718994140625,265.16326904296875,175.93045043945312,160231.83421085906,-1021.3683676706282,-580104.5594419983,2721.299873697222,-598445.4848589388,13.590321209498313,1.0,1.0,0.0
1771.1845744173042,132.26551345648812,2285.41845703125,37391.5390625,89.80517578125,264.51763916015625,175.2947235107422,160235.8669439119,-1021.3938331590621,-580119.8779672584,2746.67557777185,-598445.5070016909,13.663183197320791,1.0,1.0,0.0
1787.107494379743,132.9626498237705,2282.973388671875,37364.37109375,89.80416870117188,264.27435302734375,175.0587615966797,160239.92065802042,-1021.4193499074904,-580135.2774114513,2772.206505625625,-598445.5385149943,13.736212170866224,1.0,1.0,0.0
1803.1143831625814,133.66125331703938,2280.5283203125,37337.203125,89.80120849609375,264.3778991699219,175.16293334960938,160243.99522294613,-1021.4449818120925,-580150.7579810777,2797.89321126265,-598445.5930190596,13.809408363607645,1.0,1.0,0.0
1819.2051739665912,134.3613360065248,2278.0830078125,37310.03515625,89.79827880859375,264.17022705078125,174.9532470703125,160248.09078007075,-1021.4707212434737,-580166.3199096264,2823.736499553779,-598445.6590441933,13.88277368660772,1.0,1.0,0.0
1835.3800896361936,135.06287354995376,2275.637939453125,37282.8671875,89.79922485351562,264.32293701171875,175.10092163085938,160252.2070307862,-1021.4966287599532,-580181.9634417294,2849.7364451852627,-598445.7608379455,13.956304634792843,1.0,1.0,0.0
1851.6391672191676,135.76586491546783,2273.19287109375,37255.69921875,89.79443359375,263.7657165527344,174.53195190429688,160256.3440783429,-1021.5226991163222,-580197.6886425061,2875.8936468219617,-598445.8514933776,14.03000340403571,1.0,1.0,0.0
1867.9829459276516,136.47033095119963,2270.74755859375,37228.52734375,89.79730224609375,264.5749206542969,175.329345703125,160260.50185762162,-1021.5489182458846,-580213.4956152069,2902.2090332835214,-598445.8837955623,14.103874539809965,1.0,1.0,0.0
1884.4111659385962,137.17627991786557,2268.302490234375,37201.359375,89.79537963867188,264.41064453125,175.15487670898438,160264.68111836337,-1021.5753035531966,-580229.3845440459,2928.6831528964685,-598445.9172484612,14.177916280838474,1.0,1.0,0.0
