obs_alt,obs_vel,obs_fuel,obs_mass,obs_pitch,obs_heading,obs_roll,obs_pos_x,obs_pos_y,obs_pos_z,obs_ap,obs_pe,obs_time_to_ap,act_throttle,act_pitch,act_stage
11.38397210801486,1.6217229340200618,1436.100341796875,74623.046875,89.5364990234375,21.57341766357422,106.90769958496094,159781.90456126464,-1019.0820126320923,-578419.6166527465,83.91933300241362,-598443.0662677304,0.1662197580025122,1.0,1.0,0.0
11.618731834110804,2.194751013956649,1435.2337646484375,74558.4609375,89.33059692382812,23.78089714050293,107.14169311523438,159781.91037108257,-1019.0951858546341,-578419.8585307277,84.2661231168313,-598444.617473428,0.22495178673477767,1.0,1.0,0.0
11.922649978776462,2.772753178946141,1434.3671875,74493.75,89.10498046875,26.3084774017334,107.41921997070312,159781.92470022658,-1019.1067716862763,-578420.1697980233,84.71713026298676,-598446.1340428725,0.284193267720525,1.0,1.0,0.0
12.296046638744883,3.3520191362019602,1433.5006103515625,74428.9921875,88.87185668945312,29.742942810058594,108.44175720214844,159781.94765526464,-1019.1139505889023,-578420.5507659238,85.2722870047437,-598447.6644068115,0.3435639299786999,1.0,1.0,0.0
12.660365430405363,3.83546618937113,1432.7784423828125,74375.015625,88.68063354492188,33.254493713378906,109.89033508300781,159781.973494232,-1019.1147383238877,-578420.9215304067,85.81461733498145,-598448.8861287383,0.3931136827819728,1.0,1.0,0.0
13.161472310312092,4.417368288117175,1431.9117431640625,74310.2265625,88.45806884765625,38.109397888183594,112.25534057617188,159782.01329067763,-1019.1079921509827,-578421.4303491164,86.56175655336119,-598450.1988451309,0.4527543907635163,1.0,1.0,0.0
13.73257134098094,5.001607641192216,1431.045166015625,74245.453125,88.23818969726562,43.508243560791016,115.16902160644531,159782.06399772587,-1019.0918507363403,-578422.0087769353,87.41478370653931,-598451.2856303402,0.512634941043018,1.0,1.0,0.0
14.26217107323464,5.490385073790189,1430.322998046875,74191.4609375,88.05709838867188,48.169395446777344,117.7666015625,159782.11577388766,-1019.0707508709038,-578422.5438692062,88.20711571432184,-598452.0004836046,0.5627316891587384,1.0,1.0,0.0
14.96235080563929,6.079078403022832,1429.45654296875,74126.6796875,87.84161376953125,53.789306640625,120.91633605957031,159782.19080676898,-1019.0359468247498,-578423.2495184558,89.25624687958043,-598452.6267252157,0.6230698721167869,1.0,1.0,0.0
15.733346150722355,6.67004811956743,1428.58984375,74061.8984375,87.6258544921875,59.319557189941406,123.9774169921875,159782.2815303191,-1018.9906648780907,-578424.024306775,90.41326116444543,-598452.9967399344,0.6836422948609311,1.0,1.0,0.0
16.430113811511546,7.16418149027704,1427.86767578125,74007.9140625,87.44717407226562,63.79469299316406,126.3917236328125,159782.3703649732,-1018.9449586655701,-578424.7226341473,91.46028340794146,-598453.1099339649,0.7342901707642113,1.0,1.0,0.0
17.33159949001856,7.759029877900969,1427.001220703125,73943.1328125,87.2352294921875,68.96603393554688,129.08090209960938,159782.49431546216,-1018.8807351972664,-578425.6236526353,92.81660501169972,-598453.0166638144,0.7952623714027709,1.0,1.0,0.0
18.304601383395493,8.355786516904416,1426.134521484375,73878.34375,87.02749633789062,73.9148178100586,131.5327911376953,159782.6387287293,-1018.806621053418,-578426.5932303669,94.28235202736687,-598452.6847808117,0.8564316420989826,1.0,1.0,0.0
19.349341642227955,8.95433895205252,1425.2679443359375,73813.5703125,86.8265380859375,78.63861083984375,133.74024963378906,159782.80515731536,-1018.7231073762978,-578427.6311676349,95.85799451521598,-598452.1263596208,0.9177866290674501,1.0,1.0,0.0
20.27490255853627,9.454416416533624,1424.5457763671875,73759.5859375,86.66574096679688,82.41740417480469,135.40444946289062,159782.9617228602,-1018.6467714693154,-578428.5481968268,97.25528231984936,-598451.4996391039,0.9690487384356175,1.0,1.0,0.0
21.4516870258376,10.055999675940454,1423.67919921875,73694.796875,86.48342895507812,86.77685546875,137.2017059326172,159783.17222788616,-1018.5476964499558,-578429.710981611,99.03352117119357,-598450.5673221863,1.030717789225207,1.0,1.0,0.0
22.700771877891384,10.659123002561723,1422.8126220703125,73630.015625,86.31463623046875,90.96928405761719,138.8017578125,159783.40858802127,-1018.4412237491215,-578430.9416424407,100.92284905409906,-598449.4569913503,1.0925467295285216,1.0,1.0,0.0
24.022331538959406,11.263766020635567,1421.946044921875,73565.234375,86.16232299804688,95.01513671875,140.22198486328125,159783.67193454833,-1018.3282380040491,-578432.2400567057,102.92371537711006,-598448.1863798581,1.1545335789454043,1.0,1.0,0.0
25.179122137022205,11.768782430757064,1421.223876953125,73511.25,86.0496826171875,98.28810119628906,141.27896118164062,159783.91273327483,-1018.2298086222017,-578433.3737562982,104.67662628705148,-598447.0206371482,1.2063085705166259,1.0,1.0,0.0
26.634043668513186,12.376310583620644,1420.3572998046875,73446.46875,85.93466186523438,102.09415435791016,142.388427734375,159784.22805611408,-1018.1074962850416,-578434.7961883325,106.8833241823595,-598445.5131917287,1.268595260364691,1.0,1.0,0.0
28.161984646925703,12.98567392636118,1419.4906005859375,73381.6796875,85.84600830078125,105.7484359741211,143.2997283935547,159784.57285908677,-1017.9817705314363,-578436.286247854,109.2033500195248,-598443.9017370774,1.3310724018703581,1.0,1.0,0.0
29.49121890880633,13.494981936457279,1418.7684326171875,73327.703125,85.7960205078125,108.6551742553711,143.87989807128906,159784.88318168648,-1017.8753805692995,-578437.5796641868,111.22383285185788,-598442.4949712673,1.383292790427106,1.0,1.0,0.0
31.15361287270207,14.107565776682527,1417.90185546875,73262.9140625,85.76870727539062,111.96211242675781,144.3427276611328,159785.28354467498,-1017.7468646850193,-578439.1938784725,113.75289713707753,-598440.7658591778,1.4461043295473814,1.0,1.0,0.0
32.889615288120694,14.721539271713048,1417.0352783203125,73198.1328125,85.77996826171875,115.09614562988281,144.57313537597656,159785.71461557635,-1017.6183247949684,-578440.8759779385,116.39616075681988,-598439.0254063342,1.5090605389779626,1.0,1.0,0.0
34.69937515212223,15.336759528123014,1416.168701171875,73133.3515625,85.8306884765625,118.10672760009766,144.62234497070312,159786.17639404116,-1017.4903342511261,-578442.6261207561,119.1538173428271,-598437.3007081094,1.572146706078513,1.0,1.0,0.0
36.26395535748452,15.850344909311866,1415.446533203125,73079.3671875,85.90237426757812,120.57789611816406,144.58433532714844,159786.5845581936,-1017.384318688115,-578444.136690119,121.5394436615752,-598435.8908996232,1.624812562987131,1.0,1.0,0.0
38.20932725712191,16.467765087355737,1414.580078125,73014.5859375,86.02212524414062,123.56395721435547,144.5124053955078,159787.10214495502,-1017.2580073859299,-578446.0121044493,124.50766741135158,-598434.2474663721,1.6881280484181502,1.0,1.0,0.0
40.228862251737155,17.086413242526994,1413.71337890625,72949.796875,86.17550659179688,126.6622085571289,144.5028076171875,159787.64968827093,-1017.1327366616333,-578447.9562000387,127.59132755175233,-598432.6733637048,1.751571403117964,1.0,1.0,0.0
41.96857300691772,17.602900587504017,1412.9912109375,72895.8125,86.32656860351562,129.40550231933594,144.61758422851562,159788.12851827432,-1017.0291273381317,-578449.6289453623,130.24951690726448,-598431.425772368,1.8045394367648555,1.0,1.0,0.0
44.12447615363635,18.223849597788707,1412.1246337890625,72831.0390625,86.53219604492188,132.99014282226562,144.99996948242188,159788.72967566195,-1016.9056584622467,-578451.6997100075,133.5458961095428,-598430.0184535662,1.8682221224926252,1.0,1.0,0.0
46.35498230694793,18.84607502429556,1411.258056640625,72766.2421875,86.75997924804688,137.03848266601562,145.78988647460938,159789.35918423548,-1016.782987573346,-578453.8400410926,136.95890334877186,-598428.7253810288,1.9320374170351897,1.0,1.0,0.0
48.27083721407689,19.36570907694784,1410.535888671875,72712.265625,86.96023559570312,140.85879516601562,146.8448486328125,159789.90486184479,-1016.6812200333679,-578455.6770673145,139.8927317026537,-598427.765085794,1.985332059688858,1.0,1.0,0.0
50.638555174693465,19.990834045765638,1409.6693115234375,72647.4765625,87.20718383789062,146.10838317871094,148.6913299560547,159790.58394590014,-1016.5595001961792,-578457.9460592282,143.52178832760546,-598426.7985231506,2.0494470248640937,1.0,1.0,0.0
53.08141789666843,20.617947239390347,1408.802734375,72582.703125,87.45376586914062,152.1857147216797,151.24124145507812,159791.28828648836,-1016.4380830313767,-578460.2860432891,147.27028871502262,-598426.0404043098,2.113766871405062,1.0,1.0,0.0
55.59969508647919,21.24726905480253,1407.9361572265625,72517.9140625,87.69464111328125,159.17274475097656,154.5550537109375,159792.01669628485,-1016.3168736483658,-578462.6976061851,151.1393483710708,-598425.4668683207,2.1783143157196605,1.0,1.0,0.0
57.756056569633074,21.77349217026991,1407.2139892578125,72463.9296875,87.88919067382812,165.771240234375,157.973388671875,159792.64131988748,-1016.215995886525,-578464.7623401812,154.4563974199118,-598425.1192752931,2.2322881327962705,1.0,1.0,0.0
60.41330757213291,22.407186714933424,1406.3472900390625,72399.1484375,88.1148681640625,174.725341796875,162.96466064453125,159793.41113783375,-1016.0950484063233,-578467.3066477627,158.54908690822776,-598424.8548523322,2.297286147325906,1.0,1.0,0.0
63.14674725267105,23.04309682178347,1405.480712890625,72334.3671875,88.32977294921875,185.0474090576172,169.1632080078125,159794.20215739016,-1015.9739475037659,-578469.9241487138,162.76440832135268,-598424.7424021178,2.3625126347203604,1.0,1.0,0.0
65.48302332812455,23.574691335527834,1404.758544921875,72280.3828125,88.498046875,194.9787139892578,175.54571533203125,159794.87700066247,-1015.8724903847778,-578472.1616628892,166.37130958912894,-598424.7301190711,2.4170404760781707,1.0,1.0,0.0
68.3568279518513,24.214154783785155,1403.89208984375,72215.6015625,88.67648315429688,208.66473388671875,-175.1658935546875,159795.7048136978,-1015.749172666272,-578474.914616356,170.81198279338423,-598424.8774487686,2.482633806904005,1.0,1.0,0.0
71.30746195651591,24.8550386098605,1403.025390625,72150.8125,88.82064819335938,224.4409942626953,-163.94610595703125,159796.55143748267,-1015.6227228428925,-578477.7420910018,175.37506980937906,-598425.1438543424,2.548374308836685,1.0,1.0,0.0
74.33511946443468,25.497474334259856,1402.158935546875,72086.03125,88.91592407226562,242.4100341796875,-150.64584350585938,159797.41698168498,-1015.4916746403778,-578480.6442521183,180.06140423449688,-598425.308358392,2.614277394651708,1.0,1.0,0.0
76.91708236373961,26.033453711152095,1401.436767578125,72032.046875,88.94354248046875,258.46160888671875,-138.51356506347656,159798.15341820466,-1015.3780400540436,-578483.1196825483,184.05964300991036,-598425.2993980143,2.6692631711703143,1.0,1.0,0.0
80.08621729770675,26.67698266877208,1400.570068359375,71967.265625,88.90423583984375,277.0663146972656,-124.58735656738281,159799.0563354926,-1015.2352909829224,-578486.1583364261,188.96822743187658,-598425.1272774555,2.735286430766564,1.0,1.0,0.0
83.33258839114569,27.32053183837883,1399.7034912109375,71902.484375,88.7950439453125,292.91326904296875,-113.33904266357422,159799.98128196548,-1015.084379413327,-578489.2710456635,193.99664395709988,-598424.7866904505,2.8013162936106824,1.0,1.0,0.0
86.09687023842707,27.856601440230587,1398.9813232421875,71848.5,88.67144775390625,303.27337646484375,-106.73583984375,159800.7695152519,-1014.9514336373413,-578491.9213503834,198.27783853851724,-598424.425144369,2.8563215823014048,1.0,1.0,0.0
89.48473944503348,28.499421011308154,1398.11474609375,71783.71875,88.51416015625,312.6829833984375,-101.75791931152344,159801.736687616,-1014.7820231701935,-578495.1692437665,203.52362214389723,-598423.9478209831,2.9222837058263167,1.0,1.0,0.0
92.94967984373216,29.141615368354877,1397.2481689453125,71718.9296875,88.37188720703125,319.59521484375,-99.20901489257812,159802.72733772546,-1014.6006455208862,-578498.4906476606,208.8870797251584,-598423.4025802034,2.988185667530786,1.0,1.0,0.0
96.4916619588621,29.78357064623464,1396.381591796875,71654.15625,88.25570678710938,324.73004150390625,-98.34263610839844,159803.7420797064,-1014.4068980004395,-578501.885344415,214.3692289731698,-598422.73166209,3.0540677668477088,1.0,1.0,0.0
99.50217346719,30.31882645179934,1395.659423828125,71600.1640625,88.182861328125,327.9595031738281,-98.55033874511719,159804.6067355964,-1014.2363247658814,-578504.7700781566,219.02981797675602,-598422.0738245479,3.1090032708800663,1.0,1.0,0.0
103.18545822484884,30.961833619576186,1394.7928466796875,71535.3828125,88.12371826171875,330.87200927734375,-99.56368255615234,159805.66781887822,-1014.0212349679077,-578508.2986339993,224.73432206129655,-598421.1922413369,3.175001986224572,1.0,1.0,0.0
106.94596348062623,31.60583552768883,1393.9261474609375,71470.6015625,88.09228515625,332.8920593261719,-101.21382141113281,159806.75503048222,-1013.7954196717346,-578511.9001020861,230.5617726650089,-598420.2456077347,3.2411071653646673,1.0,1.0,0.0
110.13883020705543,32.14372655413023,1393.2039794921875,71416.6171875,88.08489990234375,333.9727783203125,-102.97657775878906,159807.68123108905,-1013.599553563794,-578514.9570845156,235.51368657452986,-598419.4342741179,3.296323412461618,1.0,1.0,0.0
114.04136392299552,32.79075606226068,1392.33740234375,71351.8359375,88.09762573242188,334.6600646972656,-105.42583465576172,159808.81702036908,-1013.355928399762,-578518.6925277229,241.57159335596953,-598418.4542480217,3.362746623125247,1.0,1.0,0.0
118.02163149625994,33.439433041054976,1391.4708251953125,71287.046875,88.13156127929688,334.7143859863281,-108.19369506835938,159809.97942162087,-1013.1036262299622,-578522.5012989825,247.75594779860694,-598417.4796977086,3.4293427707350475,1.0,1.0,0.0
121.39806446840521,33.98122935223826,1390.748779296875,71233.0625,88.17413330078125,334.2813415527344,-110.73014068603516,159810.9683943116,-1012.8872823502625,-578525.7314532795,253.00645080080722,-598416.6808318048,3.484968920835854,1.0,1.0,0.0
125.52140870376024,34.63286181174034,1389.882080078125,71168.28125,88.240966796875,333.2165832519531,-114.01055145263672,159812.17942594615,-1012.6210202958191,-578529.6752450891,259.42375791084487,-598415.7505853829,3.551875277659974,1.0,1.0,0.0
129.72302525362466,35.28602878313623,1389.015625,71103.5,88.32321166992188,331.5165100097656,-117.57825469970703,159813.4167782428,-1012.3482565667236,-578533.693005461,265.96857192588504,-598414.8597813495,3.6189428006196636,1.0,1.0,0.0
134.00312006194144,35.940526767474196,1388.14892578125,71038.71875,88.4171142578125,329.1680908203125,-121.42103576660156,159814.68018609742,-1012.0699300553406,-578537.7850067758,272.64063849067315,-598414.0191853924,3.6861505434600303,1.0,1.0,0.0
137.62991063308436,36.486608925252874,1387.4267578125,70984.734375,88.499755859375,326.802734375,-124.70768737792969,159815.75271583837,-1011.8346991326416,-578541.2518530689,278.2968718141783,-598413.3590740532,3.7422282565660794,1.0,1.0,0.0
142.05421258299612,37.142922577931834,1386.5601806640625,70919.953125,88.59918212890625,323.44952392578125,-128.7495574951172,159817.06312966504,-1011.5494222428406,-578545.4804774028,285.20084652269725,-598412.6143399219,3.8096290829741974,1.0,1.0,0.0
146.55736689036712,37.801065760360586,1385.693603515625,70855.171875,88.6956787109375,319.63616943359375,-132.77740478515625,159818.3988698246,-1011.2617368485535,-578549.7839377858,292.23510000365786,-598411.8981040913,3.8772217061675747,1.0,1.0,0.0
150.3704738500528,38.35141613646434,1384.971435546875,70801.1796875,88.7733154296875,316.1863098144531,-136.03900146484375,159819.53122032047,-1011.020747640332,-578553.4275530053,298.1989200277021,-598411.3329368756,3.933746648669853,1.0,1.0,0.0
155.01896971440874,39.01423303607726,1384.1048583984375,70736.3984375,88.86392211914062,311.80914306640625,-139.76271057128906,159820.9130046933,-1010.7305369164551,-578557.869085871,305.47902668768074,-598410.6853228947,4.001826281481328,1.0,1.0,0.0
159.74723495414946,39.68036072196573,1383.23828125,70671.6171875,88.95657348632812,307.0245056152344,-143.47906494140625,159822.31977037562,-1010.4392599846924,-578562.3864633644,312.8975737837609,-598410.053152697,4.0702501070980475,1.0,1.0,0.0
164.55569326411933,40.35027379305561,1382.3717041015625,70606.8359375,89.05810546875,301.1805114746094,-147.97042846679688,159823.75159042727,-1010.1461505677307,-578566.9801384746,320.45765500923153,-598409.4200430939,4.1390671603300575,1.0,1.0,0.0
168.62428469851147,40.91103664978334,1381.6495361328125,70552.8515625,89.15536499023438,294.84002685546875,-153.0526580810547,159824.96402012682,-1009.8998756196106,-578570.8667479735,326.86507234186865,-598408.8773150704,4.196675392792599,1.0,1.0,0.0
173.5808276826283,41.58651976162383,1380.7828369140625,70488.0625,89.2723388671875,283.5470275878906,-162.79811096191406,159826.44226982706,-1009.601699807843,-578575.601223966,334.68186977051664,-598408.1945454248,4.266073795270984,1.0,1.0,0.0
178.61856940877624,42.264332236261076,1379.916259765625,70423.2890625,89.3697509765625,265.724853515625,-179.13124084472656,159827.946293562,-1009.3003043915833,-578580.412856153,342.6369769347366,-598407.4632159943,4.3357170539267145,1.0,1.0,0.0
183.73780557862483,42.944020016599126,1379.0496826171875,70358.5,89.38833618164062,241.1596221923828,157.6663818359375,159829.47652906488,-1008.9964113022888,-578585.3017724624,350.72913570236415,-598406.670822182,4.405558895282525,1.0,1.0,0.0
188.06619911373127,43.51141527461627,1378.32763671875,70304.515625,89.31271362304688,220.79913330078125,138.32211303710938,159830.7721003903,-1008.7420902039612,-578589.434961194,357.5757477157749,-598405.9595086458,4.463866750861143,1.0,1.0,0.0
193.33519269747194,44.192862248592036,1377.4609375,70239.734375,89.12442016601562,202.6519317626953,121.23457336425781,159832.35162635028,-1008.4368448044861,-578594.4656580751,365.9130088358652,-598405.0408043391,4.533900940962496,1.0,1.0,0.0
198.68595596728846,44.874178447718194,1376.594482421875,70174.953125,88.87655639648438,191.30946350097656,110.77378845214844,159833.95875658913,-1008.1331844117249,-578599.5735617466,374.37930385326035,-598404.0395880375,4.603928540246727,1.0,1.0,0.0
203.20729610754643,45.441009216950306,1375.872314453125,70120.96875,88.65652465820312,185.22793579101562,105.30711364746094,159835.31953462405,-1007.8829812790955,-578603.8889546597,381.5291537216399,-598403.1339804122,4.662194575083902,1.0,1.0,0.0
208.7076378710335,46.11894170334985,1375.005615234375,70056.1796875,88.4013671875,180.37779235839844,101.09947204589844,159836.9787676416,-1007.5885095383728,-578609.1376209632,390.2166875426192,-598401.9566553789,4.731888095566205,1.0,1.0,0.0
214.28906760946847,46.79353820006585,1374.1390380859375,69991.40625,88.17855834960938,177.2071075439453,98.48246765136719,159838.66717748452,-1007.3022956635559,-578614.4623802737,399.01672272593714,-598400.6980606522,4.801246326705041,1.0,1.0,0.0
219.95125638740137,47.46547508072591,1373.2724609375,69926.6171875,88.0020751953125,175.0751190185547,96.81553649902344,159840.38511651347,-1007.0256929184998,-578619.8627339897,407.9314815317048,-598399.3729358021,4.8703385491737095,1.0,1.0,0.0
224.73127394949552,48.02440254315711,1372.55029296875,69872.625,87.89523315429688,173.9190673828125,95.9713134765625,159841.83946673851,-1006.8031234528626,-578624.4205542761,415.4525103524793,-598398.2416814301,4.927815735382353,1.0,1.0,0.0
230.54107080434915,48.695305902085195,1371.6837158203125,69807.8515625,87.81500244140625,173.03604125976562,95.34712219238281,159843.6120242001,-1006.545830705365,-578629.9589295902,424.5950148294214,-598396.8832076216,4.996813515765609,1.0,1.0,0.0
236.43136915622745,49.366927019169104,1370.817138671875,69743.0625,87.78778076171875,172.59730529785156,95.01231384277344,159845.41437385918,-1006.2992658402527,-578635.572616344,433.8681255375268,-598395.5359055657,5.065890978690447,1.0,1.0,0.0
246.12744569394272,49.92780451595297,1370.094970703125,69689.0859375,87.80279541015625,172.4885711669922,94.85331726074219,159846.93899752025,-1006.101889589032,-578640.3083670689,441.6989961300278,-598394.440404569,5.123582360761816,1.0,1.0,0.0
252.16590783535503,50.602521059241234,1369.2283935546875,69624.296875,87.86309814453125,172.59091186523438,94.71076965332031,159848.7955494999,-1005.8744888093079,-578646.0606966108,451.2216536179185,-598393.1612914526,5.192988023337307,1.0,1.0,0.0
258.28542941249907,51.27933985806297,1368.3616943359375,69559.515625,87.96731567382812,172.93780517578125,94.5906982421875,159850.68139264418,-1005.6569671418274,-578651.8890855563,460.88344898307696,-598391.9261128065,5.262615196251829,1.0,1.0,0.0
264.4863601140678,51.9585735958148,1367.4951171875,69494.734375,88.11123657226562,173.473388671875,94.41838073730469,159852.59625114276,-1005.4487247254456,-578657.7938633948,470.6867529314477,-598390.7351181643,5.332496069336742,1.0,1.0,0.0
269.7161845791852,52.526717714924075,1366.77294921875,69440.75,88.259765625,174.07470703125,94.23390197753906,159854.21398744898,-1005.2817506577576,-578662.7731661996,478.9663463727338,-598389.7783868021,5.390951814659616,1.0,1.0,0.0
276.0671706858557,53.211731120247315,1365.9063720703125,69375.96875,88.468017578125,174.92221069335938,93.89715576171875,159856.18148536008,-1005.0885429169739,-578668.8190845068,489.03871377999894,-598388.6783581788,5.461436740344482,1.0,1.0,0.0
282.50062952400185,53.90065141083922,1365.039794921875,69311.1796875,88.70455932617188,175.85023498535156,93.37313842773438,159858.17737785255,-1004.9022435929382,-578674.9427022671,499.26358299935237,-598387.6286735532,5.532328755476669,1.0,1.0,0.0
287.92516750469804,54.47813713360446,1364.317626953125,69257.1953125,88.9173583984375,176.5903778076172,92.69474792480469,159859.8621547162,-1004.7514467026795,-578680.1055019603,507.9040077026002,-598386.7945468484,5.591757642206119,1.0,1.0,0.0
294.5111526865512,55.17514172759961,1363.451171875,69192.4140625,89.18338012695312,177.146728515625,91.28330993652344,159861.90956311367,-1004.5745572831238,-578686.3730889399,518.4172176980646,-598385.8301518626,5.663491095445295,1.0,1.0,0.0
301.1810944353929,55.877362247915094,1362.58447265625,69127.6328125,89.45001220703125,176.28173828125,88.15034484863281,159863.98498139615,-1004.4004668976868,-578692.7201011936,529.0945241295267,-598384.8685508829,5.735767361285184,1.0,1.0,0.0
306.80406141863205,56.46684641054658,1361.8623046875,69073.6484375,89.6666259765625,172.1195831298828,81.90235900878906,159865.73612987096,-1004.2565574433411,-578698.0703574838,538.120772706694,-598384.0350782545,5.7964454847182765,1.0,1.0,0.0
313.62963998061605,57.17825760407389,1360.9957275390625,69008.8671875,89.897216796875,2.916400909423828,-90.0,159867.86387830944,-1004.0850848939026,-578704.5644005185,549.1014385694871,-598382.9935698664,5.8696808444737485,1.0,1.0,0.0
317.51900410302915,57.89274248410433,1360.129150390625,68944.078125,89.77099609375,32.61601638793945,-62.7755126953125,159870.02070856362,-1003.9157047059143,-578711.1392296797,560.2382837472251,-598381.9158251703,5.943240248803818,1.0,1.0,0.0
324.6615636671195,58.60915256968362,1359.2625732421875,68879.296875,89.4925537109375,21.377866744995117,-76.34194946289062,159872.20690802735,-1003.7485599305237,-578717.7950191153,571.5253753368743,-598380.7997611103,6.017005913555693,1.0,1.0,0.0
330.6760009638965,59.20706038834133,1358.5404052734375,68825.3203125,89.2425537109375,18.909685134887695,-80.50924682617188,159874.05139921815,-1003.610398271283,-578723.4034539135,581.043021603371,-598379.8373083515,6.078576341870303,1.0,1.0,0.0
337.9682687704917,59.92475192288131,1357.673828125,68760.5390625,88.93634033203125,17.764936447143555,-83.36520385742188,159876.29222750166,-1003.4447221543396,-578730.2078873831,592.5932043036446,-598378.6345182467,6.152489883403348,1.0,1.0,0.0
345.3430545341689,60.641017725853274,1356.8072509765625,68695.75,88.63986206054688,17.31941795349121,-85.166015625,159878.56338156125,-1003.2771405961121,-578737.0932239923,604.2738670851104,-598377.3506815049,6.226266642283576,1.0,1.0,0.0
351.5527198157506,61.23539933654745,1356.0850830078125,68641.765625,88.41302490234375,17.183307647705078,-86.18826293945312,159880.47950582753,-1003.1340608384216,-578742.8924745533,614.0980532105314,-598376.2097472759,6.2874973987218254,1.0,1.0,0.0
359.0817528894404,61.94431301034418,1355.2183837890625,68576.984375,88.18447875976562,17.036334991455078,-87.12786865234375,159882.80734912274,-1002.9562473084534,-578749.9248050221,625.9859080233146,-598374.768557857,6.360536910176222,1.0,1.0,0.0
366.6954747958807,62.64937146581014,1354.351806640625,68512.203125,88.01593017578125,16.771942138671875,-87.89794921875,159885.16659668865,-1002.7702636506165,-578757.0364286073,637.985808903235,-598373.2523188512,6.433190081893429,1.0,1.0,0.0
374.3940627411939,63.35411102300692,1353.4852294921875,68447.421875,87.91351318359375,16.267745971679688,-88.61737060546875,159887.55742685896,-1002.575223901471,-578764.2270790844,650.1196169784525,-598371.7358827044,6.505818829983639,1.0,1.0,0.0
382.1777680029627,64.060336737565,1352.61865234375,68382.6328125,87.87725830078125,15.569974899291992,-89.23080444335938,159889.97954301845,-1002.3707380082215,-578771.4969250797,662.3992553757271,-598370.2796490663,6.578607456709335,1.0,1.0,0.0
390.04670566832647,64.76838962265356,1351.7520751953125,68317.8515625,87.9036865234375,14.711292266845703,-89.69448852539062,159892.43261434065,-1002.1567058350647,-578778.8462959612,674.8275335817598,-598368.8969245485,6.651590796812343,1.0,1.0,0.0
398.0011389256688,65.47877711005646,1350.885498046875,68253.0703125,87.98947143554688,13.756772994995117,-89.93124389648438,159894.9161151672,-1001.9332923676575,-578786.2755926108,687.408475085278,-598367.6058131055,6.724820682609504,1.0,1.0,0.0
406.04081846622285,66.19190115668724,1350.018798828125,68188.2890625,88.12966918945312,12.766255378723145,-89.8729248046875,159897.42951971825,-1001.7009010102356,-578793.785270927,700.1456515662139,-598366.4180132167,6.798338246578737,1.0,1.0,0.0
412.8056996309897,66.78847249748134,1349.2967529296875,68134.3046875,88.28515625,12.020478248596191,-89.48684692382812,159899.54640420733,-1001.500833490094,-578800.1051458698,710.8814631702844,-598365.5131048657,6.859844235021114,1.0,1.0,0.0
421.0017639362486,67.5076971461771,1348.43017578125,68069.5234375,88.51089477539062,11.417145729064941,-88.41912841796875,159902.11304063883,-1001.253784158429,-578807.763634415,723.9151445573661,-598364.5316569309,6.93400042374617,1.0,1.0,0.0
429.217656733701,68.2305517037186,1347.5635986328125,68004.7421875,88.77252197265625,11.554936408996582,-86.2679443359375,159904.70796900074,-1001.0001487519348,-578815.504143096,737.1143690767931,-598363.6406059169,7.008536671893353,1.0,1.0,0.0
436.07678233494516,68.83679157458408,1346.8414306640625,67950.7578125,89.0108642578125,12.888517379760742,-82.99813842773438,159906.891706633,-1000.7847633149231,-578822.0176375455,748.248824089067,-598362.9650916462,7.07105256501859,1.0,1.0,0.0
444.68623123620637,69.56899422609585,1345.974853515625,67885.96875,89.3011474609375,17.950214385986328,-75.30410766601562,159909.5375743776,-1000.5231208588684,-578829.910214291,761.7744528322946,-598362.181590623,7.146564235903611,1.0,1.0,0.0
453.2086806513835,70.30633330873273,1345.1082763671875,67821.1875,89.56478881835938,33.51694107055664,-56.796142578125,159912.21131538798,-1000.2599639679993,-578837.8865877028,775.4809911705088,-598361.3930200324,7.222613580456482,1.0,1.0,0.0
461.81793565605767,71.04740340290938,1344.2415771484375,67756.40625,89.70196533203125,77.94429016113281,-9.243499755859375,159914.9131908523,-999.9964122559632,-578845.9473000588,789.3599474452203,-598360.5679691018,7.299057029544372,1.0,1.0,0.0
470.51693337317556,71.79001506607572,1343.375,67691.625,89.551513671875,122.63224792480469,38.54997253417969,159917.64347967235,-999.7323436524475,-578854.0925381848,803.3962880497565,-598359.7168784987,7.375669326629691,1.0,1.0,0.0
479.30795465945266,72.53265620398031,1342.5084228515625,67626.84375,89.25717163085938,138.06329345703125,56.88175964355469,159920.4024696064,-999.467895486554,-578862.3223111806,817.579213919118,-598358.8136981102,7.452295726120042,1.0,1.0,0.0
488.19201464019716,73.27392268943147,1341.641845703125,67562.0625,88.92425537109375,143.5596466064453,64.95086669921875,159923.19058428626,-999.2041034485901,-578870.6364253088,831.8981153377099,-598357.8269136251,7.528792705174851,1.0,1.0,0.0
498.6738873459399,74.1346140512042,1340.630859375,67486.4765625,88.529541015625,145.90623474121094,69.80592346191406,159926.48103021912,-998.8995303895081,-578880.4421727031,848.7565169553272,-598356.4934535023,7.617632637988208,1.0,1.0,0.0
506.19946397154126,74.74462714114412,1339.90869140625,67432.4921875,88.2655029296875,146.47898864746094,71.85586547851562,159928.85701149277,-998.6863059784973,-578887.5153809716,860.882313668495,-598355.3831060936,7.6806117975662005,1.0,1.0,0.0
515.2193653325085,75.46933260913163,1339.0419921875,67367.7109375,87.9923095703125,146.76821899414062,73.57884216308594,159931.7373513178,-998.437471368512,-578896.078237928,875.5078167027095,-598353.8615501398,7.755448843232898,1.0,1.0,0.0
524.3256585815689,76.18711137014796,1338.175537109375,67302.921875,87.7828369140625,147.0019073486328,74.88833618164062,159934.65049756298,-998.1979369904602,-578904.7216945661,890.2202727894764,-598352.1393724316,7.8295886014840335,1.0,1.0,0.0
533.5178085687803,76.90095851470204,1337.308837890625,67238.1484375,87.64846801757812,147.44642639160156,76.03520202636719,159937.59729009378,-997.9685592438782,-578913.4448809418,905.0411771810614,-598350.2972741843,7.903337244661543,1.0,1.0,0.0
541.2432990013622,77.49564567086274,1336.586669921875,67184.15625,87.597412109375,148.11375427246094,76.98786926269531,159940.07890272173,-997.7854194428528,-578920.7748940644,917.4963431014912,-598348.751772545,7.964783589264869,1.0,1.0,0.0
550.5924800486537,78.21130133709245,1335.72021484375,67119.375,87.60379028320312,149.2255096435547,78.07431030273438,159943.0875924115,-997.5754565980042,-578929.6439346919,932.5859367910307,-598347.0090425988,8.038734884690427,1.0,1.0,0.0
560.0277353661368,78.9298970917778,1334.853515625,67054.59375,87.67965698242188,150.6268768310547,79.03553771972656,159946.12897084779,-997.3762511994446,-578938.5932023219,947.8385632763384,-598345.4370728345,8.112994769779789,1.0,1.0,0.0
567.9565991309937,79.53143145758632,1334.13134765625,67000.609375,87.79052734375,151.93197631835938,79.64739990234375,159948.68765327457,-997.2183570649231,-578946.112769376,960.678115644143,-598344.2824095745,8.175160304621329,1.0,1.0,0.0
577.5507733153645,80.25663150087185,1333.2647705078125,66935.828125,87.97463989257812,153.51612854003906,79.99290466308594,159951.78610574786,-997.0382499482239,-578955.2110884858,976.2424446248915,-598343.0730241433,8.25010967799551,1.0,1.0,0.0
587.2321122274734,80.98589646959014,1332.398193359375,66871.0390625,88.208984375,154.97463989257812,79.75498962402344,159954.91413584302,-996.8677081849182,-578964.3918114551,991.9824427532731,-598342.0551330318,8.325482993611445,1.0,1.0,0.0
597.001388216042,81.72047807052178,1331.5316162109375,66806.2578125,88.487548828125,156.06399536132812,78.67636108398438,159958.07060756584,-996.7057437684143,-578973.6557567897,1007.9100841211621,-598341.2231522637,8.401409346773391,1.0,1.0,0.0
605.2101077825064,82.33740606096018,1330.8094482421875,66752.2734375,88.74337768554688,156.25009155273438,76.69924926757812,159960.722123098,-996.5764312531555,-578981.4400481873,1021.3339748986764,-598340.656145564,8.465177939480895,1.0,1.0,0.0
615.1424299220089,83.08441792762326,1329.94287109375,66687.4921875,89.06643676757812,154.47686767578125,71.90135192871094,159963.92857895733,-996.4265765931214,-578990.8593520004,1037.6339286894072,-598340.0897196406,8.54239690923572,1.0,1.0,0.0
625.1650820231298,83.83923397933522,1329.0762939453125,66622.7109375,89.38323974609375,147.18829345703125,61.119781494140625,159967.16170936165,-996.2803630616272,-579000.3648451645,1054.1493917556945,-598339.587639943,8.620428963318489,1.0,1.0,0.0
633.5866897951346,84.47455380953951,1328.3541259765625,66568.7265625,89.60186767578125,128.7210693359375,39.412933349609375,159969.87645044236,-996.1596298005188,-579008.3526679486,1068.082010822487,-598339.1449735366,8.686114622925231,1.0,1.0,0.0
643.7770101834321,85.24306304714725,1327.487548828125,66503.9453125,89.67315673828125,78.23883056640625,-15.2174072265625,159973.15927465566,-996.0150451447571,-579018.0185042894,1084.994720779243,-598338.5319297654,8.76558144110578,1.0,1.0,0.0
654.0599228047067,86.01638211966724,1326.620849609375,66439.1640625,89.46734619140625,43.88951110839844,-53.724639892578125,159976.4701992165,-995.871459939679,-579027.7726237576,1102.1041681077331,-598337.8461949228,8.84555780584941,1.0,1.0,0.0
664.435701914248,86.79251399660542,1325.75439453125,66374.3828125,89.16140747070312,32.341434478759766,-69.2099609375,159979.8097058641,-995.7289657380188,-579037.6153490522,1119.3941380729666,-598337.0887899471,8.925838259400962,1.0,1.0,0.0
673.1535946726799,87.4402609371979,1325.0322265625,66320.390625,88.88180541992188,28.58808135986328,-75.9658203125,159982.61494769988,-995.6103820588196,-579045.8853608752,1133.9304246801184,-598336.3854035712,8.992850231201771,1.0,1.0,0.0
683.7003214579308,88.21673496546747,1324.16552734375,66255.609375,88.54583740234375,26.55620574951172,-81.20330810546875,159986.00863812584,-995.4666118409241,-579055.8904452522,1151.5098933745176,-598335.4034505876,9.073195547515922,1.0,1.0,0.0
694.340101820766,88.98966636150573,1323.299072265625,66190.828125,88.23553466796875,25.690210342407227,-84.8292236328125,159989.4330620363,-995.3186454560364,-579065.9834461547,1169.212986701401,-598334.2562626288,9.153193567936682,1.0,1.0,0.0
703.2770715990337,89.62901597401586,1322.576904296875,66136.84375,88.01043701171875,25.358739852905273,-87.108642578125,159992.3107889902,-995.1903762604798,-579074.4608779042,1184.0399557575583,-598333.1934374379,9.219381149348465,1.0,1.0,0.0
714.0853857689071,90.3893424949826,1321.710205078125,66072.0625,87.79522705078125,25.0403995513916,-89.30059814453125,159995.79322999538,-995.0289191987122,-579084.7128184085,1201.9085262723966,-598331.8565736816,9.298109550898175,1.0,1.0,0.0
724.9846579685109,91.14412593821396,1320.8436279296875,66007.28125,87.6485595703125,24.501235961914062,-91.14566802978516,159999.30767951297,-994.8582687165344,-579095.050223674,1219.876406323514,-598330.449230369,9.376281682546903,1.0,1.0,0.0
735.9741559050744,91.89632772432813,1319.97705078125,65942.4921875,87.57415771484375,23.585866928100586,-92.74992370605469,160002.85417272695,-994.6779670502747,-579105.4724928294,1237.9697765863966,-598329.0265663012,9.454201054830662,1.0,1.0,0.0
745.2011062853271,92.52374862858225,1319.2548828125,65888.515625,87.56723022460938,22.427478790283203,-93.99737548828125,160005.83394963585,-994.5201320435608,-579114.2225493385,1253.1671886147233,-598327.8947688182,9.519202443278573,1.0,1.0,0.0
756.3562023954,93.27845582606558,1318.3883056640625,65823.7265625,87.621826171875,20.63273811340332,-95.31803894042969,160009.43841579894,-994.3214282776917,-579124.8007532516,1271.5584692364791,-598326.6609910504,9.597397836711934,1.0,1.0,0.0
767.6022578480188,94.03544474979502,1317.521728515625,65758.9453125,87.7418212890625,18.37619972229004,-96.46980285644531,160013.07318017897,-994.1125621583069,-579135.4646720698,1290.1218110077316,-598325.5986716124,9.675836029493496,1.0,1.0,0.0
777.0432723377598,94.66820072843329,1316.799560546875,65704.96875,87.8876953125,16.1495304107666,-97.29419708251953,160016.12462359574,-993.9309329773987,-579144.4172290696,1305.7251710883575,-598324.8591393752,9.741405690124282,1.0,1.0,0.0
788.45646301331,95.43085425232556,1315.9329833984375,65640.1796875,88.11361694335938,13.084599494934082,-98.0970230102539,160019.81217446658,-993.7043475892151,-579155.2399997562,1324.620717341546,-598324.1820356427,9.820439569821133,1.0,1.0,0.0
799.9613606223138,96.19808373300032,1315.06640625,65575.390625,88.3890380859375,9.643899917602539,-98.65727233886719,160023.52673470363,-993.469095208844,-579166.1506533483,1343.7138907598564,-598323.7346631081,9.89995104498206,1.0,1.0,0.0
811.5586785775376,96.9701665680042,1314.19970703125,65510.609375,88.70639038085938,5.9040093421936035,-98.92723846435547,160027.26701594132,-993.2262592103089,-579177.1500164785,1363.0091301116627,-598323.5020717435,9.979969293457714,1.0,1.0,0.0
821.2940863837721,97.6179632134482,1313.4775390625,65456.62890625,88.99496459960938,2.6788389682769775,-98.83403778076172,160030.4027815564,-993.0191821839417,-579186.3846642257,1379.2510991373565,-598323.4498012824,10.0471099522764,1.0,1.0,0.0
833.0627146132756,98.40259884005106,1312.611083984375,65391.84765625,89.36050415039062,359.1968994140625,-97.85444641113281,160034.18777697702,-992.7670135285462,-579197.5494464391,1398.9589859888656,-598323.5083092656,10.12843803791094,1.0,1.0,0.0
844.926025044173,99.1946018779841,1311.744384765625,65327.0625,89.73239135742188,358.85760498046875,-93.26939392089844,160037.9966248969,-992.5135001923645,-579208.80583724,1418.9011689495528,-598323.5898912745,10.210539183996275,1.0,1.0,0.0
854.884837263613,99.85883732282846,1311.022216796875,65273.078125,89.94766235351562,357.8066711425781,-90.0,160041.18919785236,-992.3027515198792,-579218.2566136636,1435.6862578496803,-598323.6094423989,10.279405915551195,1.0,1.0,0.0
866.9233536964748,100.65886613290799,1310.15576171875,65208.296875,89.58505249023438,157.64999389648438,75.18904113769531,160045.0431913331,-992.0507945801819,-579229.6823856874,1456.0078856893815,-598323.5423211348,10.36236623017328,1.0,1.0,0.0
879.058077299851,101.45956446454728,1309.2890625,65143.51171875,89.1986083984375,156.06451416015625,78.70158386230469,160048.9226769979,-991.7996368195618,-579241.2008279302,1476.4997676885687,-598323.3798646117,10.445413474781958,1.0,1.0,0.0
891.288731963723,102.25879655768864,1308.4224853515625,65078.73046875,88.8018798828125,153.25958251953125,80.58116149902344,160052.82858678792,-991.5501594330872,-579252.8115361759,1497.139619676862,-598323.0453513255,10.528330132253245,1.0,1.0,0.0
901.5539536656579,102.92183310458611,1307.7003173828125,65024.74609375,88.4735107421875,150.96737670898438,81.81282043457031,160056.10452277272,-991.3451041962708,-579262.557131195,1514.432358038146,-598322.5745752176,10.597136860688352,1.0,1.0,0.0
913.9592988523655,103.71092634933993,1306.833740234375,64959.96484375,88.10781860351562,148.50210571289062,83.08984375,160060.0623715139,-991.1049117829407,-579274.3348657321,1535.2621283298358,-598321.7176214564,10.679052911727013,1.0,1.0,0.0
926.4587400438031,104.48994610612849,1305.9671630859375,64895.1796875,87.79043579101562,146.41554260253906,84.183349609375,160064.0510190021,-990.8732890870178,-579286.2016257327,1556.143357888097,-598320.5553266113,10.759955101877495,1.0,1.0,0.0
936.9459539838135,105.13059233211553,1305.2449951171875,64841.1953125,87.57684326171875,145.15272521972656,85.10450744628906,160067.3993326087,-990.6879367615784,-579296.1573235522,1573.571726925904,-598319.3983345979,10.826510578000295,1.0,1.0,0.0
949.6144042346859,105.89277179013222,1304.37841796875,64776.4140625,87.39111328125,144.2308349609375,86.19078063964844,160071.44777469453,-990.4752616669739,-579308.1830016895,1594.5552770405775,-598317.7703602894,10.90571863837124,1.0,1.0,0.0
962.3741463108454,106.65070582984215,1303.5118408203125,64711.6328125,87.28970336914062,144.24046325683594,87.50656127929688,160075.5304438979,-990.2733115937317,-579320.2936839658,1615.6446327929152,-598315.9996481597,10.98450868392672,1.0,1.0,0.0
975.2247427762486,107.41063877406664,1302.645263671875,64646.84375,87.26593017578125,144.94674682617188,88.79742431640625,160079.64725554112,-990.0823383118714,-579332.4893871221,1636.9073892488377,-598314.3293026836,11.06351670727787,1.0,1.0,0.0
986.0035712679382,108.04572354799629,1301.923095703125,64592.86328125,87.304931640625,146.1090850830078,89.90061950683594,160083.10356061053,-989.9318446900452,-579342.7178328612,1654.7624719765736,-598313.0379265882,11.129551381115846,1.0,1.0,0.0
999.0220721869264,108.81110659214185,1301.056396484375,64528.08203125,87.416748046875,148.15093994140625,91.21798706054688,160087.28094909547,-989.7619170929993,-579355.0708477085,1676.3650301968446,-598311.6924243207,11.209138454369679,1.0,1.0,0.0
1012.1328276925487,109.5808962230507,1300.18994140625,64463.30078125,87.59109497070312,150.6722869873047,92.29994201660156,160091.48939473648,-989.603767373761,-579367.5108572124,1698.1705630103825,-598310.6259848038,11.289185768666073,1.0,1.0,0.0
1023.1291665611789,110.22593487457574,1299.4677734375,64409.31640625,87.780517578125,153.1583251953125,93.03684997558594,160095.0190865435,-989.480834939679,-579377.9447188844,1716.5001570897875,-598309.9451961878,11.356262385305001,1.0,1.0,0.0
1036.4102906278567,111.00444700913216,1298.60107421875,64344.52734375,88.05780029296875,156.5936737060547,93.70697021484375,160099.28048073762,-989.3434657837952,-579390.5468477476,1738.6894816645654,-598309.371631327,11.437220831938816,1.0,1.0,0.0
1049.7851115375524,111.78827511897394,1297.734619140625,64279.74609375,88.38189697265625,160.50796508789062,94.12570190429688,160103.56865985732,-989.2161979462708,-579403.2388396135,1761.0970743518556,-598309.0489279947,11.518734734797135,1.0,1.0,0.0
1063.2544278580463,112.577538440218,1296.867919921875,64214.96484375,88.74713134765625,165.15365600585938,94.53399658203125,160107.88233505073,-989.0976028229798,-579416.02174118,1783.7263821667293,-598308.9441102258,11.600817796990953,1.0,1.0,0.0
1074.5514578962466,113.24027694470078,1296.145751953125,64160.98046875,89.0750732421875,170.05126953125,95.32736206054688,160111.49569101626,-989.004007318219,-579426.744378764,1802.765155252302,-598309.0145531376,11.669745187459796,1.0,1.0,0.0
1088.1959913276369,114.04474330360047,1295.2791748046875,64096.1953125,89.47848510742188,178.3171844482422,97.97169494628906,160115.85320763628,-988.895629861554,-579439.6969633786,1825.868307861383,-598309.2858697319,11.753414484732389,1.0,1.0,0.0
1101.9377712445566,114.86006623977826,1294.41259765625,64031.41796875,89.8673095703125,208.74810791015625,122.05264282226562,160120.23357128623,-988.7885703827942,-579452.7441929616,1849.2652911358746,-598309.6477341936,11.83821896754506,1.0,1.0,0.0
1113.4644365932327,115.54729055736001,1293.6904296875,63977.42578125,89.77532958984375,340.7509460449219,-111.67680358886719,160123.9017384499,-988.6987838532532,-579463.6899969213,1868.984412193182,-598309.885163583,11.909709962626152,1.0,1.0,0.0
1127.3879345200257,116.37943428949067,1292.8238525390625,63912.6484375,89.394775390625,358.27093505859375,-101.26490783691406,160128.32579355314,-988.5902805115784,-579476.9134942709,1892.8942668315722,-598310.043501957,11.996292832367999,1.0,1.0,0.0
1141.4113612325164,117.21673732294255,1291.957275390625,63847.8671875,89.00064086914062,6.007740020751953,-100.5512924194336,160132.77506034204,-988.4812354828919,-579490.2340286821,1917.0399459181353,-598310.0705907551,12.083432100517598,1.0,1.0,0.0
1155.5357139725238,118.05686267188531,1291.0906982421875,63783.08203125,88.60171508789062,11.483859062194824,-101.78602600097656,160137.2506219135,-988.3704795624817,-579503.6517379731,1941.3949890949298,-598309.9235504403,12.170888255045384,1.0,1.0,0.0
1169.7606339965714,118.89652732253873,1290.22412109375,63718.30078125,88.21612548828125,15.829313278198242,-103.72772216796875,160141.7539684983,-988.2553977753723,-579517.1663715141,1965.9202445140108,-598309.5049077491,12.258326089220645,1.0,1.0,0.0
1184.0862148418091,119.73166514758861,1289.357421875,63653.51171875,87.8656005859375,19.240234375,-106.09477996826172,160146.286625268,-988.1335181977356,-579530.7771878366,1990.5650948008988,-598308.8052280196,12.345325711032444,1.0,1.0,0.0
1198.5114029314136,120.55867485087657,1288.490966796875,63588.734375,87.56561279296875,21.854455947875977,-108.64385223388672,160150.850050916,-988.002994516095,-579544.4828866957,2015.2826590343611,-598307.8529977319,12.431513528977291,1.0,1.0,0.0
1213.0351760908961,121.37666131627861,1287.624267578125,63523.953125,87.32644653320312,23.491308212280273,-111.43626403808594,160155.4454333615,-987.8625869538391,-579558.2821333924,2040.0585014191456,-598306.7290594345,12.516793560387839,1.0,1.0,0.0
1227.656424091896,122.18616021623309,1286.7578125,63459.171875,87.14871215820312,24.25042724609375,-114.21072387695312,160160.07279226292,-987.7114562775696,-579572.1736922154,2064.8956510629505,-598305.574557015,12.601215208954784,1.0,1.0,0.0
1242.3742821015185,122.98808405815242,1285.89111328125,63394.390625,87.03073120117188,24.066267013549805,-116.90442657470703,160164.73196020952,-987.5489196564758,-579586.1567163873,2089.802556511946,-598304.3929357538,12.684872558394488,1.0,1.0,0.0
1257.1883021352114,123.786743521521,1285.0245361328125,63329.609375,86.97354125976562,22.790393829345703,-119.631103515625,160169.4230573061,-987.3744354035462,-579600.2304782632,2114.8318209227873,-598303.1983107316,12.768211026899621,1.0,1.0,0.0
1269.6063786641462,124.45296211898756,1284.3023681640625,63275.62109375,86.9697265625,20.94031524658203,-121.89437866210938,160173.35631644423,-987.21932409068,-579612.028032118,2135.822732898174,-598302.2934629035,12.83773925712319,1.0,1.0,0.0
1284.596227520262,125.25364980638915,1283.435791015625,63210.83203125,87.01364135742188,17.791839599609375,-124.6011734008789,160178.10417717748,-987.0208186890686,-579626.2687463043,2161.177243118407,-598301.4037017296,12.921308581481583,1.0,1.0,0.0
1299.682208774495,126.05577646261276,1282.5692138671875,63146.0546875,87.10675048828125,13.645203590393066,-127.29789733886719,160182.88103633618,-986.8081989075745,-579640.601173552,2186.713835224742,-598300.7805163233,13.005033965365385,1.0,1.0,0.0
1314.8646182138473,126.85918625308507,1281.70263671875,63081.2734375,87.24407958984375,8.542593955993652,-129.9472198486328,160187.68506400613,-986.5810699250305,-579655.0260715848,2212.4307812821353,-598300.4776256522,13.088896883794689,1.0,1.0,0.0
1330.1434188268613,127.6642727332036,1280.8360595703125,63016.4921875,87.4234619140625,2.4610016345977783,-132.5757293701172,160192.51407482137,-986.3392524506653,-579669.544180413,2238.333664917387,-598300.5755986223,13.17293447825341,1.0,1.0,0.0
1342.9498918275349,128.3370798162614,1280.1138916015625,62962.5078125,87.60845947265625,356.60723876953125,-134.79171752929688,160196.5554936177,-986.1265334870423,-579681.7145786976,2260.0700078174705,-598300.9908782761,13.2431622338691,1.0,1.0,0.0
1358.4065533560934,129.14733816823195,1279.2471923828125,62897.71875,87.87643432617188,348.77032470703125,-137.36692810058594,160201.42342774445,-985.8582725312317,-579696.4064224635,2286.3431814739015,-598301.9401318603,13.327731858169955,1.0,1.0,0.0
1371.3614790821448,129.82528641802338,1278.5250244140625,62843.73046875,88.14016723632812,341.1954650878906,-139.81398010253906,160205.49347035322,-985.6248550202454,-579708.7231601152,2308.4009695175337,-598303.0066667098,13.398491488380898,1.0,1.0,0.0
1386.997415953665,130.64454732473305,1277.658447265625,62778.94921875,88.50042724609375,330.0113830566406,-143.989990234375,160210.39226180437,-985.334896066388,-579723.5924451904,2335.1008046880597,-598304.5491017236,13.484001173880586,1.0,1.0,0.0
1402.7318709715037,131.4721586449256,1276.7918701171875,62714.16796875,88.89410400390625,314.82684326171875,-151.269287109375,160215.3061050725,-985.037433603009,-579738.5601160603,2362.0836313202744,-598306.2218046755,13.570388922510688,1.0,1.0,0.0
1418.566914804629,132.31134318545034,1275.92529296875,62649.38671875,89.265380859375,289.48797607421875,-167.85768127441406,160220.2353699196,-984.7371597077454,-579753.6273754401,2389.3977032935945,-598307.759635624,13.658001178908137,1.0,1.0,0.0
1431.8400970589137,133.0196822805737,1275.203125,62595.40234375,89.4439697265625,250.68202209472656,161.1687469482422,160224.3564807678,-984.4880218293274,-579766.2600543764,2412.418769673328,-598308.7472891327,13.731974496838859,1.0,1.0,0.0
1447.861941424664,133.8780609098414,1274.336669921875,62530.6171875,89.30563354492188,198.01132202148438,118.26119995117188,160229.32075187165,-984.1922340180481,-579781.5117217011,2440.325466363458,-598309.5152657347,13.821647994519594,1.0,1.0,0.0
1463.9869931079447,134.74211451303947,1273.469970703125,62465.8359375,88.8958740234375,170.01162719726562,100.02679443359375,160234.3082965214,-983.8997421052063,-579796.8641967822,2468.4940839097835,-598309.8515911078,13.911950644394835,1.0,1.0,0.0
1477.5037715509534,135.46369948876367,1272.747802734375,62411.84765625,88.4896240234375,157.17503356933594,95.10884094238281,160238.484575412,-983.659503915509,-579809.7347534434,2492.1305409128545,-598309.7623110772,13.987396093610357,1.0,1.0,0.0
1493.8193230648758,136.32725228038868,1271.8812255859375,62347.06640625,87.99191284179688,147.07533264160156,94.13067626953125,160243.523040869,-983.3775596406067,-579825.270689798,2520.631064117537,-598309.1214122218,14.07773202893992,1.0,1.0,0.0
1510.2381846393691,137.18351965770626,1271.0146484375,62282.28515625,87.5220947265625,139.8534393310547,95.49275207519531,160248.59399494785,-983.1042518403137,-579840.9046441965,2549.212524753879,-598307.8979003212,14.167361996355737,1.0,1.0,0.0
1526.7588242228376,138.02766588828675,1270.1480712890625,62217.50390625,87.11077880859375,134.46144104003906,98.01788330078125,160253.7007602244,-982.8403739716614,-579856.634507961,2577.8028544968693,-598306.1100075372,14.25578380409803,1.0,1.0,0.0
1540.602675208007,138.71952458383552,1269.4259033203125,62163.51953125,86.8294677734375,131.2616729736328,100.820556640625,160257.98581387172,-982.6276778962219,-579869.8140405089,2601.597734695184,-598304.2254504624,14.328301541912822,1.0,1.0,0.0
1557.3057204979705,139.53842280360655,1268.559326171875,62098.73828125,86.57138061523438,128.94854736328125,104.89463806152344,160263.1651993331,-982.3807754304016,-579885.7131769169,2630.1471699909307,-598301.6384608274,14.414183128481568,1.0,1.0,0.0
1574.1064106341219,140.34847678249287,1267.6927490234375,62033.95703125,86.3968505859375,128.12611389160156,109.44552612304688,160268.38602987328,-982.1429290558899,-579901.7020055801,2658.7378957916517,-598298.9264833403,14.499175223579755,1.0,1.0,0.0
1591.004077212303,141.1550606839357,1266.8260498046875,61969.16796875,86.306396484375,128.89125061035156,114.48617553710938,160273.64857772517,-981.9145889069641,-579917.7799007581,2687.445083145518,-598296.2070901169,14.583829694610586,1.0,1.0,0.0
1605.1595260511385,141.8294444247436,1266.1038818359375,61915.18359375,86.29034423828125,130.67919921875,118.97624206542969,160278.06537594885,-981.7327689911926,-579931.2461824996,2711.5272628508974,-598294.05350967,14.65461806722476,1.0,1.0,0.0
1622.235254394589,142.64554436302444,1265.2373046875,61850.40234375,86.327880859375,133.90821838378906,124.39802551269531,160283.40228123256,-981.527351358136,-579947.4885634937,2740.679755166988,-598291.7194548728,14.740282356243597,1.0,1.0,0.0
1639.4097765202168,143.4678980807238,1264.3707275390625,61785.62109375,86.42181396484375,138.2233123779297,129.75515747070312,160288.77768267086,-981.3384971406067,-579963.8221876171,2770.093644569046,-598289.6570006764,14.826605123615195,1.0,1.0,0.0
1653.7974012334598,144.1572745411726,1263.648681640625,61731.63671875,86.53424072265625,142.66065979003906,134.17239379882812,160293.28548393652,-981.1951522614563,-579977.5042165266,2794.7962471026694,-598288.1813109117,14.898969942695771,1.0,1.0,0.0
1671.153576466255,144.98609446335925,1262.781982421875,61666.8515625,86.69998168945312,149.06700134277344,139.46266174316406,160298.72703657032,-981.0411300446594,-579994.0082162588,2824.6197016498772,-598286.8041958818,14.985971905998042,1.0,1.0,0.0
1688.609310974367,145.81557919615398,1261.91552734375,61602.0703125,86.88241577148438,156.67852783203125,144.7379913330078,160304.20064547553,-980.9077033783997,-580010.6067120248,2854.624394982937,-598285.9342943404,15.073040295276883,1.0,1.0,0.0
1703.231989172753,146.50744552830818,1261.193359375,61548.08203125,87.04925537109375,163.97091674804688,149.13442993164062,160308.78409762183,-980.8131980683411,-580024.5113947242,2879.768445526832,-598285.6588773557,15.145657286225571,1.0,1.0,0.0
1720.8702399284812,147.3385272789438,1260.32666015625,61483.30078125,87.27365112304688,173.81248474121094,154.36056518554688,160314.30739189926,-980.7211723115051,-580041.285545158,2910.1109064563643,-598285.9450335748,15.232874545038214,1.0,1.0,0.0
1738.6089256526902,148.1709589980283,1259.4600830078125,61418.51953125,87.53607177734375,184.91671752929688,159.59762573242188,160319.8518338176,-980.6533393647278,-580058.1573161595,2940.645000872668,-598286.9481133196,15.320217828194927,1.0,1.0,0.0
1756.4472372611053,149.0066730951727,1258.593505859375,61353.73828125,87.83807373046875,197.93215942382812,165.4954376220703,160325.41322200026,-980.6084327485169,-580075.1281542671,2971.401198317879,-598288.645849804,15.407888687000309,1.0,1.0,0.0
1771.3894006973132,149.70695869305206,1257.871337890625,61299.75390625,88.11187744140625,211.0963897705078,171.75405883789062,160330.0575635437,-980.5860938813294,-580089.3474964827,2997.2231308628106,-598290.5353937463,15.48134093125509,1.0,1.0,0.0
1789.4128972587641,150.55279361740287,1257.0047607421875,61234.96875,88.43487548828125,230.98492431640625,-177.8385467529297,160335.64014120356,-980.5728721406067,-580106.5042863261,3028.4554024033714,-598293.2293260547,15.570052507806054,1.0,1.0,0.0
1807.53819847852,151.40542930411561,1256.13818359375,61170.1875,88.69448852539062,257.5168151855469,-162.14036560058594,160341.23115706598,-980.5678519990051,-580123.7647289343,3059.971882118727,-598296.1426827044,15.65948166093176,1.0,1.0,0.0
1822.7215010934742,152.1216706511573,1255.416015625,61116.203125,88.79000854492188,284.9945373535156,-144.7637481689453,160345.89696637515,-980.5642394806946,-580138.2279516227,3086.4640160490526,-598298.4068452059,15.73462535588618,1.0,1.0,0.0
1841.03627583466,152.9924409508739,1254.5494384765625,61051.41796875,88.71380615234375,319.07525634765625,-123.9922866821289,160351.50679004184,-980.5545272614563,-580155.6796561431,3118.6037628412014,-598300.4333054965,15.82602809335674,1.0,1.0,0.0
1859.4564628452063,153.87921128440806,1253.6827392578125,60986.63671875,88.45452880859375,347.1282043457031,-110.26429748535156,160357.13534230474,-980.534675576886,-580173.2358825711,3151.1903244933346,-598301.227139005,15.919183965810362,1.0,1.0,0.0
1877.9842419471825,154.77748345807586,1252.816162109375,60921.85546875,88.10079956054688,7.708463668823242,-104.62946319580078,160362.7911904105,-980.503253915509,-580190.8959049964,3184.1579828278627,-598300.7591915333,16.01362871902927,1.0,1.0,0.0
1896.6200995421968,155.68192546797354,1251.9495849609375,60857.07421875,87.73056030273438,22.934349060058594,-104.56958770751953,160368.4807688939,-980.4617042328919,-580208.6588912281,3217.423843597411,-598299.376686687,16.108790945745625,1.0,1.0,0.0
1915.3643169492716,156.58802209213414,1251.0830078125,60792.29296875,87.39120483398438,34.49528503417969,-108.06575012207031,160374.2090569999,-980.4127578522766,-580226.5237688659,3250.9156108311145,-598297.3672437728,16.204186622062025,1.0,1.0,0.0
1934.2176415955182,157.49472962084036,1250.2164306640625,60727.5078125,87.101806640625,43.50707244873047,-113.69391632080078,160379.97856060558,-980.3597450043762,-580244.4903064519,3284.6156111300224,-598295.0899738035,16.299688502991273,1.0,1.0,0.0
1953.179581130622,158.39957413919075,1249.349853515625,60662.7265625,86.87338256835938,50.23736572265625,-120.92955780029297,160385.79022887963,-980.3057327057923,-580262.5579643827,3318.482883038465,-598292.6708460472,16.395032631267043,1.0,1.0,0.0
1969.0637768064626,159.15079508022802,1248.627685546875,60608.73828125,86.7330322265625,54.178810119628906,-127.98623657226562,160390.66609217087,-980.2616195466126,-580277.6911255545,3346.809357562801,-598290.6228723439,16.474216468720044,1.0,1.0,0.0
1988.2239940637955,160.04966044424094,1247.7611083984375,60543.95703125,86.61691284179688,56.997642517089844,-137.42242431640625,160396.55562912382,-980.2106094147766,-580295.9430322077,3380.936580019654,-598288.3240618475,16.568983861641527,1.0,1.0,0.0
2007.4917342192493,160.9426683312566,1246.89453125,60479.17578125,86.53073120117188,57.706478118896484,-147.74798583984375,160402.48597881867,-980.1618232514465,-580314.2950066733,3415.1598088683095,-598286.2092732786,16.663159572184384,1.0,1.0,0.0
2026.865929841064,161.82454668049485,1246.0279541015625,60414.39453125,86.44427490234375,56.35311508178711,-158.71078491210938,160408.45582183867,-980.1141891266907,-580332.7466059047,3449.387842933531,-598284.2929569758,16.75619324497586,1.0,0.9994793424449406,0.0
2043.091557740001,162.551431509001,1245.3057861328125,60360.41015625,86.338623046875,53.83036804199219,-168.01820373535156,160413.45949994374,-980.0739059235657,-580348.198264793,3477.919709246722,-598282.8589166767,16.832898614944497,1.0,0.9991648922918605,0.0
2062.6575328777544,163.42064714192327,1244.439208984375,60295.62890625,86.15228271484375,49.61383819580078,-178.84194946289062,160419.49804560753,-980.0220107819641,-580366.8300297398,3512.2776353559457,-598281.0925772178,16.924655461576265,1.0,0.9987857067271754,0.0
2082.327920569107,164.28712878712884,1243.5726318359375,60230.84765625,85.910888671875,44.69224548339844,171.3065643310547,160425.57490397047,-979.9616546418274,-580385.5594531787,3546.7764526868705,-598278.9755877999,17.01617482121503,1.0,0.9984044976633895,0.0
2098.7993365867296,165.00430233585087,1242.8504638671875,60176.85546875,85.68502807617188,40.23234558105469,164.0340576171875,160430.6696893873,-979.9008712555969,-580401.2409606128,3575.5838333120337,-598277.0076570465,17.091963627959387,1.0,0.9980852841746758,0.0
2118.6588846894447,165.8592093708547,1241.9837646484375,60112.07421875,85.3916015625,34.66927719116211,156.65142822265625,160436.82054167447,-979.8114547516907,-580420.146160139,3610.222401400795,-598274.6154605015,17.18234312581893,1.0,0.997700409211445,0.0
2138.6208923972445,166.70755214852971,1241.1171875,60047.29296875,85.09658813476562,28.767478942871094,150.64581298828125,160443.0116423695,-979.6999206330383,-580439.1463477868,3644.9284399199532,-598272.3106559305,17.272060925016376,1.0,0.9973135485969526,0.0
2155.3328209288884,167.40981866741504,1240.39501953125,59993.30859375,84.8521728515625,23.64798355102539,146.75723266601562,160448.200459292,-979.5868110444153,-580455.0520223696,3673.904879092006,-598270.5750476575,17.346347487733453,1.0,0.996989674013006,0.0
2175.480150719988,168.2511437799243,1239.5284423828125,59928.52734375,84.57098388671875,17.165559768676758,143.30972290039062,160454.46115844892,-979.4228057648743,-580474.2253356024,3708.814208556898,-598268.731231994,17.435357077401022,1.0,0.9965992218852716,0.0
2195.7287945777643,169.09474809178647,1238.661865234375,59863.7421875,84.34194946289062,10.119346618652344,140.89422607421875,160460.75716219572,-979.2231826569641,-580493.4939984533,3743.9398438825738,-598267.2289324689,17.524611788927928,1.0,0.9962068063066324,0.0
2216.078664106084,169.9408659894402,1237.7952880859375,59798.9609375,84.18911743164062,2.260857343673706,139.1175079345703,160467.0856584541,-978.9831199433411,-580512.8589188289,3779.2854012661846,-598266.3447042675,17.614119831954497,1.0,0.9958124289901922,0.0
