obs_alt,obs_vel,obs_fuel,obs_mass,obs_pitch,obs_heading,obs_roll,obs_pos_x,obs_pos_y,obs_pos_z,obs_ap,obs_pe,obs_time_to_ap,act_throttle,act_pitch,act_stage
4.613229643553495,2.3422636699493156,538.002197265625,17500.30859375,89.94406127929688,281.21759033203125,-90.0,159781.25185823266,-1018.1225253545072,-578412.8646739428,77.3820692760637,-598435.5108996695,0.24007293248644146,1.0,1.0,0.0
4.878633077372797,2.8501416180305537,537.6322021484375,17486.708984375,89.93743896484375,281.73028564453125,-90.0,159781.3210107268,-1018.1241007536973,-578413.1209107395,77.782618151512,-598435.5438974268,0.29212876346144867,1.0,1.0,0.0
5.264308745390736,3.461796711519237,537.188232421875,17470.3828125,89.94406127929688,282.3630676269531,-90.0,159781.42163002945,-1018.1261041663911,-578413.4932326773,78.3661493397085,-598435.5827968164,0.35482166750335864,1.0,1.0,0.0
5.723523419466801,4.075321675377701,536.7442626953125,17454.0546875,89.93743896484375,283.0066223144531,-90.0,159781.54155364248,-1018.1282306999292,-578413.9365129374,79.06234533817042,-598435.6208828379,0.4177065657642629,1.0,1.0,0.0
6.256478508817963,4.69049927103826,536.3003540039062,17437.7265625,89.94406127929688,283.655517578125,-90.0,159781.68083536736,-1018.130479255351,-578414.4509476443,79.87165829213336,-598435.6582257437,0.48076125652704604,1.0,1.0,0.0
6.757078526658006,5.2044104976798,535.930419921875,17424.119140625,89.93438720703125,284.1976318359375,-90.0,159781.81172877725,-1018.1324455604281,-578414.9341353594,80.63286400248762,-598435.6887172697,0.533436664253145,1.0,1.0,0.0
7.425741280429065,5.822620081571938,535.4864501953125,17407.791015625,89.94406127929688,284.84796142578125,-90.0,159781.9866376684,-1018.1349150441911,-578415.5795169389,81.65088871167973,-598435.7245093841,0.5968030333248748,1.0,1.0,0.0
8.168704059906304,6.442484945258127,535.04248046875,17391.4609375,89.940673828125,285.49658203125,-90.0,159782.18105563958,-1018.1375039756622,-578416.296594236,82.78348431759514,-598435.7593750102,0.6603396534074477,1.0,1.0,0.0
8.844743806053884,6.960303336079194,534.6724853515625,17377.85546875,89.94766235351562,286.0351867675781,-90.0,159782.35801154788,-1018.139751864257,-578416.9490646005,83.81520463374909,-598435.7879010242,0.7134169262992032,1.0,1.0,0.0
9.724442985490896,7.583203162790574,534.228515625,17361.525390625,89.940673828125,286.67901611328125,-90.0,159782.5883327769,-1018.1425573431279,-578417.7980826558,85.15918502898421,-598435.8216791002,0.7772658759709543,1.0,1.0,0.0
10.679007344529964,8.207759354660137,533.7845458984375,17345.197265625,89.940673828125,287.32000732421875,-90.0,159782.838310837,-1018.1454799935545,-578418.7193406958,86.61919876316097,-598435.8547727036,0.8412853794677062,1.0,1.0,0.0
11.531813537003472,8.729488241670706,533.4146118164062,17331.58984375,89.94406127929688,287.8521728515625,-90.0,159783.061678449,-1018.1480049804177,-578419.5423759862,87.92488666903228,-598435.8818396241,0.8947653114724972,1.0,1.0,0.0
12.62414962449111,9.357082248211391,532.9706420898438,17315.259765625,89.9515380859375,288.48858642578125,-90.0,159783.34782867497,-1018.1511423752036,-578420.5965715427,89.59897464921232,-598435.9140510627,0.959097793206297,1.0,1.0,0.0
13.791920397663489,9.98633320114199,532.5267333984375,17298.931640625,89.9515380859375,289.1229553222656,-90.0,159783.6537791362,-1018.1543968186106,-578421.7235500982,91.39056571398396,-598435.9459938004,1.0236010844555494,1.0,1.0,0.0
15.035312885069288,10.617241407856467,532.082763671875,17282.603515625,89.9515380859375,289.7557067871094,-90.0,159783.9795797048,-1018.1577685490574,-578422.9235050761,93.30018180329353,-598435.9775022223,1.0882752882051818,1.0,1.0,0.0
16.129390464397147,11.14426452410164,531.7127685546875,17268.998046875,89.9515380859375,290.2819519042969,-90.0,159784.26628241874,-1018.1606676593747,-578423.9793529852,94.98206325457431,-598436.0034600779,1.1423011004261525,1.0,1.0,0.0
17.511953542707488,11.778212009591423,531.268798828125,17252.66796875,89.94766235351562,290.9125671386719,-90.0,159784.62860811377,-1018.1642536387171,-578425.3135980421,97.10941525141243,-598436.0342912987,1.207288930386369,1.0,1.0,0.0
18.970705746440217,12.413817786120452,530.8248291015625,17236.33984375,89.9515380859375,291.54241943359375,-90.0,159785.01092741854,-1018.1679563165035,-578426.721364918,99.35627421468962,-598436.0649622122,1.2724479828554536,1.0,1.0,0.0
20.505852721165866,13.051082940587595,530.380859375,17220.009765625,89.94766235351562,292.171875,-90.0,159785.41328806846,-1018.1717755064692,-578428.2028484603,101.72316663782112,-598436.0956950968,1.3377784418582337,1.0,1.0,0.0
21.843636897276156,13.583403673823991,530.0109252929688,17206.404296875,89.94406127929688,292.6962585449219,-90.0,159785.76393228097,-1018.1750469372,-578429.4938673461,103.78764664044138,-598436.1213520231,1.3923513628651563,1.0,1.0,0.0
23.519347336608917,14.223709158097076,529.5669555664062,17190.07421875,89.93743896484375,293.3255615234375,-90.0,159786.20315760892,-1018.1790794670906,-578431.1109970416,106.37596378021408,-598436.1520114159,1.457996070094282,1.0,1.0,0.0
25.272011406254023,14.865673560824986,529.123046875,17173.74609375,89.94406127929688,293.955078125,-90.0,159786.66256247976,-1018.183229157361,-578432.8023897822,109.0858050918905,-598436.1824937621,1.5238123498597815,1.0,1.0,0.0
26.791501295752823,15.40191065656037,528.7530517578125,17160.138671875,89.94766235351562,294.47991943359375,-90.0,159787.060844989,-1018.186776542696,-578434.2687518785,111.43721883243416,-598436.2080075963,1.578790317796063,1.0,1.0,0.0
28.68576327827759,16.04691551376747,528.30908203125,17143.810546875,89.94406127929688,295.1101989746094,-90.0,159787.5573654935,-1018.191140109333,-578436.0967942837,114.3712276261067,-598436.2385259487,1.6449212522497305,1.0,1.0,0.0
30.657554175239056,16.69357863997437,527.8651123046875,17127.482421875,89.9515380859375,295.740966796875,-90.0,159788.0741978938,-1018.1956198454227,-578437.9996478808,117.42825945664663,-598436.2691897654,1.7112239089491936,1.0,1.0,0.0
32.36006426461972,17.233731029008915,527.4951171875,17113.875,89.95574951171875,296.26715087890625,-90.0,159788.52044327254,-1018.1994413823213,-578439.6426468833,120.07014523202088,-598436.2946759014,1.7666073279926309,1.0,1.0,0.0
34.47447892231867,17.8834346147921,527.0512084960938,17097.546875,89.9515380859375,296.899169921875,-90.0,159789.0746393644,-1018.2041333332982,-578441.6831528214,123.35410011734348,-598436.3251985532,1.8332250456783754,1.0,1.0,0.0
36.666984815266915,18.53479662635018,526.6072387695312,17081.21875,89.94406127929688,297.53192138671875,-90.0,159789.64928338843,-1018.2089416027393,-578443.7990194735,126.762585490942,-598436.3557565593,1.9000147261162397,1.0,1.0,0.0
38.93776952335611,19.187816371222187,526.1632690429688,17064.888671875,89.9515380859375,298.1654968261719,-90.0,159790.244422884,-1018.2138664365139,-578445.9904369226,130.29613373673055,-598436.3861480551,1.966976379960272,1.0,1.0,0.0
40.890025716042146,19.733266649555283,525.7933349609375,17051.28125,89.94406127929688,298.69403076171875,-90.0,159790.75606491044,-1018.218059086832,-578447.8744658842,133.3366771156434,-598436.4113966365,2.022909270498019,1.0,1.0,0.0
43.30484679003712,20.38932664476817,525.349365234375,17034.953125,89.9515380859375,299.3291015625,-90.0,159791.38891049763,-1018.2231967985954,-578450.2048960218,137.10089923429769,-598436.4418137966,2.0901865282800145,1.0,1.0,0.0
45.79850216337945,21.047044233740337,524.9053955078125,17018.625,89.9515380859375,299.9650573730469,-90.0,159792.04238287764,-1018.2284509033288,-578452.6114232368,140.99170128279366,-598436.4722274895,2.1576359762602237,1.0,1.0,0.0
47.93692490388639,21.5964079896454,524.535400390625,17005.017578125,89.9515380859375,300.4956359863281,-90.0,159792.6027373,-1018.2329190463151,-578454.6751297473,144.33111330936663,-598436.497267379,2.213975399571382,1.0,1.0,0.0
50.5756540534785,22.257161818042817,524.0914306640625,16988.689453125,89.94766235351562,301.1331481933594,-90.0,159793.29416171755,-1018.2383888304557,-578457.2216720324,148.45536672859453,-598436.5273389891,2.281740473966238,1.0,1.0,0.0
53.29380652180407,22.91957398684531,523.6475219726562,16972.361328125,89.94766235351562,301.771728515625,-90.0,159794.00635269744,-1018.2439759016361,-578459.8448588541,152.70772507670335,-598436.5584275639,2.3496780451162067,1.0,1.0,0.0
56.09153851820156,23.58364121528181,523.2035522460938,16956.03125,89.9515380859375,302.4112243652344,-90.0,159794.73935718922,-1018.2496802598562,-578462.5448845198,157.08872206369415,-598436.5889583231,2.417787874336966,1.0,1.0,0.0
58.48395761125721,24.13829614226848,522.8336181640625,16942.423828125,89.95574951171875,302.9447937011719,-90.0,159795.3661253404,-1018.2545242697324,-578464.8537436821,160.83821017690934,-598436.6143889722,2.474677842518304,1.0,1.0,0.0
61.42815872421488,24.805399764205177,522.3896484375,16926.095703125,89.94766235351562,303.58599853515625,-90.0,159796.1374115978,-1018.2604448438015,-578467.6951429966,165.4564508505864,-598436.6456554992,2.5431039056825853,1.0,1.0,0.0
64.4525272656465,25.474157595118733,521.9456787109375,16909.767578125,89.9515380859375,304.22821044921875,-90.0,159796.92963787497,-1018.2664833605613,-578470.6139310697,170.2048611411592,-598436.6763865716,2.611702386270622,1.0,1.0,0.0
67.03423611447215,26.032720498449642,521.57568359375,16896.16015625,89.95574951171875,304.7640686035156,-90.0,159797.6058621527,-1018.2716058284368,-578473.105506754,174.26169768546242,-598436.7025147064,2.6689996607481703,1.0,1.0,0.0
70.20610705111176,26.704511711292227,521.1317138671875,16879.83203125,89.95574951171875,305.40826416015625,-90.0,159798.43660553213,-1018.2778610378828,-578476.166672822,179.25016036315355,-598436.7342528115,2.737914520785125,1.0,1.0,0.0
73.45870998851024,27.37795514728118,520.687744140625,16863.50390625,89.94766235351562,306.05352783203125,-90.0,159799.28843135302,-1018.2842345327463,-578479.3057746168,184.37032929470297,-598436.7652978058,2.8070018486467916,1.0,1.0,0.0
76.79224282095674,28.053051466087357,520.2438354492188,16847.17578125,89.9515380859375,306.6999206542969,-90.0,159800.1613824395,-1018.290726000103,-578482.5229989798,189.62274381320458,-598436.7961156727,2.8762617987817976,1.0,1.0,0.0
80.20690981380176,28.72979940167294,519.7998657226562,16830.845703125,89.9515380859375,307.3470458984375,-90.0,159801.05550790243,-1018.2973356187667,-578485.8185370748,195.0079508118797,-598436.8263412787,2.9456943364838253,1.0,1.0,0.0
83.70291246287525,29.40820045090834,519.35595703125,16814.515625,89.940673828125,307.9952087402344,-90.0,159801.97086196038,-1018.304064163598,-578489.192592836,200.5265005681431,-598436.85713406,3.015299696325826,1.0,1.0,0.0
87.28042058716528,30.088252928455717,518.9119873046875,16798.189453125,89.94406127929688,308.64410400390625,-90.0,159802.9074864553,-1018.310911470684,-578492.6453478001,206.1789335059002,-598436.8883824948,3.0850777991822156,1.0,1.0,0.0
90.9396720478544,30.76995391598387,518.468017578125,16781.859375,89.94766235351562,309.29425048828125,-90.0,159803.86541988878,-1018.3178781956758,-578496.1769950956,211.96578803961165,-598436.9189171289,3.155028451781561,1.0,1.0,0.0
94.05159980175085,31.339297159551,518.0980224609375,16768.251953125,89.94766235351562,309.8366394042969,-90.0,159804.6800258689,-1018.3237752557125,-578499.1804438009,216.8912488432834,-598436.943912589,3.2134525188992598,1.0,1.0,0.0
97.8611831626622,32.024020730316884,517.654052734375,16751.923828125,89.94406127929688,310.4883728027344,-90.0,159805.67717534915,-1018.3309613555994,-578502.8572365453,222.92597899539396,-598436.9744953957,3.283719777590136,1.0,1.0,0.0
101.75306283205282,32.71039287465815,517.2100830078125,16735.595703125,89.94406127929688,311.1409912109375,-90.0,159806.6957699028,-1018.3382675439443,-578506.6134642666,229.09668490628246,-598437.0052709937,3.3541598533206525,1.0,1.0,0.0
105.72741438413505,33.398412881664626,516.76611328125,16719.267578125,89.9515380859375,311.7947082519531,-90.0,159807.73586374862,-1018.3456943720903,-578510.4493308992,235.4039199334802,-598437.0369797902,3.4247727614244923,1.0,1.0,0.0
109.10251631413121,33.973020485872894,516.3961791992188,16705.66015625,89.9515380859375,312.3404541015625,-90.0,159808.61905718906,-1018.3519742280569,-578513.7068499557,240.76463403156959,-598437.0633712935,3.4837488333928945,1.0,1.0,0.0
113.22859091078863,34.664056519363996,515.9522705078125,16689.33203125,89.940673828125,312.9960632324219,-90.0,159809.6986800121,-1018.3596208781328,-578517.6892113816,247.32358661631588,-598437.0948176673,3.5546783586804054,1.0,1.0,0.0
117.43773349968251,35.35673792010364,515.50830078125,16673.001953125,89.94406127929688,313.65277099609375,-90.0,159810.79992784982,-1018.3673878401842,-578521.7517425762,254.02062421815936,-598437.1265245996,3.625780746630255,1.0,1.0,0.0
121.00889958068728,35.935227597830526,515.1383056640625,16659.39453125,89.93743896484375,314.2007141113281,-90.0,159811.73418863624,-1018.3739530831899,-578525.1985763484,259.7073656183202,-598437.1527060389,3.6851646874846438,1.0,1.0,0.0
125.37078077881597,36.63092210206966,514.6943359375,16643.06640625,89.940673828125,314.859130859375,-90.0,159812.8752051102,-1018.3819437116708,-578529.4086003957,266.6589865962742,-598437.1837681147,3.756583915489159,1.0,1.0,0.0
129.81625055067707,37.32825740478627,514.2503662109375,16626.73828125,89.94406127929688,315.5186462402344,-90.0,159814.03798685942,-1018.3900560826387,-578533.699344323,273.75024227960967,-598437.2152024234,3.8281758215070454,1.0,1.0,0.0
133.58480525261257,37.91062108059038,513.8804321289062,16613.130859375,89.940673828125,316.0691833496094,-90.0,159815.02363126483,-1018.3969098717298,-578537.3367564959,279.76668126217555,-598437.2413235161,3.8879674754365965,1.0,1.0,0.0
138.18408002587967,38.61096081133607,513.4364624023438,16596.802734375,89.93743896484375,316.7306823730469,-90.0,159816.22642563182,-1018.405247369441,-578541.7759850484,287.11536836926825,-598437.2724856564,3.959875856601627,1.0,1.0,0.0
142.86750119633507,39.312941013581685,512.9924926757812,16580.474609375,89.940673828125,317.3936462402344,-90.0,159817.4511129609,-1018.4137109309759,-578546.2964749478,294.6052631508792,-598437.3039699238,4.031957174728802,1.0,1.0,0.0
147.6300491694128,40.01655700257483,512.548583984375,16564.146484375,89.94406127929688,318.05718994140625,-90.0,159818.69773751037,-1018.4222997148597,-578550.8984155159,302.23690797027666,-598437.3363714846,4.104211045612033,1.0,1.0,0.0
151.6441517781932,40.60415452131024,512.1785888671875,16550.5390625,89.94766235351562,318.61126708984375,-90.0,159819.7533793052,-1018.4295537838931,-578554.7957267584,308.70530060643796,-598437.3629926244,4.164554640005747,1.0,1.0,0.0
156.56674574140925,41.31077024829183,511.734619140625,16534.2109375,89.94766235351562,319.2771301269531,-90.0,159821.04033907392,-1018.4383754956685,-578559.5474962165,316.59827147214673,-598437.3946543301,4.237125246577705,1.0,1.0,0.0
161.60129488748498,42.01901997502506,511.2906494140625,16517.880859375,89.940673828125,319.9439392089844,-90.0,159822.34936918493,-1018.44732636372,-578564.3812589707,324.6345654526958,-598437.4260333882,4.3098685401515695,1.0,1.0,0.0
165.83557229593862,42.61047540079962,510.9206848144531,16504.2734375,89.940673828125,320.5003967285156,-90.0,159823.45712070307,-1018.4548853633427,-578568.4721661243,331.44135979609564,-598437.4522851368,4.370619848776471,1.0,1.0,0.0
171.00222065136768,43.321717493710786,510.47674560546875,16487.9453125,89.93438720703125,321.1690673828125,-90.0,159824.80673389477,-1018.4640767297075,-578573.4567452287,339.7418515374884,-598437.4838899936,4.443679666803007,1.0,1.0,0.0
176.25694434763864,44.03458966145144,510.03277587890625,16471.6171875,89.94406127929688,321.8387451171875,-90.0,159826.1785478832,-1018.4734002300352,-578578.5238572457,348.18723532021977,-598437.515559614,4.516912071888726,1.0,1.0,0.0
181.57960261788685,44.749091548854146,509.58880615234375,16455.287109375,89.93743896484375,322.50946044921875,-90.0,159827.57260829216,-1018.4828568829915,-578583.6736931246,356.7780707991915,-598437.5474725486,4.5903171350759635,1.0,1.0,0.0
186.0818003063323,45.345753643548136,509.2188415527344,16441.681640625,89.93438720703125,323.0691833496094,-90.0,159828.7513515154,-1018.4908403282441,-578588.0285517757,364.0486093341606,-598437.574171852,4.65161988415025,1.0,1.0,0.0
191.58060949284118,46.06323936492436,508.77490234375,16425.3515625,89.940673828125,323.7417907714844,-90.0,159830.18631431414,-1018.5005455691643,-578593.3305409485,372.90754604525864,-598437.6062939016,4.725341370607282,1.0,1.0,0.0
197.16750942578074,46.78235041167715,508.3309326171875,16409.025390625,89.940673828125,324.41546630859375,-90.0,159831.64365151207,-1018.5103889157864,-578598.7157923906,381.91350654431153,-598437.6384953292,4.7992353833964785,1.0,1.0,0.0
201.8697850704193,47.38284985943618,507.9609680175781,16395.41796875,89.93743896484375,324.97772216796875,-90.0,159832.87522393337,-1018.5186987467345,-578603.2672415797,389.53118310892023,-598437.665446804,4.86094546314439,1.0,1.0,0.0
207.61266426113434,48.10493679314296,507.5169982910156,16379.087890625,89.94406127929688,325.65338134765625,-90.0,159834.37369934682,-1018.528799885295,-578608.8056328405,398.80813087092247,-598437.6979471433,4.935155669043581,1.0,1.0,0.0
213.4436344705755,48.82864526883486,507.07305908203125,16362.759765625,89.93743896484375,326.33013916015625,-90.0,159835.89467709945,-1018.5390436790133,-578614.4278236176,408.2336807566462,-598437.7306036564,5.009538335197249,1.0,1.0,0.0
219.3424316785531,49.55397376356916,506.62908935546875,16346.4306640625,89.93438720703125,327.00799560546875,-90.0,159837.43820245907,-1018.549431109356,-578620.1340029564,417.80838927580044,-598437.7634307299,5.084093420835472,1.0,1.0,0.0
224.3529414073564,50.15965024195989,506.2591247558594,16332.8232421875,89.93438720703125,327.57366943359375,-90.0,159838.74172935408,-1018.5581985482123,-578624.9534468049,425.9016538579017,-598437.7909045442,5.146354303843623,1.0,1.0,0.0
230.42799648013897,50.88794437198291,505.8151550292969,16316.4951171875,89.93743896484375,328.2535095214844,-90.0,159840.32670781444,-1018.5688548745499,-578630.8140962208,435.75126520951744,-598437.8240421452,5.221225343827598,1.0,1.0,0.0
236.57093987439293,51.617852219556276,505.3712158203125,16300.166015625,89.93743896484375,328.9344482421875,-90.0,159841.9343597947,-1018.5796591209765,-578636.7592702777,445.7516048839316,-598437.8574439288,5.296268487454597,1.0,1.0,0.0
242.82213145622518,52.349371580969326,504.92724609375,16283.837890625,89.93743896484375,329.6164855957031,-90.0,159843.56472970019,-1018.5906136283484,-578642.7891569729,455.9032266061986,-598437.8910441016,5.371483628617966,1.0,1.0,0.0
248.1005917711882,52.96020115395198,504.5572814941406,16270.23046875,89.93145751953125,330.18572998046875,-90.0,159844.94075720717,-1018.5998577097739,-578647.8789096969,464.4788774626795,-598437.9192163568,5.434294292346692,1.0,1.0,0.0
254.50774751999415,53.6946706400014,504.1133117675781,16253.9033203125,89.93438720703125,330.8698425292969,-90.0,159846.61289099726,-1018.6110903463258,-578654.0645924882,474.90929662191775,-598437.9532409204,5.509824629914476,1.0,1.0,0.0
260.9828215336893,54.43074667719228,503.66937255859375,16237.5732421875,89.93145751953125,331.5550537109375,-90.0,159848.30786757165,-1018.6224771870882,-578660.335520593,485.4925755081931,-598437.9873640884,5.5855267991943265,1.0,1.0,0.0
266.4815021400573,55.045369256244,503.2994079589844,16223.9658203125,89.93145751953125,332.126953125,-90.0,159849.73782986842,-1018.6320861420302,-578665.6265479247,494.42914412682876,-598438.0159269071,5.648743149781467,1.0,1.0,0.0
273.1327575535979,55.78438643646825,502.8554382324219,16207.6376953125,89.93438720703125,332.814208984375,-90.0,159851.47480060745,-1018.6437618869445,-578672.0542473291,505.2941156399902,-598438.0504083158,5.724760227639479,1.0,1.0,0.0
279.89589312358294,56.52500561959137,502.4114685058594,16191.3095703125,89.93145751953125,333.5025939941406,-90.0,159853.2347391364,-1018.655597027153,-578678.5677238245,516.3135290833889,-598438.0851856082,5.800949015305832,1.0,1.0,0.0
285.57075643737335,57.14341077742951,502.04150390625,16177.7021484375,89.92868041992188,334.0771484375,-90.0,159854.71893030588,-1018.6655814443322,-578684.0612803556,525.6147530646995,-598438.1143670065,5.864570801310379,1.0,1.0,0.0
292.4899625744438,57.8869623472842,501.5975646972656,16161.373046875,89.92340087890625,334.7676086425781,-90.0,159856.52108885098,-1018.6777095026885,-578690.7325015875,536.9187602306483,-598438.1495737808,5.941074242767968,1.0,1.0,0.0
299.4732883218676,58.6321118119085,501.1535949707031,16145.044921875,89.92599487304688,335.4592590332031,-90.0,159858.34633858496,-1018.6899996143123,-578697.4900297859,548.3787967264652,-598438.1849933905,6.017749329478136,1.0,1.0,0.0
306.56867663771845,59.378857259696446,500.7096252441406,16128.7158203125,89.92599487304688,336.1520080566406,-90.0,159860.1947226601,-1018.7024540599867,-578704.334052136,559.9954212661833,-598438.2207012323,6.094595990847324,1.0,1.0,0.0
312.5554660494672,60.00236263699642,500.33966064453125,16115.109375,89.92599487304688,336.730224609375,-90.0,159861.75274583633,-1018.7129597681698,-578710.1036106148,569.7959585810313,-598438.2506584349,6.158765862619532,1.0,1.0,0.0
319.8067419670988,60.752029105749905,499.8957214355469,16098.78125,89.92086791992188,337.42510986328125,-90.0,159863.6436550192,-1018.7257202861215,-578717.1066903092,581.701111873379,-598438.286812093,6.235926904277505,1.0,1.0,0.0
327.1462465461809,61.503286658388305,499.4517517089844,16082.4521484375,89.92086791992188,338.12115478515625,-90.0,159865.55782136327,-1018.7386498771718,-578724.1967922734,593.7644394905074,-598438.3232137552,6.3132593834063755,1.0,1.0,0.0
333.32929993385915,62.1305492141269,499.081787109375,16068.8447265625,89.92086791992188,338.7020568847656,-90.0,159867.1707566184,-1018.7495547339379,-578730.1718203091,603.9384471317753,-598438.3537530317,6.377834085263203,1.0,1.0,0.0
340.8246918130899,62.88472000532982,498.6378173828125,16052.515625,89.92340087890625,339.40020751953125,-90.0,159869.12767230114,-1018.7627982982767,-578737.4219461001,616.2932213158347,-598438.3907109961,6.455480819058039,1.0,1.0,0.0
348.45213615568355,63.64047686630682,498.1938781738281,16036.1875,89.92340087890625,340.09954833984375,-90.0,159871.10796601372,-1018.7762159629219,-578744.7596213293,628.8077577386284,-598438.4278884021,6.533298848164861,1.0,1.0,0.0
356.1237405244028,64.39781798360252,497.7499084472656,16019.8583984375,89.92086791992188,340.8000793457031,-90.0,159873.1116816129,-1018.789810617741,-578752.1850309357,641.4826172437752,-598438.4652254713,6.611288120736617,1.0,1.0,0.0
362.61887343018316,65.03014533797841,497.37994384765625,16006.2509765625,89.91375732421875,341.384765625,-90.0,159874.79936722133,-1018.8012761995208,-578758.440025467,652.1678795092739,-598438.4965148814,6.676410042616169,1.0,1.0,0.0
370.46656844299287,65.79038841138933,496.93597412109375,15989.9228515625,89.91842651367188,342.0874938964844,-90.0,159876.8461344179,-1018.815200612655,-578766.026762804,665.138136218302,-598438.53428473,6.754713349028634,1.0,1.0,0.0
378.40606294444297,66.55221112508357,496.4920349121094,15973.59375,89.91607666015625,342.7913818359375,-90.0,159878.91644513162,-1018.8293074677985,-578773.7017593469,678.2703098205384,-598438.5723252868,6.833187804266004,1.0,1.0,0.0
385.1012129565934,67.18826864532925,496.1220703125,15959.9873046875,89.91607666015625,343.3788757324219,-90.0,159880.6597188548,-1018.8412045690375,-578780.1651430146,689.3378786309622,-598438.6042308623,6.898713875848159,1.0,1.0,0.0
393.236999619985,67.95298314734842,495.6781005859375,15943.658203125,89.91607666015625,344.0849609375,-90.0,159882.77330247217,-1018.8556526191984,-578788.0024275227,702.7683619452873,-598438.6427731777,6.977502025533795,1.0,1.0,0.0
401.44075174210593,68.71927316497927,495.2341613769531,15927.330078125,89.90936279296875,344.792236328125,-90.0,159884.91054936498,-1018.8702907396513,-578795.9284944524,716.3623614953831,-598438.681660038,7.056461287655679,1.0,1.0,0.0
409.7324578502448,69.48713623142622,494.7901916503906,15911.001953125,89.91375732421875,345.50048828125,-90.0,159887.0715014176,-1018.8851214600437,-578803.9435275651,730.1204348633764,-598438.720831514,7.135591549133608,1.0,1.0,0.0
416.73962637316436,70.12822315202249,494.42022705078125,15897.39453125,89.91607666015625,346.09027099609375,-90.0,159888.89043404913,-1018.8976300661394,-578810.6908154445,741.7112418652978,-598438.7536291508,7.201664098762365,1.0,1.0,0.0
425.2075446335366,70.89896675381408,493.97625732421875,15881.0654296875,89.9072265625,346.7928161621094,-90.0,159891.09495670957,-1018.9128227298197,-578818.8694321285,755.7715901294723,-598438.7931656574,7.281107878990099,1.0,1.0,0.0
433.76741491025314,71.67127896139439,493.5323181152344,15864.7373046875,89.91152954101562,347.4847717285156,-90.0,159893.32330529284,-1018.9282162080857,-578827.1375366175,769.9976132157026,-598438.8329867452,7.3607226010007025,1.0,1.0,0.0
442.43531886371784,72.44515779985004,493.0883483886719,15848.4091796875,89.91152954101562,348.1619567871094,-90.0,159895.5755212482,-1018.9438127011764,-578835.4953116467,784.3898732921807,-598438.8730894076,7.440508204415892,1.0,1.0,0.0
449.70668516203295,73.0912527246337,492.7183837890625,15834.8017578125,89.90936279296875,348.712890625,-90.0,159897.47063097943,-1018.956966586288,-578842.5287554235,796.510820673313,-598438.9066719341,7.507126760187532,1.0,1.0,0.0
458.53075211157557,73.86800065666925,492.2744140625,15818.47265625,89.9072265625,349.35626220703125,-90.0,159899.7667145877,-1018.9729411904966,-578851.0514036446,811.2093267294113,-598438.9472138939,7.587225706617346,1.0,1.0,0.0
467.44280350068584,74.6463112370642,491.8304748535156,15802.14453125,89.90936279296875,349.97930908203125,-90.0,159902.08678535363,-1018.9891250399083,-578859.6642417749,826.075677351444,-598438.9879313785,7.667495536733156,1.0,1.0,0.0
474.9580409768969,75.29609586785989,491.46051025390625,15788.537109375,89.903076171875,350.4825744628906,-90.0,159904.03853167742,-1019.0027731223215,-578866.9106338026,838.5929257496027,-598439.0221586324,7.73451757490659,1.0,1.0,0.0
484.0501190627692,76.07726676559562,491.01654052734375,15772.208984375,89.90512084960938,351.0672302246094,-90.0,159906.4026876866,-1019.0193469322779,-578875.6892950889,853.7684607756091,-598439.0635237505,7.815100597006733,1.0,1.0,0.0
493.2263981971191,76.859995963858,490.57257080078125,15755.8798828125,89.90512084960938,351.63092041015625,-90.0,159908.7909483875,-1019.0361363517983,-578884.5586643496,869.1134477991145,-598439.1051976739,7.895854468656921,1.0,1.0,0.0
500.9657617479097,77.51345911090786,490.2026062011719,15742.2734375,89.90512084960938,352.0848083496094,-90.0,159910.79960915926,-1019.050293548068,-578892.0192276416,882.0307861875044,-598439.1401539936,7.96327981949463,1.0,1.0,0.0
510.3219456722727,78.29904067400905,489.7586669921875,15725.9443359375,89.903076171875,352.6107482910156,-90.0,159913.23217048022,-1019.067482952666,-578901.0553682166,897.6879074533936,-598439.1823649138,8.044346838229558,1.0,1.0,0.0
519.7661448237486,79.08617518701706,489.314697265625,15709.615234375,89.90109252929688,353.1165771484375,-90.0,159915.688953315,-1019.0848928658451,-578910.1827330063,913.5160828698426,-598439.2249333739,8.125584578669589,1.0,1.0,0.0
529.298480517813,79.87486131465103,488.8707275390625,15693.287109375,89.90109252929688,353.6026916503906,-90.0,159918.16999932672,-1019.102525268778,-578919.4015039197,929.5158832698362,-598439.267828909,8.206993055611974,1.0,1.0,0.0
537.3460183973657,80.53328381758621,488.5007629394531,15679.6806640625,89.90109252929688,353.9930114746094,-90.0,159920.256101864,-1019.1173901948944,-578927.1537678646,942.9805624062428,-598439.3037779332,8.274963864670326,1.0,1.0,0.0
547.0781875940738,81.32481019583291,488.05682373046875,15663.3505859375,89.90109252929688,354.4439697265625,-90.0,159922.78173789097,-1019.1354355613945,-578936.5405878372,959.2964833019068,-598439.3471930196,8.35668530673314,1.0,1.0,0.0
556.8785346978111,82.11788298860571,487.61285400390625,15647.0224609375,89.89346313476562,354.8761901855469,-90.0,159925.33175344457,-1019.1537091076902,-578946.0193283338,975.7856354496907,-598439.3909793936,8.43857738299073,1.0,1.0,0.0
565.146353698452,82.77995797568285,487.2428894042969,15633.4150390625,89.897216796875,355.2222595214844,-90.0,159927.47541909176,-1019.169113443994,-578953.988626424,989.6593431239016,-598439.4277138455,8.506951207821146,1.0,1.0,0.0
575.1226090922719,83.57586227685628,486.7989196777344,15617.0869140625,89.897216796875,355.62078857421875,-90.0,159930.07023703886,-1019.1878108834544,-578963.6363575329,1006.4675694631878,-598439.4720009291,8.589156152693533,1.0,1.0,0.0
585.2111101908376,84.37330852020413,486.35498046875,15600.7587890625,89.89346313476562,356.0012512207031,-90.0,159932.68955094845,-1019.2067421092561,-578973.376521569,1023.4506418129895,-598439.5164906319,8.671531717860432,1.0,1.0,0.0
595.3837810963159,85.17229591535614,485.9110107421875,15584.4287109375,89.89166259765625,356.36376953125,-90.0,159935.33340260462,-1019.2259083817926,-578983.2092993174,1040.6091376562836,-598439.561274134,8.754077977053157,1.0,1.0,0.0
603.9434159828816,85.83929428388038,485.5410461425781,15570.822265625,89.89346313476562,356.6522521972656,-90.0,159937.55538550473,-1019.2420609272606,-578991.4741568569,1055.042294566636,-598439.5987838927,8.822996855024371,1.0,1.0,0.0
614.2960228006123,86.64110097395928,485.0970764160156,15554.494140625,89.89166259765625,356.9821472167969,-90.0,159940.2443286198,-1019.2616629323014,-579001.4771935918,1072.5238641639007,-598439.6440347224,8.905855834930719,1.0,1.0,0.0
624.7606312948046,87.44444350507516,484.65313720703125,15538.1650390625,89.89166259765625,357.29437255859375,-90.0,159942.95792582046,-1019.2815050316027,-579011.5733539752,1090.1824683685554,-598439.6892811136,8.988885423015347,1.0,1.0,0.0
633.5604457226582,88.11506813843327,484.2831726074219,15524.55859375,89.8863525390625,357.541015625,-90.0,159945.2381203559,-1019.2982241465977,-579020.0580869002,1105.0336228295928,-598439.7272547147,9.058207109630416,1.0,1.0,0.0
644.1571384650888,88.92122272854812,483.8392028808594,15508.2294921875,89.88986206054688,357.8207702636719,-90.0,159947.99702437708,-1019.3185094860816,-579030.3254404208,1123.018278838601,-598439.7729703076,9.141549509323113,1.0,1.0,0.0
654.9097785979975,89.72890853953575,483.3952331542969,15491.9013671875,89.88809204101562,358.0827941894531,-90.0,159950.7806996507,-1019.3390387001074,-579040.6864261276,1141.1815882937517,-598439.8189434202,9.22506249341393,1.0,1.0,0.0
663.909793278086,90.40314903069375,483.0252685546875,15478.2939453125,89.8863525390625,358.2872314453125,-90.0,159953.11938031163,-1019.3563333060167,-579049.3922348367,1156.45456835581,-598439.8573874292,9.294787002534918,1.0,1.0,0.0
674.8386465735966,91.21363913203373,482.5813293457031,15461.9658203125,89.8863525390625,358.5146484375,-90.0,159955.94857511658,-1019.3773118189496,-579059.9253449969,1174.9469080386916,-598439.9036740771,9.378612852967933,1.0,1.0,0.0
685.8352508676471,92.02565612567778,482.1373596191406,15445.63671875,89.88296508789062,259.470947265625,170.63809204101562,159958.8026571282,-1019.3985373563045,-579070.5525948431,1193.6195266493596,-598439.9502261156,9.462609309271102,1.0,1.0,0.0
696.9403166708071,92.83919907708173,481.6933898925781,15429.3076171875,89.8863525390625,358.8904113769531,-90.0,159961.68166672392,-1019.4200113994225,-579081.274163474,1212.4730040238937,-598439.9970495809,9.54677644183522,1.0,1.0,0.0
706.252289745491,93.51831587430053,481.32342529296875,15415.701171875,89.88296508789062,259.4578552246094,170.33877563476562,159964.09991203513,-1019.4380971152949,-579090.2809815351,1228.3228032542393,-598440.0362485766,9.617046082134607,1.0,1.0,0.0
717.5370478893165,94.33465075573824,480.8794860839844,15399.3720703125,89.88131713867188,259.481689453125,170.26954650878906,159967.02472687728,-1019.4600291020438,-579101.175931075,1247.509331109235,-598440.0834517401,9.701525978449524,1.0,1.0,0.0
728.9300848898711,95.15250656717215,480.4355163574219,15383.0439453125,89.87966918945312,259.513671875,170.2542724609375,159969.9745850648,-1019.482210936666,-579112.1657044275,1266.8783399625681,-598440.1308731243,9.786176512761756,1.0,1.0,0.0
738.4623390521156,95.83521336191411,480.0655517578125,15369.4365234375,89.8780517578125,259.565673828125,170.2904052734375,159972.45195875803,-1019.5008869494116,-579121.3964124345,1283.1589862479595,-598440.1705456305,9.85684893828494,1.0,1.0,0.0
750.0352506177733,96.65585196262239,479.62158203125,15353.107421875,89.88131713867188,259.6382141113281,170.36776733398438,159975.44783352801,-1019.5235277868624,-579132.5604914549,1302.864021657966,-598440.2182705683,9.94181218062522,1.0,1.0,0.0
761.6723736855201,97.47800662669204,479.1776428222656,15336.779296875,89.8780517578125,259.7397155761719,170.487060546875,159978.4688666516,-1019.5464185494658,-579143.8198981091,1322.7531636595959,-598440.2661380346,10.026946047915601,1.0,1.0,0.0
773.4213772206567,98.30167613553293,478.7336730957031,15320.4501953125,89.8780517578125,259.85345458984375,170.62646484375,159981.51509806784,-1019.5695590986438,-579155.1748096622,1342.826991218375,-598440.314210793,10.112250585875586,1.0,1.0,0.0
783.3297375279944,98.989223266229,478.36370849609375,15306.84375,89.8748779296875,259.9625549316406,170.75550842285156,159984.07290253887,-1019.5890333893927,-579164.7103189292,1359.696674821782,-598440.3543925347,10.183468067296644,1.0,1.0,0.0
795.23475138715,99.81566658852589,477.91973876953125,15290.5146484375,89.87646484375,260.09161376953125,170.90496826171875,159987.16543738483,-1019.6126296736097,-579176.2407831221,1380.1105981506407,-598440.4026519,10.269085610999753,1.0,1.0,0.0
807.2720299875364,100.64362193917155,477.4757995605469,15274.185546875,89.8780517578125,260.21588134765625,171.04147338867188,159990.28328661437,-1019.6364732683879,-579187.8672537936,1400.7108585827518,-598440.4510814354,10.35487403311032,1.0,1.0,0.0
817.3803475181339,101.3347423437636,477.1058349609375,15260.5791015625,89.87646484375,260.3238220214844,171.1529541015625,159992.9008611244,-1019.6565317174999,-579197.6294455474,1418.0205394695513,-598440.4915094179,10.426495314168847,1.0,1.0,0.0
829.6175211241934,102.16547954558516,476.661865234375,15244.2509765625,89.87332153320312,260.4413146972656,171.26536560058594,159996.06522594113,-1019.680827856592,-579209.4323890574,1438.964067661902,-598440.5401736972,10.512598488196375,1.0,1.0,0.0
841.9189064265229,102.99774017844967,476.2178955078125,15227.921875,89.8748779296875,260.5531921386719,171.36599731445312,159999.25502145043,-1019.7053696568984,-579221.3318426639,1460.0957451983122,-598440.5889290828,10.59887422513276,1.0,1.0,0.0
854.3562184855109,103.83152707688687,475.7739562988281,15211.5927734375,89.8748779296875,260.64306640625,171.4385986328125,160002.4702885259,-1019.7301569110833,-579233.327984579,1481.4162044243421,-598440.637829762,10.685322996274465,1.0,1.0,0.0
864.7726498941192,104.52751800244691,475.40399169921875,15197.986328125,89.87026977539062,260.71051025390625,171.48826599121094,160005.1691651885,-1019.7510004145727,-579243.3987578712,1499.3279262587894,-598440.6786524086,10.757496219994891,1.0,1.0,0.0
877.3863587323576,105.36411184508171,474.96002197265625,15181.6572265625,89.87179565429688,260.77972412109375,171.53610229492188,160008.43123777103,-1019.7762377414309,-579255.5726268543,1520.9961518120253,-598440.7277433331,10.844263603648585,1.0,1.0,0.0
890.0878384761745,106.20224332210336,474.51605224609375,15165.3291015625,89.87332153320312,260.83447265625,171.56686401367188,160011.71889943065,-1019.8017207584708,-579267.8436921912,1542.8550013112836,-598440.7769365205,10.93120571479352,1.0,1.0,0.0
900.7522004691418,106.90186384323194,474.1460876464844,15151.7216796875,89.87179565429688,260.8815612792969,171.59677124023438,160014.4781954882,-1019.8231446226096,-579278.1439570853,1561.2168004643172,-598440.8178589097,11.003791399663385,1.0,1.0,0.0
913.6297708860366,107.74282493555194,473.7021484375,15135.392578125,89.87026977539062,260.9368591308594,171.63278198242188,160017.81288156868,-1019.8490792010408,-579290.5936833826,1583.426836832543,-598440.866898303,11.091055435708938,1.0,1.0,0.0
926.6193439026829,108.58533604600069,473.2581787109375,15119.064453125,89.8658447265625,260.9884338378906,171.66513061523438,160021.17327753975,-1019.875260334924,-579303.1411170943,1605.8293760349043,-598440.915960879,11.178496009273545,1.0,1.0,0.0
939.7210410152329,109.42940180175239,472.814208984375,15102.736328125,89.8673095703125,261.0435791015625,171.70401000976562,160024.5594265346,-1019.9016883161224,-579315.786440196,1628.425090314122,-598440.9650667617,11.266113786394556,1.0,1.0,0.0
950.6936383886496,110.13398126335592,472.4442443847656,15089.1279296875,89.8673095703125,261.08258056640625,171.73187255859375,160027.4009203367,-1019.9239002255208,-579326.3991168736,1647.4029079040047,-598441.0060403137,11.339264488811693,1.0,1.0,0.0
963.9713044795208,110.98091081046996,472.00030517578125,15072.7998046875,89.8687744140625,261.13311767578125,171.76907348632812,160030.83439325384,-1019.9507811163093,-579339.224376911,1670.3545507420786,-598441.0553702889,11.427209034055807,1.0,1.0,0.0
977.3609724211274,111.82940944577423,471.55633544921875,15056.4716796875,89.8643798828125,261.1883544921875,171.8124542236328,160034.29373876657,-1019.9779102807439,-579352.1480437861,1693.5013064695522,-598441.1048769722,11.51533281182509,1.0,1.0,0.0
988.5977968849475,112.5376944114727,471.1863708496094,15042.8642578125,89.8658447265625,261.2362365722656,171.8507080078125,160037.19632071344,-1020.0007076963407,-579362.9930710379,1712.9398182405857,-598441.1462681999,11.5889067766459,1.0,1.0,0.0
1002.1434752685018,113.38908403373009,470.7424011230469,15026.5361328125,89.8643798828125,261.2953186035156,171.90234375,160040.7032085193,-1020.0282923076209,-579376.0976297307,1736.446090965299,-598441.1961602627,11.677361129439532,1.0,1.0,0.0
1015.8175135081401,114.24205833122637,470.2984619140625,15010.2080078125,89.86151123046875,261.35906982421875,171.95724487304688,160044.23608877158,-1020.0561258127724,-579389.3011186301,1760.1494575213874,-598441.2462189879,11.765996878369094,1.0,1.0,0.0
1029.5832285739016,115.09662259902589,469.8544921875,14993.87890625,89.860107421875,261.425537109375,172.0149688720703,160047.79500379105,-1020.0842082587806,-579402.6037240806,1784.050622363924,-598441.296470975,11.854814767355549,1.0,1.0,0.0
1041.1323174821446,115.80997793852534,469.4845275878906,14980.271484375,89.86151123046875,261.4660339355469,172.0488739013672,160050.7806853421,-1020.1078000203091,-579413.7650768529,1804.1198666844284,-598441.3384477231,11.928969357026517,1.0,1.0,0.0
1055.0982326754602,116.66747172260335,469.0405578613281,14963.943359375,89.860107421875,261.52264404296875,172.09677124023438,160054.38744221017,-1020.1363385878877,-579427.2498802277,1828.3855116458144,-598441.3890990674,12.018123191746724,1.0,1.0,0.0
1069.152163701714,117.5265717777888,468.59661865234375,14947.6142578125,89.85736083984375,261.5732727050781,172.14144897460938,160058.02035502635,-1020.165127006001,-579440.8343305609,1852.8509855974698,-598441.440094315,12.107461413116766,1.0,1.0,0.0
1080.9651745045558,118.24371967341047,468.2266540527344,14934.0078125,89.85873413085938,261.6175537109375,172.17935180664062,160061.06779248593,-1020.1893088186281,-579452.2309607547,1873.3920503295958,-598441.4827732018,12.182051362632592,1.0,1.0,0.0
1095.21918275801,119.1057801912531,467.7826843261719,14917.6787109375,89.8546142578125,261.6813049316406,172.2359619140625,160064.74876814126,-1020.2185570187984,-579465.9985872533,1898.2257712954888,-598441.5341357117,12.27172978146092,1.0,1.0,0.0
1109.561084919842,119.96946412648667,467.3387451171875,14901.3505859375,89.85736083984375,261.749755859375,172.2960968017578,160068.45602112348,-1020.2480566728104,-579479.8663968106,1923.2613949206425,-598441.5858884486,12.36159493698824,1.0,1.0,0.0
1124.011510771932,120.83477737578997,466.894775390625,14885.021484375,89.8546142578125,261.8254699707031,172.36489868164062,160072.18959457197,-1020.2778075543855,-579493.8345795772,1948.4996598712169,-598441.6378367704,12.45164765422345,1.0,1.0,0.0
1136.1366631464334,121.55712120952873,466.5248107910156,14871.4150390625,89.85598754882812,261.87701416015625,172.41165161132812,160075.32104323132,-1020.3027914499017,-579505.5515442482,1969.6868859643582,-598441.6813694241,12.526835509322893,1.0,1.0,0.0
1150.8108477639034,122.42543838694856,466.0808410644531,14855.0859375,89.85330200195312,261.94134521484375,172.46926879882812,160079.10298410154,-1020.333002263941,-579519.7042430561,1995.298610623693,-598441.733895682,12.617234366864295,1.0,1.0,0.0
1165.5731706817169,123.29540281742793,465.63690185546875,14838.7568359375,89.85064697265625,262.0081481933594,172.52960205078125,160082.91136869334,-1020.3634646586404,-579533.9578597725,2021.115107400692,-598441.7866136959,12.707823237255127,1.0,1.0,0.0
1177.918299770099,124.0216356598847,465.2669372558594,14825.150390625,89.84933471679688,262.06024169921875,172.57594299316406,160086.10525481962,-1020.3890423092769,-579545.9131028872,2042.785820717574,-598441.8306804218,12.783459696420493,1.0,1.0,0.0
1192.8805782798445,124.89463670310177,464.8229675292969,14808.8212890625,89.84805297851562,262.12603759765625,172.635498046875,160089.962235688,-1020.4199666238517,-579560.3522374452,2068.9797121536685,-598441.8837254639,12.874399201851531,1.0,1.0,0.0
1207.9311165641993,125.76930330665128,464.3789978027344,14792.4931640625,89.84933471679688,262.189697265625,172.69430541992188,160093.84578754246,-1020.4511423876589,-579574.8928392922,2095.3805457096314,-598441.9369477242,12.965531222885488,1.0,1.0,0.0
1223.0695470795035,126.64564159864426,463.93505859375,14776.1640625,89.84677124023438,262.24285888671875,172.741455078125,160097.7559549252,-1020.4825697294236,-579589.5351035268,2121.989091454074,-598441.9903320551,13.056856611962075,1.0,1.0,0.0
1235.7707643859321,127.37720600067618,463.5650939941406,14762.556640625,89.84423828125,262.2903747558594,172.78488159179688,160101.03479167607,-1020.5089516476136,-579601.8147903254,2144.3221211294876,-598442.0349902306,13.133109540608189,1.0,1.0,0.0
1251.1329555324046,128.25662776923653,463.1211242675781,14746.228515625,89.84423828125,262.3363342285156,172.82501220703125,160104.9938722442,-1020.5408410486095,-579616.6439457075,2171.3135239434196,-598442.0887856811,13.22479194017518,1.0,1.0,0.0
1266.579866284621,129.13774048242394,462.6771545410156,14729.8994140625,89.84423828125,262.3817138671875,172.8647003173828,160108.97969725888,-1020.572982621889,-579631.5753214543,2198.514871268184,-598442.1427343233,13.316670326624205,1.0,1.0,0.0
1279.5489121212158,129.87329791402658,462.30718994140625,14716.29296875,89.84548950195312,262.4146728515625,172.892578125,160112.32168065454,-1020.5999604741573,-579644.0963627043,2221.343612654251,-598442.1878084459,13.393386054803273,1.0,1.0,0.0
1295.1961447676877,130.75752885125505,461.8632507324219,14699.9638671875,89.84423828125,262.44989013671875,172.92230224609375,160116.35665607938,-1020.6325656462169,-579659.2156585165,2248.9319375470513,-598442.24203547,13.48562621326738,1.0,1.0,0.0
1310.954586238251,131.6434708059845,461.4192810058594,14683.6357421875,89.84173583984375,262.47943115234375,172.9476776123047,160120.4185069028,-1020.665424150315,-579674.4377382933,2276.732487623696,-598442.2963719429,13.5780650775053,1.0,1.0,0.0
1326.8250909911003,132.53113073368823,460.9753112792969,14667.306640625,89.84298706054688,262.5122985839844,172.97645568847656,160124.50728008908,-1020.6985374331398,-579689.7628030587,2304.7460757138906,-598442.3508408809,13.67070359548012,1.0,1.0,0.0
1340.1024955944158,133.2721640737769,460.6053466796875,14653.7001953125,89.84173583984375,262.548583984375,173.00796508789062,160127.93519064735,-1020.7263265006461,-579702.6125046129,2328.254051132244,-598442.3962988751,13.748055496440884,1.0,1.0,0.0
1356.1496413334971,134.16299116089357,460.1614074707031,14637.37109375,89.84173583984375,262.5930480957031,173.0472869873047,160132.07344336668,-1020.7599077910178,-579718.1268987455,2356.6603288323386,-598442.4509710632,13.841062464598167,1.0,1.0,0.0
1372.3285036521265,135.05555566487382,459.7174377441406,14621.0419921875,89.83807373046875,262.64447021484375,173.09359741210938,160136.23875220172,-1020.7937443970685,-579733.7448499196,2385.2819697574014,-598442.5057654242,13.934271758207501,1.0,1.0,0.0
1385.894122025813,135.80069227840858,459.34747314453125,14607.435546875,89.83929443359375,262.6872863769531,173.13417053222656,160139.73054558132,-1020.8221364025685,-579746.8390628446,2409.2984604631783,-598442.5514729475,14.01210148278642,1.0,1.0,0.0
1402.2288732663728,136.69646216587523,458.90350341796875,14591.1064453125,89.83685302734375,262.729736328125,173.17156982421875,160143.9455811895,-1020.8564408765625,-579762.6473998905,2438.3171273497865,-598442.6065385964,14.10568440120727,1.0,1.0,0.0
1418.7199995504925,137.59399083343823,458.4595642089844,14574.7783203125,89.83685302734375,262.7821044921875,173.218994140625,160148.1878085216,-1020.8910008972177,-579778.5598735596,2467.5535505609587,-598442.6616829047,14.199472532041113,1.0,1.0,0.0
1435.2788776288508,138.4932859007282,458.0155944824219,14558.44921875,89.83447265625,262.8252258300781,173.25833129882812,160152.45727567477,-1020.9258167093591,-579794.5766906235,2497.008585968404,-598442.7170045614,14.293466900772785,1.0,1.0,0.0
1449.1969220242463,139.24405349440252,457.6456298828125,14544.841796875,89.8321533203125,262.8630676269531,173.29287719726562,160156.0360073755,-1020.9550253311999,-579808.0038941244,2521.7220680834725,-598442.7632641924,14.37195384908182,1.0,1.0,0.0
1465.9517279252177,140.146607173718,457.20166015625,14528.513671875,89.83331298828125,262.90673828125,173.3328399658203,160160.3555398424,-1020.9903103302092,-579824.2125461762,2551.5801396252355,-598442.8187956482,14.46632905171009,1.0,1.0,0.0
1482.8427674416453,141.05094875887016,456.7577209472656,14512.185546875,89.8321533203125,262.9443054199219,173.36676025390625,160164.7024491969,-1021.0258516637924,-579840.5261303294,2581.6592754159356,-598442.8745687905,14.560913409635418,1.0,1.0,0.0
1497.0048370851437,141.80593798957713,456.38775634765625,14498.578125,89.82867431640625,262.97637939453125,173.39453125,160168.34582151475,-1021.055665541345,-579854.2010918243,2606.894722364843,-598442.9212194982,14.639894226697947,1.0,1.0,0.0
1514.0720290584723,142.71357706866044,455.94378662109375,14482.2490234375,89.82867431640625,263.0104675292969,173.42628479003906,160172.74304914894,-1021.0916780529067,-579870.7075977238,2637.3814220607746,-598442.9772513695,14.734864728287675,1.0,1.0,0.0
1531.2711813948117,143.6230254210293,455.49981689453125,14465.9208984375,89.82867431640625,263.0546569824219,173.4659423828125,160177.16779331994,-1021.1279477689351,-579887.3196318375,2668.0916798285907,-598443.0334285492,14.830047311763735,1.0,1.0,0.0
1548.5583496938925,144.53429104279778,455.0558776855469,14449.591796875,89.82754516601562,263.0856628417969,173.49365234375,160181.6201032017,-1021.1644749502633,-579904.037407079,2699.0263939406723,-598443.0896780412,14.92544306311811,1.0,1.0,0.0
1563.0524599843193,145.29507194336048,454.6859130859375,14435.984375,89.82528686523438,263.1244812011719,173.52952575683594,160185.35145551912,-1021.1951119827656,-579918.0498141777,2724.9774167618016,-598443.1366278508,15.005103028546557,1.0,1.0,0.0
1580.5637547613587,146.20968719281842,454.241943359375,14419.65625,89.82528686523438,263.16619873046875,173.5691680908203,160189.85443415077,-1021.232113054169,-579934.9620005282,2756.3259400120005,-598443.1929998675,15.100892115490751,1.0,1.0,0.0
1598.1830847769743,147.12614113724624,453.7979736328125,14403.328125,89.82528686523438,263.2064208984375,173.60507202148438,160194.3851232521,-1021.2693723900956,-579951.9805333554,2787.9014734857483,-598443.2494146108,15.196897322040343,1.0,1.0,0.0
1615.890795208863,148.04444202642284,453.3540344238281,14387.0,89.826416015625,263.24420166015625,173.63864135742188,160198.9435727444,-1021.3068898915045,-579969.1056271378,2819.7049389409367,-598443.3059685698,15.29311975996012,1.0,1.0,0.0
1633.7341304158326,148.96459732765052,452.9100646972656,14370.6708984375,89.82415771484375,263.287841796875,173.6802978515625,160203.52983348814,-1021.3446664981615,-579986.3374988302,2851.737252868479,-598443.3625824355,15.389560470806941,1.0,1.0,0.0
1651.6658464410575,149.8866150024942,452.4660949707031,14354.341796875,89.82196044921875,263.3294372558594,173.7177734375,160208.14395722022,-1021.3827017740294,-580003.6763653851,2883.9993451031623,-598443.4192168299,15.486220547621713,1.0,1.0,0.0
1669.7052313765744,150.8105022638517,452.02215576171875,14338.013671875,89.81976318359375,263.3630676269531,173.74951171875,160212.78599616318,-1021.4209957047433,-580021.1224446166,2916.4921389995143,-598443.4759352327,15.583101002555281,1.0,1.0,0.0
1687.8807281648042,151.73626829853873,451.57818603515625,14321.6845703125,89.82086181640625,263.3992919921875,173.78176879882812,160217.4560021449,-1021.4595487440428,-580038.6759565386,2949.216595424572,-598443.5327205465,15.680203059127905,1.0,1.0,0.0
1706.1645039452706,152.6639201114835,451.1342468261719,14305.3564453125,89.81869506835938,263.43267822265625,173.81228637695312,160222.1540275697,-1021.4983608328488,-580056.337120504,2982.173646498355,-598443.5895332715,15.77752771757929,1.0,1.0,0.0
1724.5362956073368,153.59346586242782,450.6902770996094,14289.02734375,89.817626953125,263.46600341796875,173.84275817871094,160226.8801249115,-1021.5374332299301,-580074.1061571452,3015.364247552585,-598443.6463771069,15.875076098060049,1.0,1.0,0.0
1743.0439541225787,154.52491375457512,450.2463073730469,14272.6982421875,89.817626953125,263.5005798339844,173.8756103515625,160231.6343476963,-1021.576765479905,-580091.9832887365,3048.7893617249792,-598443.7032852022,15.972849325982736,1.0,1.0,0.0
1761.6397508942755,155.4582711403187,449.8023681640625,14256.3701171875,89.817626953125,263.5306091308594,173.90185546875,160236.41674786838,-1021.6163575911431,-580109.968737615,3082.449943433632,-598443.7602273704,16.070848443872364,1.0,1.0,0.0
1780.36738642212,156.39354647066614,449.3583984375,14240.0419921875,89.8165283203125,263.55938720703125,173.92906188964844,160241.22737949862,-1021.6562097832609,-580128.0627275947,3116.3469715304673,-598443.8171692477,16.169074611001122,1.0,1.0,0.0
1799.1834034696221,157.33074788704647,448.9144287109375,14223.712890625,89.817626953125,263.5785217285156,173.94456481933594,160246.06629636488,-1021.6963221789974,-580146.2654830309,3150.481425277074,-598443.8741103102,16.26752895496287,1.0,1.0,0.0
1818.15506328817,158.26988291505296,448.4704895019531,14207.384765625,89.81442260742188,263.60369873046875,173.96829223632812,160250.93355258717,-1021.7366961899997,-580164.5772289743,3184.8542804071913,-598443.9310169993,16.366212543446295,1.0,1.0,0.0
1837.2153498897096,159.21095962299881,448.0265197753906,14191.0556640625,89.81338500976562,263.63873291015625,173.99981689453125,160255.82920309936,-1021.7773326025531,-580182.9981923327,3219.4665277724853,-598443.9878207345,16.465126504874263,1.0,1.0,0.0
1853.193751808023,159.9966792589891,447.65655517578125,14177.4482421875,89.81338500976562,263.6616516113281,174.0216064453125,160259.93064198026,-1021.8113962008408,-580198.4325886649,3248.4936549231643,-598444.035075231,16.547731598348605,1.0,1.0,0.0
1872.4538724261802,160.9413358143988,447.21258544921875,14161.1201171875,89.81549072265625,263.69598388671875,174.0525360107422,160264.87849195595,-1021.852512189401,-580217.0543735536,3283.5473651838256,-598444.0917252817,16.647070748238036,1.0,1.0,0.0
1891.8463205535663,161.88795739604132,446.7686462402344,14144.7919921875,89.811279296875,263.7248229980469,174.07797241210938,160269.8548930022,-1021.8938900840856,-580235.786021405,3318.843314345693,-598444.1483029729,16.746643519411975,1.0,1.0,0.0
1908.0686264424585,162.67831494491773,446.398681640625,14131.1845703125,89.81231689453125,263.74560546875,174.09774780273438,160274.02374374666,-1021.9285717538398,-580251.4798164634,3348.442368810065,-598444.1954210276,16.82980003808501,1.0,1.0,0.0
1927.6611530113732,163.6285586752818,445.9547119140625,14114.8564453125,89.81338500976562,263.7777099609375,174.1265411376953,160279.05263339155,-1021.9704305896141,-580270.4134771412,3384.1850371951004,-598444.2518693368,16.9298039202817,1.0,1.0,0.0
1947.3409630256938,164.58078934612018,445.5107421875,14098.52734375,89.811279296875,263.8055114746094,174.15316772460938,160284.11023186933,-1022.0125521659712,-580289.4576538759,3420.1728170512943,-598444.3081462499,17.03004454968317,1.0,1.0,0.0
1967.1773923581932,165.5350155927735,445.0668029785156,14082.1982421875,89.81231689453125,263.82940673828125,174.17483520507812,160289.19659707593,-1022.0549362267258,-580308.612579084,3456.4067489143927,-598444.3643556586,17.130523120221426,1.0,1.0,0.0
1983.775807035854,166.33173407082793,444.69683837890625,14068.591796875,89.81024169921875,263.849365234375,174.19284057617188,160293.45725002282,-1022.0904567025442,-580324.6597843422,3486.790468618972,-598444.4111152866,17.214437820199578,1.0,1.0,0.0
2003.7886337332893,167.2896396660604,444.25286865234375,14052.2626953125,89.80923461914062,263.86907958984375,174.20941162109375,160298.5965013118,-1022.1333224953174,-580344.018355201,3523.4783768596826,-598444.4670355631,17.31535557984671,1.0,1.0,0.0
2023.95722522086,168.24956352912608,443.80889892578125,14035.9345703125,89.80923461914062,263.8920593261719,174.2302703857422,160303.7646812352,-1022.1764524241439,-580363.4883377121,3560.415391227929,-598444.5228283632,17.416514512403012,1.0,0.9995357126895181,0.0
2044.2137102871202,169.2115144106611,443.3649597167969,14019.60546875,89.80819702148438,263.9187316894531,174.25486755371094,160308.9618476449,-1022.2198465337818,-580383.0699682357,3597.6025791285792,-598444.5785381305,17.517915836823875,1.0,0.9991431451494744,0.0
2061.1887213347945,170.01469363448157,442.9949951171875,14005.998046875,89.80718994140625,263.9364013671875,174.27073669433594,160313.3150021627,-1022.2562099475289,-580399.4734515023,3628.7837583330693,-598444.6252145983,17.602602836245126,1.0,0.9988141720671552,0.0
2081.6454078268725,170.98037914679497,442.551025390625,13989.669921875,89.80819702148438,263.95635986328125,174.28903198242188,160318.56545554893,-1022.3000885137466,-580419.260387123,3666.432312772842,-598444.6813628781,17.704451244088943,1.0,0.9984177246545181,0.0
2098.796449208283,171.78667929381362,442.1810607910156,13976.0625,89.80819702148438,263.9642639160156,174.29473876953125,160322.96309486713,-1022.3368561500554,-580435.8352914741,3697.9994187366683,-598444.7280736511,17.78951218391279,1.0,0.9980853401316224,0.0
2119.49703759118,172.7561173532273,441.7370910644531,13959.734375,89.80618286132812,263.96307373046875,174.29197692871094,160328.26702623346,-1022.3812197009366,-580455.8283337341,3736.112782624201,-598444.7843589741,17.8918106235879,1.0,0.9976841659381555,0.0
2140.2857635808177,173.72760516403517,441.29315185546875,13943.40625,89.80923461914062,263.93829345703125,174.26467895507812,160333.60020868495,-1022.4258481509219,-580475.934136935,3774.481058888836,-598444.8403095844,17.99435531592127,1.0,0.9972812836515346,0.0
2161.206329159788,174.70114148609952,440.84918212890625,13927.076171875,89.811279296875,263.8889465332031,174.2132110595703,160338.9627052843,-1022.4707417365835,-580496.1529390868,3813.1051683013793,-598444.8950962129,18.097146504348984,1.0,0.9968758463341125,0.0
2178.713825221057,175.51398388656588,440.4792175292969,13913.4697265625,89.81231689453125,263.8208923339844,174.14373779296875,160343.45389440894,-1022.5083554222236,-580513.0884294125,3845.487986237742,-598444.9394011818,18.182994104452803,1.0,0.9965365537747857,0.0
2199.833858693484,176.49126443944274,440.0352478027344,13897.140625,89.81549072265625,263.69842529296875,174.019287109375,160348.87031325427,-1022.5537354390586,-580533.5150071874,3884.583370311884,-598444.9899165569,18.28623699285771,1.0,0.9961272508005139,0.0
2221.0869514531223,177.47057599283897,439.59130859375,13880.8125,89.82305908203125,263.5321044921875,173.85098266601562,160354.31625417463,-1022.599381849354,-580554.0552463093,3923.9369466245407,-598445.0366430252,18.389725639086578,1.0,0.9957153691578853,0.0
2242.4721275869524,178.45190831967872,439.1473388671875,13864.484375,89.826416015625,263.302734375,173.6200714111328,160359.79180095796,-1022.6452947698756,-580574.70937572,3963.5494697979884,-598445.0786542579,18.493459365322792,1.0,0.9953009277599428,0.0
2260.3795353284804,179.2712179316439,438.7773742675781,13850.876953125,89.835693359375,263.0447692871094,173.3609619140625,160364.37743866665,-1022.6837596817024,-580592.008312084,3996.758189818356,-598445.1090634393,18.580090508791443,1.0,0.9949538849742543,0.0
2281.944404436741,180.25621297748972,438.3334045410156,13834.5478515625,89.84548950195312,262.6318054199219,172.94448852539062,160369.90750843493,-1022.730161854944,-580612.8718210863,4036.847117015859,-598445.1384361492,18.684270279139525,1.0,0.9945359611543267,0.0
2303.661864024587,181.24317853581502,437.88946533203125,13818.220703125,89.85598754882812,262.0396728515625,172.35023498535156,160375.46747447518,-1022.7768304284021,-580633.8498446429,4077.196721456945,-598445.1579065961,18.788691159535972,1.0,0.9941150801545623,0.0
2321.8329507623566,182.06713759340775,437.5195007324219,13804.6123046875,89.8687744140625,261.3678283691406,171.67681884765625,160380.12370546043,-1022.8159243469669,-580651.4191582073,4111.020861529978,-598445.165279954,18.87589124178129,1.0,0.9937629273108071,0.0
2343.7298592450097,183.05765092554063,437.0755310058594,13788.283203125,89.8863525390625,359.5769958496094,-90.0,160385.7388113631,-1022.8630819624256,-580672.607663057,4151.849560685572,-598445.1615996695,18.980748590322605,1.0,0.9933385686192827,0.0
2365.7791156069143,184.05005967590486,436.6315612792969,13771.9560546875,89.90512084960938,359.5980224609375,-90.0,160391.3842051368,-1022.9105058225981,-580693.9112556007,4192.9401383941295,-598445.140791602,19.085840636522107,1.0,0.9929112574494784,0.0
2387.9406794196693,185.04433633401953,436.1876220703125,13755.626953125,89.92868041992188,359.6216125488281,-90.0,160397.06005472568,-1022.9581952981458,-580715.330122923,4234.2929710968165,-598445.1012506812,19.19116495802575,1.0,0.9924817697786886,0.0
2406.4923925137846,185.87430512050156,435.8176574707031,13742.01953125,89.95574951171875,359.6431884765625,-90.0,160401.8133249573,-1022.9981388838278,-580733.2673666594,4268.954226319562,-598445.051865691,19.27911075220743,1.0,0.9921222404551592,0.0
2428.8739342251793,186.87192890917166,435.3736877441406,13725.69140625,89.9720458984375,359.67144775390625,-90.0,160407.54549602125,-1023.0463129928879,-580754.8980334132,4310.788699173718,-598444.9707131429,19.384854207554497,1.0,0.9916884896467988,0.0
2451.366563967429,187.87134064338727,434.92974853515625,13709.36328125,90.0,359.70184326171875,-90.0,160413.30868910425,-1023.0947495134476,-580776.6444619597,4352.886413611122,-598444.8614148651,19.490823190539402,1.0,0.9912525859696234,0.0
