obs_alt,obs_vel,obs_fuel,obs_mass,obs_pitch,obs_heading,obs_roll,obs_pos_x,obs_pos_y,obs_pos_z,obs_ap,obs_pe,obs_time_to_ap,act_throttle,act_pitch,act_stage
14.150525846751407,0.45574821454458486,16301.9482421875,320911.875,89.5675048828125,191.5441436767578,-79.55947875976562,159780.91133690428,-1017.9549985072333,-578422.8344452566,86.63044881494716,-598435.2088645379,0.04671391972465244,1.0,1.0,0.0
14.223198459716514,0.705557178544018,16294.603515625,320681.71875,89.42630004882812,190.42433166503906,-81.03973388671875,159780.93042119493,-1017.9498461178262,-578422.9045753655,86.71798764925916,-598435.2205490855,0.07231920633341815,1.0,1.0,0.0
14.326084188651294,0.9584121342244672,16287.2578125,320451.25,89.28646850585938,190.25103759765625,-81.6490478515625,159780.95771480302,-1017.9467522530574,-578423.0037807332,86.84243667172268,-598435.1602544752,0.0982367523731682,1.0,1.0,0.0
14.45943091926165,1.2127143792590922,16279.9140625,320220.65625,89.1595458984375,191.5023956298828,-80.90692138671875,159780.9939172801,-1017.946847914787,-578423.1321158621,87.004074293538,-598434.9839582333,0.1243027380296553,1.0,1.0,0.0
14.623352344264276,1.4677934012015474,16272.5693359375,319990.0,89.05996704101562,194.52967834472656,-78.46038818359375,159781.0396555006,-1017.9516872792262,-578423.2895285123,87.20303273550235,-598434.7447015964,0.1504484492230631,1.0,1.0,0.0
14.817949428106658,1.7238426572690633,16265.224609375,319759.3125,88.99575805664062,199.37173461914062,-74.26205444335938,159781.09506211343,-1017.9624789683837,-578423.4760853397,87.43950816604774,-598434.522434079,0.17669369424675097,1.0,1.0,0.0
15.043371008010581,1.9813095191970274,16257.8798828125,319528.65625,88.9571533203125,206.36007690429688,-67.957275390625,159781.15973530922,-1017.9796069702822,-578423.6920468427,87.71381279383786,-598434.4037802174,0.20308427548042118,1.0,1.0,0.0
15.299781343783252,2.2400936392734825,16250.53515625,319297.96875,88.93118286132812,215.18063354492188,-59.830078125,159781.23282757355,-1018.0027407431733,-578423.9378245099,88.0262057170039,-598434.4429784147,0.22960984847543386,1.0,1.0,0.0
15.587101054145023,2.4939058101649665,16243.189453125,319067.3125,88.91140747070312,225.4824676513672,-50.188232421875,159781.31272092904,-1018.0314517236072,-578424.213775093,88.37509481830057,-598434.8830414342,0.25562552847435427,1.0,1.0,0.0
15.904679103405215,2.7478689126362497,16235.845703125,318836.65625,88.91482543945312,236.58380126953125,-39.664520263671875,159781.3967018782,-1018.0651902175266,-578424.5199755604,88.7608838728629,-598435.5051138963,0.2816565210607678,1.0,1.0,0.0
16.252501075621694,2.997858757681088,16228.5009765625,318605.96875,88.9483642578125,248.10546875,-28.634063720703125,159781.48363214312,-1018.1028561173696,-578424.8567336836,89.18230828724336,-598436.4311810347,0.3072799333087346,1.0,1.0,0.0
16.630799105972983,3.2575104423964527,16221.15625,318375.28125,88.99984741210938,259.80419921875,-17.37396240234375,159781.57337585656,-1018.1426930083651,-578425.2243301426,89.64383772679139,-598437.050519748,0.3338939721965062,1.0,1.0,0.0
17.04080297925975,3.522485027836775,16213.810546875,318144.625,89.02099609375,271.32354736328125,-6.327392578125,159781.66861043067,-1018.1830564691443,-578425.6232977492,90.14589992619585,-598437.468737112,0.361053860696984,1.0,1.0,0.0
17.482687456649728,3.7886134193875693,16206.4658203125,317913.96875,88.9837646484375,282.7191162109375,4.5687255859375,159781.76950781027,-1018.2234169347901,-578426.053773153,90.68748476856854,-598437.9233620372,0.3883320240671537,1.0,1.0,0.0
17.956586557091214,4.055806452219753,16199.12109375,317683.28125,88.90335083007812,294.1030578613281,15.442459106445312,159781.87573998945,-1018.2633072240967,-578426.5159861055,91.2687833198579,-598438.4394288308,0.4157192886863186,1.0,1.0,0.0
18.46262224658858,4.324028552420007,16191.7763671875,317452.59375,88.80105590820312,304.5055847167969,25.331451416015625,159781.9871403136,-1018.3018283649105,-578427.0101143346,91.88999226596206,-598438.9541606767,0.4432120945634779,1.0,1.0,0.0
19.093773999949917,4.638108675233177,16183.2080078125,317183.46875,88.67898559570312,314.2969970703125,34.521270751953125,159782.12349593043,-1018.3439041181225,-578427.6271351511,92.66537572082598,-598439.6163653929,0.47540534684139857,1.0,1.0,0.0
19.669804833247326,4.907975037620563,16175.86328125,316952.8125,88.58432006835938,321.8064880371094,41.51454162597656,159782.24494546218,-1018.3768212302346,-578428.1911120436,93.37341358861886,-598440.373214996,0.5030664443552837,1.0,1.0,0.0
20.278277978068218,5.17859869590201,16168.517578125,316722.15625,88.49102783203125,329.726806640625,48.926666259765625,159782.36998643234,-1018.406053434195,-578428.7877554646,94.12175526539795,-598441.1590120753,0.5308051623686083,1.0,1.0,0.0
20.919288669596426,5.450125118970448,16161.1728515625,316491.46875,88.393798828125,337.94000244140625,56.650726318359375,159782.49897075936,-1018.4304115875382,-578429.4170748405,94.91064689960331,-598441.8369596833,0.5586366687870736,1.0,1.0,0.0
21.5929382405011,5.722382870042703,16153.828125,316260.8125,88.30694580078125,346.14324951171875,64.38935852050781,159782.63288128286,-1018.4483741028923,-578430.078902249,95.74016092170496,-598442.3390052944,0.5865435651397775,1.0,1.0,0.0
22.299293159507215,5.995174734813139,16146.4833984375,316030.125,88.2501220703125,354.280517578125,72.08595275878906,159782.77305312167,-1018.4584125681538,-578430.7729479023,96.61031134438235,-598442.6188790461,0.6145057916388623,1.0,1.0,0.0
23.038455221801996,6.268993527063315,16139.1396484375,315799.4375,88.22271728515625,2.37034273147583,79.75164794921875,159782.92089272707,-1018.4597031875271,-578431.4989260208,97.52155799081083,-598442.6905084393,0.6425739057469286,1.0,1.0,0.0
23.810576734947972,6.544276306188329,16131.794921875,315568.78125,88.20986938476562,10.457308769226074,87.41937255859375,159783.07759272167,-1018.4524337454457,-578432.2566667201,98.47443455469329,-598442.6036160741,0.6707926660909038,1.0,1.0,0.0
24.615835529286414,6.820992516436852,16124.44921875,315338.09375,88.19549560546875,18.672388076782227,95.20951843261719,159783.2441405662,-1018.4373209579605,-578433.0460759408,99.4692173487274,-598442.3792509926,0.6991589492925527,1.0,1.0,0.0
25.454387704608962,7.099051712244583,16117.1044921875,315107.40625,88.17071533203125,27.108449935913086,103.20712280273438,159783.42150284242,-1018.4152077837605,-578433.8670577361,100.50612940907013,-598442.0084610928,0.7276635584337328,1.0,1.0,0.0
26.32638600305654,7.378142795017253,16109.759765625,314876.75,88.13543701171875,35.685333251953125,111.33030700683594,159783.61077982787,-1018.3866509898323,-578434.7194511394,101.5851897362154,-598441.459476145,0.756274740232243,1.0,1.0,0.0
27.23189133219421,7.657643576095572,16102.4140625,314646.0625,88.10162353515625,44.364891052246094,119.55094909667969,159783.8132463823,-1018.3513937397618,-578435.6029880788,102.7060802570777,-598440.7035738572,0.784928857170371,1.0,1.0,0.0
28.17101320065558,7.9380544955450985,16095.0703125,314415.4375,88.07125854492188,53.191715240478516,127.92068481445312,159784.03003598514,-1018.3093686504978,-578436.5174431846,103.86932733794674,-598439.7992697653,0.8136771195768802,1.0,1.0,0.0
29.143850203836337,8.219652982119833,16087.7255859375,314184.75,88.03515625,62.15972900390625,136.4319305419922,159784.26200490523,-1018.2613037033695,-578437.4627111421,105.07537149102427,-598438.782343017,0.8425479213036056,1.0,1.0,0.0
30.150558061082847,8.502418732770915,16080.380859375,313954.0625,87.98684692382812,71.28585815429688,145.09597778320312,159784.50991041766,-1018.2083536489624,-578438.4387272275,106.3244398116367,-598437.65448876,0.8715392234224737,1.0,1.0,0.0
31.191272259806283,8.786168009637613,16073.0361328125,313723.40625,87.92510986328125,80.4337387084961,153.76950073242188,159784.77460727052,-1018.15200288135,-578439.4453862582,107.61659728840459,-598436.387218517,0.9006323239968879,1.0,1.0,0.0
32.266042015864514,9.070094029419767,16065.69140625,313492.71875,87.86236572265625,89.22347259521484,162.0663299560547,159785.05742686492,-1018.0941187022943,-578440.4823804926,108.95124359626789,-598434.8704187621,0.9297449170804839,1.0,1.0,0.0
33.37491091887932,9.354556348056654,16058.345703125,313262.03125,87.81805419921875,97.46884155273438,169.79727172851562,159785.3594331849,-1018.0365444245506,-578441.549461146,110.32878336240537,-598433.2515760752,0.9589134741576686,1.0,1.0,0.0
34.518048717756756,9.640877311528818,16051.0009765625,313031.375,87.78750610351562,105.3025894165039,177.0966796875,159785.68043603166,-1017.9806711497474,-578442.6468395351,111.75072354241274,-598431.7667228235,0.9882728161854857,1.0,1.0,0.0
35.69565360236447,9.928986044691886,16043.6572265625,312800.6875,87.75546264648438,112.81683349609375,-175.93807983398438,159786.01953366963,-1017.9276000587959,-578443.7749895529,113.21737376705278,-598430.4398111037,1.0178155755111788,1.0,1.0,0.0
36.90793120698072,10.21841120330779,16036.3125,312570.03125,87.7197265625,120.05519104003906,-169.25799560546875,159786.37596667308,-1017.8783833487648,-578444.9343091955,114.72858242748771,-598429.2118905409,1.0474936106194264,1.0,1.0,0.0
38.15495521842968,10.508102940512792,16028.966796875,312339.34375,87.69284057617188,127.12799072265625,-162.74974060058594,159786.74979031552,-1017.8342575981039,-578446.1248685615,116.28342340816744,-598427.9035565336,1.0771999286366736,1.0,1.0,0.0
39.436757473275065,10.798210989938191,16021.6220703125,312108.6875,87.69268798828125,134.30792236328125,-156.13958740234375,159787.14133020374,-1017.7964340253491,-578447.3466176939,117.88212748733349,-598426.5678580285,1.1069497207362815,1.0,1.0,0.0
40.753495703218505,11.089857434856667,16014.27734375,311878.0,87.71322631835938,141.784423828125,-149.23675537109375,159787.5500988331,-1017.7657160713095,-578448.5998252758,119.52613287139684,-598425.3903398042,1.1368573376288396,1.0,1.0,0.0
42.10533424280584,11.383144187653675,16006.9326171875,311647.34375,87.73876953125,149.61322021484375,-141.9828338623047,159787.97493445844,-1017.742627958836,-578449.8850096093,121.21588728786446,-598424.4203504925,1.1669330057747516,1.0,1.0,0.0
43.49247297423426,11.67793495995688,15999.587890625,311416.65625,87.76104736328125,157.8743438720703,-134.29629516601562,159788.4145012876,-1017.727613817038,-578451.2027334147,122.95156201254576,-598423.6695260613,1.197162662298922,1.0,1.0,0.0
44.91508685203735,11.974123473847834,15992.244140625,311186.0,87.77227783203125,166.53277587890625,-126.21278381347656,159788.86735508125,-1017.7210722966809,-578452.5535742133,124.73333688010462,-598423.1561116889,1.2275352883884239,1.0,1.0,0.0
46.373329493100755,12.271456453134592,15984.8984375,310955.34375,87.77059936523438,175.33639526367188,-117.98739624023438,159789.33190850302,-1017.7234918578285,-578453.9381264393,126.56116907275282,-598422.9041428352,1.2580247623551486,1.0,1.0,0.0
47.86726202641148,12.56897516316181,15977.5537109375,310724.65625,87.76995849609375,183.86569213867188,-110.04931640625,159789.80628564538,-1017.7359960778374,-578455.3569823811,128.43399661511648,-598422.9704016414,1.2885324863853498,1.0,1.0,0.0
49.396949231857434,12.867323096289656,15970.208984375,310493.96875,87.78475952148438,192.04522705078125,-102.47593688964844,159790.28880369387,-1017.7593645705599,-578456.8106682217,130.3527517792536,-598423.2594762055,1.3191247679055778,1.0,1.0,0.0
50.96258242218755,13.167483223484426,15962.86328125,310263.3125,87.80938720703125,200.1555938720703,-94.97392272949219,159790.778420463,-1017.7930400474686,-578458.2996536073,132.31901129649486,-598423.6766715933,1.3499027561558137,1.0,1.0,0.0
52.56435479281936,13.469433726288518,15955.5185546875,310032.625,87.832275390625,208.40951538085938,-87.31622314453125,159791.27440747127,-1017.8357349439282,-578459.8243606067,134.33312553330325,-598424.2103928631,1.3808642456521056,1.0,1.0,0.0
54.20246308972128,13.77288443606382,15948.1748046875,309801.96875,87.84524536132812,216.79510498046875,-79.509033203125,159791.77599074272,-1017.8862002967614,-578461.385210755,136.39504642086104,-598424.8807491355,1.4119793741918443,1.0,1.0,0.0
55.8770542666316,14.076976229534015,15940.830078125,309571.28125,87.85552978515625,225.25685119628906,-71.6173095703125,159792.28201700398,-1017.944055947544,-578462.9826477659,138.5037904479541,-598425.7694872766,1.4431596419871653,1.0,1.0,0.0
57.58818229462486,14.381939431491368,15933.4853515625,309340.59375,87.87191772460938,233.90185546875,-63.5438232421875,159792.79130335987,-1018.0091511309836,-578464.6170910154,140.65985063940752,-598426.8208437683,1.474428883850294,1.0,1.0,0.0
59.33602180122398,14.688328216959384,15926.140625,309109.9375,87.88751220703125,242.84303283691406,-55.1741943359375,159793.30312874177,-1018.080589021625,-578466.2888964482,142.86429098411463,-598427.9576004737,1.5058442685640898,1.0,1.0,0.0
61.12073319777846,14.996182154507592,15918.794921875,308879.25,87.89178466796875,252.07827758789062,-46.5048828125,159793.8170815544,-1018.1569252862353,-578467.9983581468,145.11748201644514,-598429.1552049776,1.5374099684397606,1.0,1.0,0.0
62.94248159811832,15.30540341304981,15911.4501953125,308648.59375,87.87890625,261.4588317871094,-37.680511474609375,159794.33283008487,-1018.2364695175308,-578469.7457432235,147.41957527026534,-598430.408383361,1.5691159785384343,1.0,1.0,0.0
65.11487120215315,15.667262297183548,15902.8818359375,308379.46875,87.84906005859375,272.0948486328125,-27.6776123046875,159794.9360790028,-1018.3307072921414,-578471.8326877289,150.1665017628111,-598432.0295443033,1.6062188586641923,1.0,1.0,0.0
67.01726128009614,15.977927906868244,15895.537109375,308148.8125,87.83364868164062,280.531005859375,-19.769012451171875,159795.4534365556,-1018.4102208717484,-578473.6632793786,152.57286613923497,-598433.5514264473,1.6380723969487008,1.0,1.0,0.0
69.2839974812232,16.34228811210019,15886.9677734375,307879.6875,87.8382568359375,289.6951904296875,-11.20477294921875,159796.0575814832,-1018.4994399948735,-578475.8478563036,155.44328139640857,-598435.1762300193,1.6754327447228547,1.0,1.0,0.0
71.26764411048498,16.65656170974213,15879.623046875,307649.0,87.847412109375,297.2328186035156,-4.1724853515625,159796.57719339203,-1018.571927438559,-578477.7621375734,157.95858393178787,-598436.3693977277,1.7076589654853933,1.0,1.0,0.0
73.28914103610441,16.97234609583527,15872.27734375,307418.3125,87.85369873046875,304.5777282714844,2.6695556640625,159797.09969071086,-1018.6400051220078,-578479.7148671062,160.52447768789716,-598437.4065252484,1.7400414929193175,1.0,1.0,0.0
75.34860602766275,17.289185787530947,15864.93359375,307187.6875,87.86117553710938,311.75701904296875,9.343994140625,159797.6258457892,-1018.7028583391327,-578481.7060005461,163.14045296655968,-598438.3738912599,1.772533185768964,1.0,1.0,0.0
77.44615407276433,17.606703604348212,15857.5888671875,306957.0,87.88455200195312,318.8873291015625,15.964508056640625,159798.15573797058,-1018.7593819006104,-578483.7356045558,165.80602168408222,-598439.3419400005,1.8050949879988138,1.0,1.0,0.0
79.58185876323842,17.925276641825963,15850.244140625,306726.3125,87.93075561523438,326.2592468261719,22.82000732421875,159798.6896137668,-1018.808713982882,-578485.8037151331,168.52204244828317,-598440.2346812024,1.8377660454499392,1.0,1.0,0.0
81.75590645323973,18.245410174311864,15842.8994140625,306495.65625,87.98947143554688,334.1168212890625,30.153533935546875,159799.22845290188,-1018.8505274756569,-578487.9102382178,171.28974315186497,-598440.9463500695,1.8705988674225864,1.0,1.0,0.0
83.96847946371417,18.567125191960983,15835.5546875,306265.0,88.04937744140625,342.61505126953125,38.11967468261719,159799.7736445571,-1018.8847087724823,-578490.0549951512,174.10951153782662,-598441.4359078562,1.903595946040241,1.0,1.0,0.0
86.21977348800283,18.890274843819643,15828.208984375,306034.3125,88.10317993164062,351.7798767089844,46.74603271484375,159800.32676942088,-1018.9111853345055,-578492.2377332345,176.9814065406099,-598441.6712237264,1.9367425255020407,1.0,1.0,0.0
88.50992517441045,19.214406534506132,15820.8642578125,305803.625,88.1495361328125,1.315843939781189,55.74333190917969,159800.88969491233,-1018.9296587808747,-578494.4580929402,179.90483242005575,-598441.5960097136,1.9699926736697648,1.0,1.0,0.0
90.83899443445262,19.539208535739363,15813.5205078125,305572.96875,88.201904296875,10.741715431213379,64.64126586914062,159801.4645995218,-1018.9393982990402,-578496.7155507817,182.87934159091674,-598441.212337008,2.0033145355606052,1.0,1.0,0.0
93.20713384775445,19.865351317725896,15806.17578125,305342.28125,88.26177978515625,20.116426467895508,73.49462890625,159802.05294121106,-1018.9406334860939,-578499.0098318293,185.9064867158886,-598440.6614462791,2.0367760231398506,1.0,1.0,0.0
95.61453813780099,20.193201198190124,15798.830078125,305111.59375,88.31973266601562,29.73727798461914,82.58465576171875,159802.65546904842,-1018.9345577462334,-578501.3409403933,188.98735352000222,-598440.0257420855,2.070414208379759,1.0,1.0,0.0
98.47305430786218,20.577701768986994,15790.26171875,304842.5,88.3681640625,41.45159912109375,93.65011596679688,159803.37705241496,-1018.9202216966767,-578504.1071793,192.64977745094802,-598439.1915839975,2.109866820615764,1.0,1.0,0.0
101.38553677138407,20.96396675662799,15781.693359375,304573.375,88.38589477539062,53.40528869628906,104.91780090332031,159804.11965525863,-1018.9000797970909,-578506.9236238714,196.38516871340107,-598438.2024419311,2.1495030390988177,1.0,1.0,0.0
104.35222362645436,21.35146119289181,15773.1240234375,304304.25,88.38433837890625,65.2101821899414,116.0137939453125,159804.88491434164,-1018.8751407368798,-578509.7900267043,200.19277579057962,-598436.9694990676,2.18926875165198,1.0,1.0,0.0
106.93833712779451,21.68468091224153,15765.779296875,304073.59375,88.38009643554688,75.27899169921875,125.46870422363281,159805.560197823,-1018.8505041106362,-578512.2864807249,203.51438829151448,-598435.7711260199,2.223466996930995,1.0,1.0,0.0
110.00608133571222,22.07470881526874,15757.208984375,303804.46875,88.37127685546875,88.56876373291016,137.92800903320312,159806.48955575007,-1018.815296541037,-578515.6717492417,207.45754446845967,-598434.2634251576,2.2634978559508454,1.0,1.0,0.0
113.12852136872243,22.465507908042802,15748.6416015625,303496.90625,88.376953125,99.7337875366211,148.34344482421875,159807.33088377223,-1018.7856250508446,-578518.6868533157,211.47278715204448,-598432.640346727,2.303610558729474,1.0,1.0,0.0
116.30578311532736,22.85807833594841,15740.072265625,303266.25,88.4010009765625,109.0179214477539,156.960693359375,159808.07282743516,-1018.7631632192749,-578521.3107829252,215.56270548782777,-598431.1343113293,2.3439059373034183,1.0,1.0,0.0
119.53820842248388,23.253391156122905,15731.5029296875,302958.65625,88.44204711914062,121.30167388916016,168.3150634765625,159809.09004345877,-1018.7392401798386,-578524.8670842003,219.7301553876605,-598429.8922916858,2.384482405177266,1.0,1.0,0.0
122.82616661407519,23.651218580390946,15722.9345703125,302728.0,88.465576171875,130.42147827148438,176.709228515625,159809.87233885875,-1018.7266752226967,-578527.5783606968,223.97529158834368,-598428.9163651773,2.4253165249363065,1.0,1.0,0.0
125.68888061586767,23.993887012680055,15715.58984375,302497.3125,88.47698974609375,139.2849884033203,-175.17208862304688,159810.6700242626,-1018.7193577392716,-578530.3279597983,227.6754874815233,-598428.2518825012,2.460488915049609,1.0,1.0,0.0
128.5928123551421,24.33767012125984,15708.244140625,302266.625,88.47943115234375,147.7870330810547,-167.4292755126953,159811.4823653749,-1018.7179629905838,-578533.1162538468,231.4317252630135,-598427.680395533,2.49577621807083,1.0,1.0,0.0
131.53804919391405,24.68225917538972,15700.8994140625,302036.0,88.48663330078125,155.988037109375,-159.99740600585938,159812.30897494344,-1018.7233877881188,-578535.9434522871,235.243462644401,-598427.154913119,2.531147157628766,1.0,1.0,0.0
134.52470304316375,25.02777038832054,15693.5546875,301805.3125,88.51141357421875,164.20889282226562,-152.55413818359375,159813.14951861737,-1018.7364429934639,-578538.8097539897,239.11117387656122,-598426.7169597641,2.5666133037643135,1.0,1.0,0.0
137.55291504389606,25.3745855406229,15686.2109375,301574.625,88.5562744140625,172.65963745117188,-144.89134216308594,159814.00308435413,-1018.7575745685715,-578541.715550322,243.0360756732989,-598426.4674867206,2.602212932394252,1.0,1.0,0.0
140.6228294025641,25.722683250569805,15678.8662109375,301343.9375,88.62142944335938,181.3243865966797,-137.02984619140625,159814.86819088485,-1018.7870125873703,-578544.6614124533,247.01840365258977,-598426.484071134,2.6379431266619235,1.0,1.0,0.0
143.73461251566187,26.07226753164589,15671.521484375,301113.28125,88.7109375,190.26443481445312,-128.91024780273438,159815.74322362687,-1018.8246920807976,-578547.6479602072,251.05900742078666,-598426.7186493832,2.673825171445685,1.0,1.0,0.0
146.88848203618545,26.423687066433068,15664.17578125,300882.59375,88.81732177734375,199.96530151367188,-120.0384292602539,159816.62721339488,-1018.8697473509926,-578550.6756843979,255.15921006537974,-598427.0675948169,2.709895716544395,1.0,1.0,0.0
150.08466638077516,26.77698840217962,15656.8310546875,300651.9375,88.924072265625,211.00360107421875,-109.82516479492188,159817.5197686925,-1018.9207242234368,-578553.7449108505,259.3195687610423,-598427.4714340849,2.746160068309223,1.0,1.0,0.0
153.32334868935868,27.131992839322404,15649.486328125,300421.25,89.01165771484375,223.5413055419922,-98.09649658203125,159818.42066942278,-1018.9759479864258,-578556.8559421322,263.54001143970527,-598427.913759382,2.7826000582896313,1.0,1.0,0.0
156.60475524212234,27.48845879531295,15642.140625,300190.59375,89.0616455078125,236.91990661621094,-85.50518798828125,159819.32968491424,-1019.0337138279099,-578560.0090279084,267.82022444088943,-598428.4088792074,2.8191907860689867,1.0,1.0,0.0
160.48723887628876,27.905861157437386,15633.5732421875,299921.5,89.071044921875,251.37506103515625,-71.9417724609375,159820.39993741995,-1019.1021914585251,-578563.7411521416,272.8888512098929,-598429.0839475709,2.8620371941237863,1.0,1.0,0.0
163.86165193503257,28.264784039443853,15626.228515625,299690.8125,89.059326171875,261.26214599609375,-62.803192138671875,159821.32503771412,-1019.160457025351,-578566.98632003,277.2975575127639,-598429.7598991146,2.898881100857693,1.0,1.0,0.0
167.8530567495618,28.685120266129005,15617.658203125,299421.65625,89.05477905273438,270.00146484375,-54.93182373046875,159822.41276144958,-1019.2272216184754,-578570.8266272652,282.5170217434643,-598430.6128859768,2.9420301168246965,1.0,1.0,0.0
171.9035098651657,29.107399451502076,15609.0908203125,299152.5625,89.07760620117188,276.94317626953125,-48.864044189453125,159823.50950597908,-1019.2925953968186,-578574.7256590424,287.8194547800813,-598431.4430274875,2.985380515502527,1.0,1.0,0.0
175.42245413386263,29.47100637154618,15601.74609375,298921.875,89.12060546875,282.2493591308594,-44.31378173828125,159824.45721571613,-1019.347500453772,-578578.1145129399,292.4311678567901,-598432.0699355289,3.022709961166129,1.0,1.0,0.0
178.98517680284567,29.83615686274695,15594.400390625,298691.25,89.17718505859375,287.3955078125,-39.9276123046875,159825.4127248061,-1019.4012576444763,-578581.5465956866,297.1049585134024,-598432.5788817663,3.0602003952620294,1.0,1.0,0.0
182.5917901507346,30.20278528393312,15587.0556640625,298460.53125,89.24075317382812,292.4614562988281,-35.621917724609375,159826.37689870317,-1019.4536875589508,-578585.0218608201,301.8409854967613,-598432.9591123709,3.0978452684905733,1.0,1.0,0.0
186.24253972573206,30.570828064068685,15579.7109375,298229.875,89.302001953125,297.35052490234375,-31.49176025390625,159827.3506155598,-1019.5046475036759,-578588.5402428358,306.63938949094154,-598433.2112922479,3.135638130661846,1.0,1.0,0.0
189.93752487399615,30.94022870616093,15572.365234375,297999.1875,89.35836791992188,301.6881103515625,-27.912139892578125,159828.33462656476,-1019.5540373428482,-578592.1017016075,311.5003098482266,-598433.3682137883,3.1735729170848685,1.0,1.0,0.0
193.67691877461039,31.310975397951243,15565.0205078125,297768.53125,89.40817260742188,304.9889221191406,-25.370849609375,159829.32945860332,-1019.6018674476761,-578595.7062583502,316.42402462486643,-598433.4620509767,3.2116481379932225,1.0,1.0,0.0
197.460933315102,31.683062986822797,15557.6767578125,297537.875,89.451416015625,307.04638671875,-24.0797119140625,159830.3354079091,-1019.6482843263764,-578599.3539913873,321.41082245018333,-598433.529101671,3.2498629262415193,1.0,1.0,0.0
201.28970725368708,32.05650271423031,15550.33203125,297307.1875,89.487548828125,307.7350158691406,-24.16827392578125,159831.3526098909,-1019.693511138739,-578603.045055202,326.4610608909279,-598433.5925113566,3.288218222529565,1.0,1.0,0.0
205.16336954024155,32.431288253865844,15542.9873046875,297076.53125,89.51785278320312,307.2612609863281,-25.43463134765625,159832.38107722948,-1019.7377905948777,-578606.7795958004,331.57503300812095,-598433.6663212775,3.326713254335914,1.0,1.0,0.0
209.08211848675273,32.807443866317826,15535.642578125,296845.84375,89.5428466796875,305.7925720214844,-27.714752197265625,159833.42071680012,-1019.7813892467636,-578610.5578078462,336.75313563481905,-598433.7601366722,3.365350431137017,1.0,1.0,0.0
213.04602965863887,33.184980491506145,15528.296875,296615.1875,89.56298828125,303.6446533203125,-30.69464111328125,159834.47146933642,-1019.8245183332581,-578614.3798627302,341.9957304322161,-598433.8705930476,3.4041309375249966,1.0,1.0,0.0
217.05543571116868,33.56391643342493,15520.9521484375,296384.5,89.5784912109375,301.1017150878906,-34.09027099609375,159835.53325017335,-1019.8673652513642,-578618.245997437,347.30321283848025,-598434.0036756463,3.4430566086068097,1.0,1.0,0.0
221.1103916221764,33.944261650390594,15513.6083984375,296153.8125,89.58978271484375,298.550537109375,-37.51385498046875,159836.60596618877,-1019.9100736482758,-578622.156379122,352.6759559654165,-598434.1531140377,3.4821285630837338,1.0,1.0,0.0
225.21109925652854,34.32601527318417,15506.263671875,295923.15625,89.59942626953125,296.1464538574219,-40.807830810546875,159837.68958350402,-1019.9527667863983,-578626.111223615,358.1142840933753,-598434.3136389086,3.521346799922128,1.0,1.0,0.0
229.3577421862865,34.70918611222065,15498.91796875,295692.46875,89.60882568359375,294.09808349609375,-43.762786865234375,159838.78407671148,-1019.9955537422318,-578630.1106790344,363.61857568332925,-598434.4775500594,3.560712344195508,1.0,1.0,0.0
233.55039049033076,35.09377187128895,15491.5732421875,295461.8125,89.61590576171875,292.4253845214844,-46.354248046875,159839.88952197097,-1020.0384726627487,-578634.1549062051,369.1891521512298,-598434.6407258814,3.6002250410497822,1.0,1.0,0.0
237.78934625862166,35.47976665148776,15484.228515625,295231.125,89.62255859375,290.97601318359375,-48.734466552734375,159841.0059446555,-1020.0815558536667,-578638.2440871068,374.8263278332306,-598434.8011192161,3.639884345168582,1.0,1.0,0.0
242.07468043197878,35.86716290183616,15476.8837890625,295000.46875,89.62884521484375,289.9331970214844,-50.71807861328125,159842.13340822977,-1020.124852429213,-578642.3783740991,380.53042144398205,-598434.9590757445,3.679689512270272,1.0,1.0,0.0
246.40659272612538,36.25597036823144,15469.5390625,294769.78125,89.6341552734375,289.20404052734375,-52.3974609375,159843.27201001398,-1020.168372879805,-578646.5579237774,386.3018193648895,-598435.106973661,3.719641673035312,1.0,1.0,0.0
250.78533784428146,36.646187717681805,15462.1953125,294539.125,89.63845825195312,288.6839294433594,-53.875823974609375,159844.42180500735,-1020.2121100528855,-578650.782901196,392.14084308047313,-598435.2568857534,3.759740578194055,1.0,1.0,0.0
255.21096103265882,37.03781120888739,15454.849609375,294308.4375,89.642822265625,288.2666015625,-55.26092529296875,159845.58281012336,-1020.2560622795243,-578655.053446014,398.04781530832406,-598435.4063976149,3.7999859091461303,1.0,1.0,0.0
259.68372014386114,37.43084051306369,15447.5048828125,294077.75,89.647216796875,288.05078125,-56.452484130859375,159846.75509305642,-1020.300258646788,-578659.369731751,404.0230754611548,-598435.5551002568,3.8403776726824503,1.0,1.0,0.0
264.203702088329,37.82528551284,15440.16015625,293847.09375,89.64947509765625,288.1432800292969,-57.343719482421875,159847.9387215008,-1020.3447089298386,-578663.7319319277,410.06701528676786,-598435.7014324375,3.880916939691474,1.0,1.0,0.0
268.7711619780166,38.22115153273939,15432.814453125,293616.4375,89.65170288085938,288.23260498046875,-58.246551513671875,159849.1337250654,-1020.3893761737961,-578668.140194668,416.1799847725779,-598435.8479050889,3.9216042613984996,1.0,1.0,0.0
273.38617544877343,38.61842958196323,15425.4697265625,293385.75,89.65283203125,288.41754150390625,-59.061767578125,159850.34014605396,-1020.4342582328934,-578672.594676561,422.36229862307664,-598435.9908602649,3.962438800233315,1.0,1.0,0.0
278.04902878857683,39.01713147121844,15418.125,293155.0625,89.65621948242188,288.57586669921875,-59.912689208984375,159851.5580436956,-1020.4793472393173,-578677.0955638222,428.61435045150574,-598436.1367080472,4.003421720799565,1.0,1.0,0.0
282.759779877495,39.4172509510804,15410.78125,292924.40625,89.65679931640625,288.7012939453125,-60.80548095703125,159852.78742643847,-1020.5246248348374,-578681.6430088056,434.9364618640393,-598436.2885779701,4.04455237614593,1.0,1.0,0.0
287.51860693329945,39.818801186377875,15403.4365234375,292693.71875,89.6573486328125,288.8876953125,-61.646636962890625,159854.02833235095,-1020.5700824363846,-578686.2372019561,441.32903347350657,-598436.4369283374,4.085832282616536,1.0,1.0,0.0
292.3257391344523,40.22177976793902,15396.091796875,292463.0625,89.65850830078125,289.02032470703125,-62.552093505859375,159855.2807995072,-1020.6157322033066,-578690.8782787028,447.79240204009693,-598436.5843579989,4.127261197599012,1.0,1.0,0.0
297.181412649923,40.626194034720825,15388.74609375,292232.375,89.66021728515625,289.1506042480469,-63.468475341796875,159856.54489560146,-1020.6615846260208,-578695.5664125656,454.326952708303,-598436.7356461902,4.168839845849163,1.0,1.0,0.0
302.08563900517765,41.03205187655557,15381.4013671875,292001.71875,89.66079711914062,289.1287841796875,-64.547607421875,159857.8206375417,-1020.7076056106705,-578700.3017982198,460.9330771971727,-598436.8864430147,4.210569136431957,1.0,1.0,0.0
307.0386624117382,41.43934051525739,15374.056640625,291771.03125,89.66079711914062,289.1070251464844,-65.63677978515625,159859.10806763184,-1020.7537996872086,-578705.0845922544,467.6110799331218,-598437.0364256724,4.252447802057645,1.0,1.0,0.0
312.0407681458164,41.84806797744423,15366.7109375,291540.375,89.66021728515625,288.9859313964844,-66.83721923828125,159860.40718585456,-1020.8001830680985,-578709.9149597186,474.3613397673471,-598437.1936070898,4.294476591857176,1.0,1.0,0.0
317.09193572285585,42.25824884098839,15359.3671875,291309.6875,89.66195678710938,288.8897705078125,-68.02337646484375,159861.71802604856,-1020.8467605217118,-578714.7930698971,481.1842757826671,-598437.3531343365,4.33665710936549,1.0,1.0,0.0
322.1924582266947,42.669894911539124,15352.0224609375,291079.03125,89.66311645507812,288.7356872558594,-69.2799072265625,159863.04063897743,-1020.8935177429337,-578719.7191217004,488.0803084510844,-598437.5110270877,4.378990664684636,1.0,1.0,0.0
327.3425378417596,43.082998531748544,15344.677734375,290848.34375,89.66311645507812,288.3123779296875,-70.81512451171875,159864.37508387576,-1020.9404590232987,-578724.6932463273,495.0497696461389,-598437.6646567327,4.421476552219417,1.0,1.0,0.0
332.542115150718,43.4975514477502,15337.3330078125,290617.65625,89.66427612304688,287.93359375,-72.31784057617188,159865.72138611687,-1020.9876151188034,-578729.7156257579,502.09296724863816,-598437.8246559455,4.464113809181754,1.0,1.0,0.0
337.7917470211396,43.913562539769764,15329.98828125,290387.0,89.6636962890625,287.510986328125,-73.87680053710938,159867.07954991332,-1021.0349958046097,-578734.7864462016,509.2103126490256,-598437.9903739921,4.506903396385326,1.0,1.0,0.0
343.0912382788956,44.33104747027001,15322.642578125,290156.3125,89.66427612304688,287.0951843261719,-75.44033813476562,159868.44960063836,-1021.0826189621109,-578739.9058896384,516.4022475231905,-598438.156977509,4.549847034952393,1.0,1.0,0.0
348.44098470325116,44.750012842355055,15315.298828125,289925.65625,89.66427612304688,286.7110290527344,-76.98513793945312,159869.83158059587,-1021.1304786308426,-578745.0741126573,523.6691699349321,-598438.3225097934,4.592945475486545,1.0,1.0,0.0
353.8412253591232,45.170451383178474,15307.9541015625,289695.0,89.66427612304688,286.306884765625,-78.56057739257812,159871.22551515914,-1021.1786072357315,-578750.2912972386,531.011408990249,-598438.4957829289,4.636197878089604,1.0,1.0,0.0
359.291943016462,45.592380676615136,15300.609375,289464.3125,89.66427612304688,286.01416015625,-80.03646850585938,159872.63140854068,-1021.2269978626389,-578755.5576295916,538.4294375575846,-598438.6710229518,4.679606179395705,1.0,1.0,0.0
364.7933580428362,46.01578864393766,15293.263671875,289233.65625,89.666015625,285.562744140625,-81.68310546875,159874.04931573974,-1021.2756416900772,-578760.873274771,545.923556543421,-598438.8437366897,4.723169252015282,1.0,1.0,0.0
370.3457575434586,46.440681836815834,15285.9189453125,289002.96875,89.6666259765625,285.23431396484375,-83.21807861328125,159875.47927482464,-1021.3245902164597,-578766.2384232221,553.494175931788,-598439.0176900076,4.76688775500952,1.0,1.0,0.0
375.9492434501881,46.8670832878377,15278.57421875,288772.3125,89.66546630859375,284.9019775390625,-84.76873779296875,159876.92134926,-1021.3738174541611,-578771.6532273045,561.1417843394447,-598439.1892135044,4.8107641568430495,1.0,1.0,0.0
381.60393853578717,47.29496296520405,15271.2294921875,288541.59375,89.66546630859375,284.6269836425781,-86.27236938476562,159878.37559827467,-1021.4233460529465,-578777.1178732335,568.8666138481349,-598439.3650631693,4.854795309577526,1.0,1.0,0.0
387.31018101552036,47.72425109601576,15263.8857421875,288310.9375,89.66546630859375,284.282470703125,-87.86343383789062,159879.84198799575,-1021.4731505020279,-578782.6325218226,576.6686916667968,-598439.5435146458,4.8989741197900685,1.0,1.0,0.0
393.0679467349546,48.15505829880688,15256.541015625,288080.28125,89.66427612304688,284.0483703613281,-89.36032104492188,159881.3205861176,-1021.5232339008469,-578788.197346592,584.5489445630228,-598439.7162655909,4.943312130083996,1.0,1.0,0.0
398.8775603765389,48.58738924622654,15249.1953125,287849.59375,89.66195678710938,283.2781982421875,-91.4117202758789,159882.81145186917,-1021.5735702617783,-578793.812533757,592.5077629201114,-598439.898354728,4.98780961815396,1.0,1.0,0.0
404.7391371820122,49.02121756531775,15241.8505859375,287618.9375,89.66021728515625,282.705810546875,-93.28225708007812,159884.31456830245,-1021.6241822345871,-578799.4782737568,600.5454083532095,-598440.0865587858,5.032463973560425,1.0,1.0,0.0
410.6528950863285,49.45656116557097,15234.505859375,287388.21875,89.6573486328125,282.26226806640625,-95.04121398925781,159885.82989307924,-1021.6750786407608,-578805.1947401005,608.6623472272186,-598440.286562959,5.077276983625666,1.0,1.0,0.0
416.61904058628716,49.89343164782458,15227.16015625,287157.59375,89.65621948242188,281.61248779296875,-97.02172088623047,159887.35745156682,-1021.7262451751847,-578810.962169784,616.8590447356692,-598440.491830573,5.122249994632739,1.0,1.0,0.0
422.63776588765904,50.33184087378964,15219.8154296875,286926.90625,89.6556396484375,281.0138244628906,-98.96879577636719,159888.89725221353,-1021.7777154548783,-578816.7807151611,625.1359607181512,-598440.6967203014,5.167384369164495,1.0,1.0,0.0
428.7091074435739,50.77179650138393,15212.4716796875,286696.25,89.65509033203125,280.38018798828125,-100.96520233154297,159890.44941350017,-1021.8295066459793,-578822.6505285973,633.4935162619222,-598440.891857174,5.212681104282979,1.0,1.0,0.0
434.83340329513885,51.213296982548314,15205.126953125,286465.5625,89.65396118164062,279.69476318359375,-103.02734375,159892.01395233456,-1021.8815746410507,-578828.5718047674,641.9321035539033,-598441.093566074,5.258139810211958,1.0,1.0,0.0
441.01079061231576,51.656312571198924,15197.7822265625,286234.90625,89.65283203125,279.0555114746094,-105.05729675292969,159893.59086023414,-1021.9339947803635,-578834.5447214157,650.4519445589976,-598441.3048989938,5.303757422791023,1.0,1.0,0.0
447.24137040262576,52.10090065493817,15190.4375,286004.21875,89.65225219726562,278.395751953125,-107.1212387084961,159895.1801625664,-1021.9867386921067,-578840.5695155384,659.0537732195808,-598441.513889862,5.349540098535442,1.0,1.0,0.0
453.5254595238948,52.54702035255902,15183.091796875,285773.53125,89.65170288085938,277.8708801269531,-109.06181335449219,159896.78196935248,-1022.0398318870682,-578846.6462971795,667.7377669066191,-598441.7202125109,5.395483693584367,1.0,1.0,0.0
459.86328236351255,52.99468524124866,15175.7470703125,285542.875,89.65225219726562,277.8204650878906,-110.54173278808594,159898.3962382484,-1022.0933201416153,-578852.7752948642,676.5043878041906,-598441.9296096964,5.441589553290328,1.0,1.0,0.0
466.2548577626003,53.44391993076508,15168.4033203125,285312.21875,89.64947509765625,277.1390380859375,-112.6651611328125,159900.0230454138,-1022.1471188171524,-578858.9566694174,685.3541904471349,-598442.1424241124,5.4878602497187785,1.0,1.0,0.0
472.70043829246424,53.89469302190996,15161.05859375,285081.53125,89.64889526367188,276.8335876464844,-114.42627716064453,159901.6624500777,-1022.2012226684708,-578865.1906070544,694.2873873224016,-598442.3597932012,5.534292584721584,1.0,1.0,0.0
479.2001862186007,54.347018212801196,15153.712890625,284850.84375,89.64834594726562,276.3349609375,-116.39293670654297,159903.31438450565,-1022.2556393249649,-578871.4773193694,703.3044802399818,-598442.5821254813,5.580888011824243,1.0,1.0,0.0
485.7544427624671,54.800917680838154,15146.3681640625,284620.1875,89.64834594726562,275.9878234863281,-118.2217025756836,159904.9789248573,-1022.310390244307,-578877.8169671876,712.4059747710126,-598442.8041253482,5.627648957666793,1.0,1.0,0.0
493.4700188826537,55.33245422873436,15137.798828125,284351.0625,89.647216796875,275.465087890625,-120.48807525634766,159906.93693226943,-1022.3746574028153,-578885.2803840889,723.1316470453748,-598443.0542174341,5.682412564968445,1.0,1.0,0.0
500.1427165425848,55.7897553493739,15130.4541015625,284120.40625,89.64776611328125,275.0078125,-122.45528411865234,159908.62906188067,-1022.4300878151078,-578891.7353744365,732.4174388430547,-598443.2677942273,5.729531517442354,1.0,1.0,0.0
507.99702440353576,56.32527151722252,15121.8857421875,283812.8125,89.64447021484375,274.3221435546875,-125.17460632324219,159910.905088337,-1022.5044329269547,-578900.4252404104,743.3592827481916,-598443.5228376626,5.784713803562113,1.0,1.0,0.0
515.9265639622463,56.86292975820224,15113.31640625,283582.15625,89.64227294921875,273.6351318359375,-127.4019775390625,159912.62708301237,-1022.5605518921036,-578907.0054172187,754.4184829837177,-598443.7779804732,5.840121623225343,1.0,1.0,0.0
523.9313868451864,57.402736076447795,15104.7470703125,283313.03125,89.63900756835938,273.2690734863281,-129.58277893066406,159914.652341841,-1022.6264641388077,-578914.7504486458,765.5957293915562,-598444.0349322356,5.895755649373939,1.0,1.0,0.0
532.0120250895852,57.94467618513119,15096.1796875,283043.90625,89.6341552734375,272.61602783203125,-132.07070922851562,159916.69513050726,-1022.6927993400711,-578922.56919534,776.8915727251442,-598444.310765584,5.951614162720205,1.0,1.0,0.0
538.9988518074388,58.4109245705832,15088.833984375,282774.78125,89.63150024414062,272.1231689453125,-134.4185028076172,159918.75534740358,-1022.7595026596207,-578930.4620297091,786.6688051840756,-598444.5626975471,5.9996746948357895,1.0,1.0,0.0
548.4018166507594,59.035138924439586,15079.0419921875,282467.21875,89.62725830078125,271.56060791015625,-137.12322998046875,159921.13141736583,-1022.836278210463,-578939.5734498193,799.842867560219,-598444.8694105826,6.064024600691596,1.0,1.0,0.0
556.7115269477945,59.583630634350186,15070.47265625,282198.125,89.62466430664062,271.2199401855469,-139.35862731933594,159923.2294773321,-1022.9039681060929,-578947.6259878898,811.4995067368727,-598445.1469969221,6.1205736361037,1.0,1.0,0.0
565.0982525850413,60.134329476722684,15061.9033203125,281929.0,89.62255859375,271.21820068359375,-141.2731170654297,159925.3452278233,-1022.9721090896744,-578955.75348546,823.2779214633629,-598445.419693277,6.177355536294044,1.0,1.0,0.0
573.562241710606,60.687184593615925,15053.3349609375,281659.875,89.61639404296875,270.7207336425781,-143.70449829101562,159927.4788719397,-1023.0405814750809,-578963.956298041,835.1784991009627,-598445.703174733,6.234364845720506,1.0,1.0,0.0
582.103661666275,61.242212766612326,15044.765625,281429.21875,89.61285400390625,270.397216796875,-145.98489379882812,159929.63026576416,-1023.1093237503189,-578972.2346964679,847.2019894132391,-598445.9967736879,6.2916033932025925,1.0,1.0,0.0
590.7231188059086,61.799592641949,15036.1962890625,281121.65625,89.60882568359375,269.821533203125,-148.53103637695312,159931.7995023642,-1023.1783964737076,-578980.5890362405,859.3502529293764,-598446.2931751729,6.349089793104611,1.0,1.0,0.0
599.4208756700391,62.35936205610588,15027.6279296875,280852.53125,89.60931396484375,269.19873046875,-151.12454223632812,159933.98662402667,-1023.2477796180863,-578989.019638997,871.6242492216406,-598446.6020820464,6.406827830104362,1.0,1.0,0.0
608.197024222347,62.92148859678158,15019.05859375,280621.875,89.60882568359375,268.1587219238281,-153.8425750732422,159935.8755577348,-1023.3073766334671,-578996.3068186467,884.0245433847886,-598446.9060774458,6.4648146402165025,1.0,1.0,0.0
615.7822092430433,63.40512982321731,15011.7138671875,280391.1875,89.611328125,266.8994140625,-156.75901794433594,159937.77769794408,-1023.3671867950577,-579003.6504887644,894.7540891270619,-598447.1612539877,6.514709813319257,1.0,1.0,0.0
623.4256573998136,63.890429978678306,15004.369140625,280160.5,89.61334228515625,265.4676513671875,-159.8182373046875,159939.69320545642,-1023.4272520645279,-579011.0507932557,905.5769339633407,-598447.4106062752,6.564780460145187,1.0,1.0,0.0
631.1274152738042,64.37735705783066,14997.0234375,279929.84375,89.61691284179688,263.67388916015625,-163.20364379882812,159941.62211411053,-1023.4875619514603,-579018.5079014053,916.4933312067296,-598447.6544885397,6.6150233503738605,1.0,1.0,0.0
638.8876440771855,64.8658799750754,14989.6787109375,279699.15625,89.617431640625,261.7474060058594,-166.67816162109375,159943.56457623726,-1023.5482699974198,-579026.0220248303,927.5035485987319,-598447.889327062,6.665435433623486,1.0,1.0,0.0
646.706809495925,65.3560397989046,14982.3349609375,279468.46875,89.61895751953125,260.0228576660156,-169.90252685546875,159945.5206341348,-1023.609525929274,-579033.5933751367,938.6082733713556,-598448.1171098518,6.716020959247317,1.0,1.0,0.0
653.2675638247747,65.76578013131099,14976.21484375,279276.28125,89.61795043945312,258.75201416015625,-172.38485717773438,159947.16116901863,-1023.6609819038529,-579039.946579867,947.9348905459046,-598448.3026346676,6.758310486319999,1.0,1.0,0.0
662.5217484351015,66.34130919753943,14967.6455078125,279007.15625,89.6143798828125,256.83917236328125,-175.9327392578125,159949.47394346574,-1023.7336123092789,-579048.9082473505,961.1033024617936,-598448.5685069878,6.817716244589292,1.0,1.0,0.0
670.5181390767684,66.83635214012367,14960.30078125,278776.5,89.61236572265625,255.33990478515625,-178.77452087402344,159951.4711948533,-1023.796513329329,-579056.6522093888,972.4940462213708,-598448.8042327922,6.868819009173649,1.0,1.0,0.0
678.5740999695845,67.33308638363391,14952.955078125,278545.78125,89.60983276367188,254.09942626953125,178.697998046875,159953.4822704679,-1023.8601005180496,-579064.4541008484,983.9814647341846,-598449.0372637624,6.9201009829640725,1.0,1.0,0.0
686.6898096416844,67.83147548371352,14945.6103515625,278315.125,89.6043701171875,252.95822143554688,176.3255615234375,159955.50721260786,-1023.924337635817,-579072.3141333353,995.5657877029153,-598449.2674331655,6.97155849108151,1.0,1.0,0.0
694.865480354405,68.3315619985865,14938.2666015625,278084.46875,89.59942626953125,252.1820068359375,174.37445068359375,159957.54603818088,-1023.9893415077347,-579080.2325015243,1007.2477679268923,-598449.4980519376,7.023195906901265,1.0,1.0,0.0
703.1011823725421,68.83330923121855,14930.921875,277853.78125,89.5921630859375,251.4530029296875,172.52610778808594,159959.59876409484,-1024.055022488417,-579088.2094000904,1019.0276043264894,-598449.7389179182,7.075009293986113,1.0,1.0,0.0
711.3972904664697,69.33673537155687,14923.576171875,277623.125,89.587890625,250.86672973632812,170.87635803222656,159961.66545803836,-1024.1214640243668,-579096.2450575703,1030.9059069973882,-598449.9875506086,7.127000646471004,1.0,1.0,0.0
719.7537466705544,69.84183978927344,14916.2314453125,277392.4375,89.58175659179688,250.43630981445312,169.43678283691406,159963.74604381726,-1024.1886580093521,-579104.339643237,1042.8831434937892,-598450.2408783928,7.179170042076919,1.0,1.0,0.0
728.171129035065,70.34866824032105,14908.88671875,277161.78125,89.5784912109375,250.1514434814453,168.19732666015625,159965.84063990103,-1024.2566468818802,-579112.4934194884,1054.9600947477156,-598450.487207946,7.2315225386146835,1.0,1.0,0.0
736.6495410262141,70.85725571204229,14901.5419921875,276931.09375,89.57479858398438,250.25320434570312,167.39837646484375,159967.9493139897,-1024.3254978759903,-579120.7065048285,1067.1375402518315,-598450.728415589,7.284061770443657,1.0,1.0,0.0
745.18895506626,71.36753154268416,14894.197265625,276700.40625,89.57113647460938,250.33816528320312,166.63589477539062,159970.07206606035,-1024.3950932129044,-579128.9791193225,1079.415397885954,-598450.9745986199,7.336780295322683,1.0,1.0,0.0
753.7897038797382,71.87960777190646,14886.853515625,276469.75,89.56704711914062,250.72369384765625,166.22552490234375,159972.20904844388,-1024.465473900618,-579137.3114745878,1091.7950147064403,-598451.2151008045,7.389689976714578,1.0,1.0,0.0
762.4519604389789,72.39340422457241,14879.5078125,276239.0625,89.5567626953125,250.855712890625,165.61097717285156,159974.36022726735,-1024.5363910301346,-579145.7037314377,1104.276271634153,-598451.4659042062,7.442782248280821,1.0,1.0,0.0
771.176083357539,72.90886731632335,14872.1630859375,276008.40625,89.54672241210938,250.7461395263672,164.80496215820312,159976.52560249637,-1024.6078755958695,-579154.1562199702,1116.8592665523756,-598451.7292077541,7.496051607367292,1.0,1.0,0.0
779.9621747784549,73.42602285063467,14864.818359375,275777.75,89.53775024414062,250.6922149658203,164.10565185546875,159978.70512333864,-1024.6800778015274,-579162.6690163568,1129.5446386125404,-598451.9952150728,7.549501025691768,1.0,1.0,0.0
788.8104240891989,73.94487230252585,14857.47265625,275547.0625,89.52978515625,250.91098022460938,163.732421875,159980.8989082521,-1024.7531607254166,-579171.2424930279,1142.3329183827154,-598452.2769002811,7.603130401963369,1.0,1.0,0.0
797.7210190868936,74.4654581416865,14850.1279296875,275316.375,89.5223388671875,251.08795166015625,163.36944580078125,159983.10673717136,-1024.8270204170365,-579179.8766499609,1155.2248633826384,-598452.5693149868,7.656944303052171,1.0,1.0,0.0
808.1959915328771,75.07495756749013,14841.560546875,275047.25,89.5162353515625,251.30322265625,163.0200653076172,159985.70045356653,-1024.9141643150467,-579190.0271314724,1170.3968756532995,-598452.9154347649,7.719956059823858,1.0,1.0,0.0
817.2423322125105,75.59924856713384,14834.21484375,274816.59375,89.513427734375,251.56256103515625,162.8533172607422,159987.93904397418,-1024.9897024734635,-579198.7938217575,1183.5147914744448,-598453.2128061398,7.774164619103317,1.0,1.0,0.0
826.3520431016805,76.12514287944566,14826.8701171875,274585.90625,89.51019287109375,251.5386962890625,162.45748901367188,159990.19186451126,-1025.0658133133072,-579207.622013337,1196.7369568030117,-598453.5021004423,7.828544730082228,1.0,1.0,0.0
835.5247776798205,76.65231931091932,14819.525390625,274355.25,89.50506591796875,250.93887329101562,161.55886840820312,159992.45906752016,-1025.1423804863114,-579216.5118077953,1210.061244837707,-598453.7919275213,7.883063170279513,1.0,1.0,0.0
844.7609205108602,77.18070465630456,14812.1796875,274124.5625,89.49835205078125,250.08682250976562,160.49649047851562,159994.74068683942,-1025.2195623024124,-579225.4633744168,1223.487429503817,-598454.0757188058,7.9377126439435415,1.0,1.0,0.0
854.0605984551366,77.71069974143732,14804.8349609375,273893.90625,89.48834228515625,249.4627685546875,159.7562255859375,159997.0366886076,-1025.2976396186966,-579234.4767639826,1237.019056085148,-598454.3659823427,7.9925341742871865,1.0,1.0,0.0
863.4239660914754,78.24285234422194,14797.4912109375,273663.25,89.47848510742188,249.12448120117188,159.386474609375,159999.34705585954,-1025.3767144783158,-579243.552331981,1250.6610924571287,-598454.661929923,8.047584282597597,1.0,1.0,0.0
872.8512985496782,78.77728713791542,14790.146484375,273432.5625,89.46917724609375,249.02761840820312,159.32620239257812,160001.6719239954,-1025.456769238295,-579252.6903154196,1264.4151326117571,-598454.9709322822,8.10287569613547,1.0,1.0,0.0
882.3430272099795,79.31374885403555,14782.8017578125,273201.90625,89.46148681640625,249.26437377929688,159.65611267089844,160004.01122526918,-1025.5379288299698,-579261.8910359254,1278.2797603794606,-598455.300942106,8.158381993417152,1.0,1.0,0.0
891.8991478678072,79.85236084521493,14775.45703125,272971.21875,89.46148681640625,249.70846557617188,160.23483276367188,160006.36485809644,-1025.620171795668,-579271.1546458408,1292.256625025766,-598455.6220093613,8.21411678039442,1.0,1.0,0.0
903.1300491552101,80.48319701594664,14766.88671875,272702.09375,89.46112060546875,250.65939331054688,161.37600708007812,160009.12921765583,-1025.7174394233841,-579282.0421102565,1308.7034055929398,-598455.9972385603,8.279402272554137,1.0,1.0,0.0
912.8268578014104,81.02599127018088,14759.5419921875,272471.4375,89.46734619140625,251.73220825195312,162.62384033203125,160011.51442402843,-1025.801875363173,-579291.4429765507,1322.9215124114417,-598456.3109883979,8.335583010180244,1.0,1.0,0.0
922.5890150093473,81.57064108926711,14752.1982421875,272240.75,89.4732666015625,253.1810302734375,164.24176025390625,160013.91441893572,-1025.8872001274246,-579300.9074771386,1337.2512363046408,-598456.6064128849,8.391962437722611,1.0,1.0,0.0
932.4165749173844,82.11699389705886,14744.853515625,272010.0625,89.47921752929688,255.0827178955078,166.28713989257812,160016.3293716394,-1025.9733326538224,-579310.4357982472,1351.6917850099271,-598456.882942142,8.448524946367002,1.0,1.0,0.0
942.3099015651969,82.66471822594256,14737.5087890625,271779.40625,89.48110961914062,257.30364990234375,168.60369873046875,160018.7592144164,-1026.0601065261978,-579320.0280414382,1366.2408168446273,-598457.1740328243,8.505235533034124,1.0,1.0,0.0
952.2690124737564,83.21383001188528,14730.1640625,271548.71875,89.4844970703125,259.3470458984375,170.68177795410156,160021.2040488055,-1026.1472332580704,-579329.6844944998,1380.8988718125038,-598457.464716873,8.562096335702847,1.0,1.0,0.0
962.2940999715356,83.76458110877999,14722.818359375,271318.0625,89.48260498046875,261.0516357421875,172.34983825683594,160023.66389172588,-1026.23448968965,-579339.4052420743,1395.668580853613,-598457.7573424127,8.619133327346333,1.0,1.0,0.0
972.3855445518857,84.31736043205443,14715.4736328125,271087.40625,89.47848510742188,262.6672668457031,173.86643981933594,160026.13876007393,-1026.3219235046524,-579349.1905888696,1410.5538081692066,-598458.056499798,8.67638654651256,1.0,1.0,0.0
982.5432613943703,84.87213292521521,14708.1298828125,270856.71875,89.47662353515625,263.914306640625,174.96340942382812,160028.62860304592,-1026.409478436293,-579359.0407210893,1425.5548272544984,-598458.3745110757,8.733852115679383,1.0,1.0,0.0
992.7679005373502,85.42915790946654,14700.78515625,270626.03125,89.47808837890625,264.6717529296875,175.5341339111328,160031.13352218052,-1026.4969904525894,-579368.9559265219,1440.6745402500965,-598458.6709493004,8.79155803458275,1.0,1.0,0.0
1003.0593487174483,85.988153431862,14693.439453125,270395.375,89.47586059570312,264.83563232421875,175.4974365234375,160033.65373752013,-1026.5844051941056,-579378.9364252558,1455.9111279780045,-598458.9734280473,8.849474540667472,1.0,1.0,0.0
1015.1510173267452,86.64264340093995,14684.87109375,270126.25,89.47586059570312,264.1358337402344,174.572998046875,160036.6132245619,-1026.6862385376114,-579390.6631039632,1473.8341627211776,-598459.3290478844,8.917293526023627,1.0,1.0,0.0
1025.5885541578755,87.20552621592253,14677.525390625,269895.5625,89.47808837890625,263.21478271484375,173.48736572265625,160039.1665364579,-1026.7736713989395,-579400.7858360979,1489.3224974146578,-598459.627717534,8.975627729121413,1.0,1.0,0.0
1036.093500248855,87.77026268624618,14670.1806640625,269664.875,89.47698974609375,262.4182434082031,172.5576934814453,160041.73517835166,-1026.8614685638565,-579410.974470949,1504.9284104910912,-598459.9091867482,9.034161471146604,1.0,1.0,0.0
1046.6665587477619,88.33677474566352,14662.8369140625,269434.25,89.47698974609375,261.58795166015625,171.63027954101562,160044.31930256257,-1026.9497501953263,-579421.2293301668,1520.6517220704118,-598460.2061017668,9.092885820218385,1.0,1.0,0.0
1057.3077886519022,88.90531007128115,14655.4921875,269203.5625,89.47735595703125,261.26605224609375,171.23875427246094,160046.91911221392,-1027.03864694673,-579431.5505491971,1536.4953194027767,-598460.4770345811,9.151827666738598,1.0,1.0,0.0
1066.2276042407611,89.3805045914695,14649.37109375,269011.3125,89.47662353515625,261.0116271972656,170.945068359375,160049.0975182374,-1027.1130983932633,-579440.2024267919,1549.7893679466797,-598460.7165049947,9.201097623248813,1.0,1.0,0.0
1076.994394973386,89.95244541773086,14642.0263671875,268780.65625,89.47808837890625,260.81085205078125,170.71649169921875,160051.72602522402,-1027.2028591735977,-579450.6458528143,1565.8521049794508,-598461.0006674875,9.260405310164572,1.0,1.0,0.0
1087.8296234396985,90.52629523980274,14634.681640625,268549.96875,89.47698974609375,260.8731689453125,170.7671356201172,160054.3702175822,-1027.2931664093155,-579461.1562988454,1582.035585400532,-598461.2836787432,9.319918248626664,1.0,1.0,0.0
1096.9118415915873,91.00595776656766,14628.560546875,268357.78125,89.47772216796875,260.85791015625,170.75238037109375,160056.58578124954,-1027.3687651260514,-579469.9663226844,1595.6145322484663,-598461.5171587666,9.369668871244471,1.0,1.0,0.0
1107.87385319022,91.58325185350382,14621.2158203125,268127.09375,89.47848510742188,260.90802001953125,170.81240844726562,160059.25904323612,-1027.459849606337,-579480.6001776421,1612.0205403320724,-598461.798056906,9.429552646521813,1.0,1.0,0.0
1118.905317991157,92.16248998201505,14613.87109375,267896.40625,89.4796142578125,260.935791015625,170.8567352294922,160061.94822753317,-1027.5512917144913,-579491.3015774044,1628.5493569616228,-598462.0696469096,9.489645843029507,1.0,1.0,0.0
1130.0064984636847,92.74361721832678,14606.525390625,267665.71875,89.47998046875,260.8796691894531,170.824462890625,160064.65348645998,-1027.643129597487,-579502.0708436214,1645.2010231096065,-598462.3377515964,9.549942721003788,1.0,1.0,0.0
1141.1773768349085,93.32663630087843,14599.181640625,267435.0625,89.47921752929688,261.06134033203125,171.03585815429688,160067.3748538553,-1027.7354862793106,-579512.9081455774,1661.9761382448487,-598462.6047038587,9.610443594580602,1.0,1.0,0.0
1152.4186996743083,93.911555833508,14591.8369140625,267204.40625,89.47921752929688,261.26397705078125,171.27081298828125,160070.11236355756,-1027.828254948439,-579523.8136525571,1678.8753553259885,-598462.8722004351,9.671149405284723,1.0,1.0,0.0
1163.7300507714972,94.49836611340851,14584.4921875,266973.71875,89.47998046875,261.42022705078125,171.4597625732422,160072.8661171054,-1027.921365986647,-579534.7876523491,1695.8991925603477,-598463.1397030711,9.732059276331313,1.0,1.0,0.0
1173.2098957248963,94.98883122692219,14578.37109375,266781.5,89.47698974609375,261.6474914550781,171.717041015625,160075.17339073867,-1027.9993260009903,-579543.9851362493,1710.1814511948032,-598463.3625345188,9.78297472446161,1.0,1.0,0.0
1184.650839546346,95.5791079005075,14571.0263671875,266550.8125,89.47735595703125,261.91845703125,172.0196533203125,160077.9570092591,-1028.0931913955826,-579555.0852027634,1727.4352458372014,-598463.6351160591,9.844258825988959,1.0,1.0,0.0
1196.162904200377,96.1712814681966,14563.681640625,266320.125,89.47772216796875,262.2033386230469,172.3367919921875,160080.75695619857,-1028.187412510695,-579566.2544053665,1744.815345479059,-598463.9090390243,9.90574788351023,1.0,1.0,0.0
1207.7576144812629,96.76543754452054,14556.3369140625,266089.46875,89.47662353515625,262.44146728515625,172.6047821044922,160083.57331617668,-1028.281958828749,-579577.4929472047,1762.3232586125378,-598464.1739958602,9.967451191073678,1.0,1.0,0.0
1219.4477041981881,97.36147802314727,14548.9921875,265858.8125,89.47698974609375,262.71527099609375,172.90525817871094,160086.4062245934,-1028.3768684967179,-579588.8010652856,1779.9585761725903,-598464.441070342,10.029358367596615,1.0,1.0,0.0
1231.2095254452433,97.9594303265691,14541.6484375,265628.125,89.48110961914062,263.0069580078125,173.22496032714844,160089.25566450658,-1028.4721939666886,-579600.1788950323,1797.7221253557364,-598464.7099407706,10.091472365285085,1.0,1.0,0.0
1243.0440820150543,98.55926334200466,14534.302734375,265397.46875,89.48187255859375,263.316162109375,173.5550079345703,160092.12166973192,-1028.5677578552384,-579611.6268257947,1815.6142589108786,-598464.9817680616,10.153790049408371,1.0,1.0,0.0
1254.95058032847,99.16111606229634,14526.9580078125,265166.78125,89.48681640625,263.0667419433594,173.32196044921875,160095.00437569237,-1028.6633970840592,-579623.1448745151,1833.6369488512864,-598465.2424266309,10.216326359604693,1.0,1.0,0.0
1266.9301990952808,99.76494439054609,14519.61328125,264936.125,89.48565673828125,263.0336608886719,173.302978515625,160097.90390084597,-1028.759404431166,-579634.7334136242,1851.7904276642948,-598465.4913352492,10.279076890910858,1.0,1.0,0.0
1278.982611892512,100.37062807468023,14512.267578125,264705.4375,89.48834228515625,262.94482421875,173.22531127929688,160100.82031289279,-1028.8557255371231,-579646.3925616258,1870.0740015220363,-598465.7474571475,10.342028694917929,1.0,1.0,0.0
1291.1080925381975,100.97826067357103,14504.9228515625,264474.78125,89.49331665039062,262.7527160644531,173.04263305664062,160103.75357794843,-1028.9523518188614,-579658.122589366,1888.489272381994,-598466.001419658,10.405191873299032,1.0,1.0,0.0
1303.306990035344,101.587919058504,14497.578125,264244.09375,89.49835205078125,262.7899475097656,173.08880615234375,160106.70388219375,-1029.0494063003678,-579669.923767714,1907.0376518289559,-598466.2417113285,10.468574885973567,1.0,1.0,0.0
1315.5793639575131,102.19950799705424,14490.234375,264013.4375,89.49954223632812,263.1964416503906,173.50506591796875,160109.67141183268,-1029.146972904982,-579681.7961474734,1925.7187768748263,-598466.4795812909,10.532167632007429,1.0,1.0,0.0
1327.9258614134742,102.81317098459424,14482.8896484375,263782.75,89.50308227539062,263.5403747558594,173.8568115234375,160112.6561160386,-1029.2448532684464,-579693.7401349135,1944.534849908785,-598466.7032411839,10.59598547675057,1.0,1.0,0.0
