obs_alt,obs_vel,obs_fuel,obs_mass,obs_pitch,obs_heading,obs_roll,obs_pos_x,obs_pos_y,obs_pos_z,obs_ap,obs_pe,obs_time_to_ap,act_throttle,act_pitch,act_stage
6.404992766096257,2.798615436314226,3229.93359375,75596.3046875,89.82086181640625,286.103759765625,-88.78924560546875,159781.7365133626,-1018.1845254267375,-578414.6616619162,79.36356772470754,-598435.7275084881,0.28684886092082706,1.0,1.0,0.0
6.789503546664491,3.484407802895375,3227.696533203125,75529.6484375,89.81442260742188,286.83990478515625,-88.73687744140625,159781.8351898707,-1018.1900066922228,-578415.0333016382,79.96889604593161,-598435.8577484676,0.35714079508466057,1.0,1.0,0.0
7.256605641916394,4.174084096037111,3225.45947265625,75462.8984375,89.79922485351562,288.9755859375,-87.29110717773438,159781.95498922383,-1018.1952627862613,-578415.4847924364,80.70668391464278,-598435.9864720704,0.42783117435311624,1.0,1.0,0.0
7.806648878729902,4.866197737743517,3223.222412109375,75396.1015625,89.79730224609375,290.76904296875,-86.1912841796875,159782.09599337616,-1018.2002479771893,-578416.0164741096,81.57738300424535,-598436.1190048531,0.49877180510918606,1.0,1.0,0.0
8.328563580405898,5.444497188935192,3221.3583984375,75340.4296875,89.79922485351562,291.52325439453125,-86.01806640625,159782.2297914716,-1018.2041936258595,-578416.5209644702,82.40487385797314,-598436.2110991492,0.5580470737087353,1.0,1.0,0.0
9.031308235251345,6.140088815643113,3219.121337890625,75273.6171875,89.79827880859375,292.45574951171875,-85.78176879882812,159782.41000008048,-1018.2087064201753,-578417.2002358757,83.52058810705785,-598436.3244505757,0.629345249483606,1.0,1.0,0.0
9.817643715185113,6.837341988658615,3216.88427734375,75206.8125,89.80316162109375,292.98291015625,-85.94970703125,159782.61171179227,-1018.2129798049848,-578417.9602875399,84.7706516837934,-598436.4289890192,0.7008144343841991,1.0,1.0,0.0
10.536918411031365,7.4196607012780476,3215.02001953125,75151.1328125,89.80618286132812,293.64569091796875,-85.865478515625,159782.79630357402,-1018.2163741404931,-578418.6555001393,85.91540500987321,-598436.5118784778,0.7605033104268273,1.0,1.0,0.0
11.477021496510133,8.11997961509928,3212.783203125,75084.328125,89.81231689453125,294.2729187011719,-85.93087768554688,159783.0376744833,-1018.2202458347003,-578419.5641222984,87.41324081935454,-598436.6088068094,0.8322882355888055,1.0,1.0,0.0
12.501277407049201,8.821975267537846,3210.546142578125,75017.515625,89.81869506835938,294.3912048339844,-86.5040283203125,159783.30078061117,-1018.2239009405296,-578420.5540497043,89.04702550917864,-598436.6996427726,0.9042459799857738,1.0,1.0,0.0
13.609893433866091,9.525649262718575,3208.30908203125,74950.703125,89.81869506835938,294.93701171875,-86.64840698242188,159783.58570200205,-1018.2273690069835,-578421.6254682906,90.81732553301845,-598436.789171951,0.9763767857556331,1.0,1.0,0.0
14.598328629159369,10.11332888683006,3206.445068359375,74895.03125,89.82196044921875,295.2198486328125,-86.93911743164062,159783.83983632762,-1018.230105441324,-578422.5807093568,92.39726891787723,-598436.8618216913,1.0366183214167108,1.0,1.0,0.0
15.862126415595412,10.820092809936336,3204.2080078125,74828.2265625,89.82867431640625,295.32635498046875,-87.52001953125,159784.1649012554,-1018.2332127357643,-578423.8020326241,94.41933257970959,-598436.9456973254,1.1090679838761162,1.0,1.0,0.0
17.210857118247077,11.528548809337194,3201.970947265625,74761.4140625,89.83099365234375,295.63214111328125,-87.90097045898438,159784.51195722414,-1018.2361427957933,-578425.1053939471,96.57953831262421,-598437.0284188734,1.1816923756371125,1.0,1.0,0.0
18.399824080057442,12.120221943423266,3200.106689453125,74705.734375,89.83447265625,295.7819519042969,-88.3228759765625,159784.8180065927,-1018.2384442354362,-578426.2543378384,98.48564942541998,-598437.0967828095,1.2423463007235682,1.0,1.0,0.0
19.904788101208396,12.831785355907842,3197.869873046875,74638.9296875,89.835693359375,295.9456481933594,-88.84518432617188,159785.2055200288,-1018.2410446370761,-578427.7086112155,100.90061320073437,-598437.1770240392,1.3152918138310383,1.0,1.0,0.0
21.495266906102188,13.545052053677688,3195.6328125,74572.1171875,89.83685302734375,296.1234130859375,-89.35372924804688,159785.615183485,-1018.2434716190021,-578429.2454770305,103.45536427584011,-598437.2560351719,1.3884134716276435,1.0,1.0,0.0
23.171459319768474,14.260025604590654,3193.395751953125,74505.3125,89.83929443359375,296.2604064941406,-89.902587890625,159786.04705272726,-1018.2457265074174,-578430.8651328248,106.1504891429795,-598437.3341702736,1.46171173375933,1.0,1.0,0.0
24.633904763613828,14.857142406579836,3191.531494140625,74449.6328125,89.84173583984375,296.37982177734375,-90.35425567626953,159786.42394513352,-1018.2474758143346,-578432.2782283219,108.5040771998465,-598437.3986138,1.5229287648483023,1.0,1.0,0.0
26.467767324182205,15.575252950561033,3189.294677734375,74382.8203125,89.83929443359375,296.4962158203125,-90.9248046875,159786.89666461703,-1018.249419179074,-578434.0501771492,111.45807716739364,-598437.4757442998,1.5965518445901807,1.0,1.0,0.0
28.387925820308737,16.295080283337015,3187.0576171875,74316.015625,89.84298706054688,296.607177734375,-91.5000991821289,159787.39173710323,-1018.2511943842094,-578435.9054772726,114.55412214342505,-598437.5522451119,1.670352820525352,1.0,1.0,0.0
30.054124579532072,16.89625055622835,3185.193359375,74260.3359375,89.84423828125,296.7076416015625,-91.97237396240234,159787.82141377364,-1018.2525467092912,-578437.5153773825,117.24309657444246,-598437.6155223573,1.7319898772501006,1.0,1.0,0.0
32.13302354665939,17.619236338413177,3182.95654296875,74193.5234375,89.84423828125,296.7935791015625,-92.57384490966797,159788.3576086288,-1018.2540173942964,-578439.5240081251,120.60110990039539,-598437.6907984016,1.806118381339843,1.0,1.0,0.0
34.29881360125728,18.34394939770367,3180.719482421875,74126.7265625,89.84423828125,296.9010009765625,-93.15447235107422,159788.91631365457,-1018.2553246433656,-578441.6165572118,124.10286246729083,-598437.7657676626,1.8804261365439743,1.0,1.0,0.0
36.55168536899146,19.07039324078599,3178.482421875,74059.9140625,89.84677124023438,297.03363037109375,-93.71070861816406,159789.49757237223,-1018.2564719731729,-578443.7932264652,127.74895731685683,-598437.8401879133,1.954913605079355,1.0,1.0,0.0
38.495752879884094,19.67709063185145,3176.6181640625,74004.2421875,89.84548950195312,297.1285095214844,-94.18936920166016,159789.99922503205,-1018.257305722944,-578445.6715184613,130.89807373320218,-598437.9014120768,2.017124405732716,1.0,1.0,0.0
40.90882827201858,20.4067212349882,3174.38134765625,73937.4296875,89.84933471679688,297.2528381347656,-94.75650787353516,159790.62198121654,-1018.2581579352538,-578448.0029265126,134.810377843678,-598437.9754160177,2.0919430103623995,1.0,1.0,0.0
43.40957753290422,21.138093719397585,3172.144287109375,73870.6171875,89.84677124023438,297.36016845703125,-95.33940124511719,159791.26743710213,-1018.2588476205985,-578450.4190244914,138.86874697124586,-598438.0483983869,2.166942760929601,1.0,1.0,0.0
45.560669880593196,21.748905444346676,3170.280029296875,73814.9453125,89.84805297851562,297.43914794921875,-95.83624267578125,159791.8227065073,-1018.2592991108816,-578452.4972809666,142.36274800926913,-598438.1092770593,2.229581413219762,1.0,1.0,0.0
48.22271756280679,22.48348411414211,3168.043212890625,73748.1328125,89.85195922851562,297.54290771484375,-96.4261474609375,159792.50993005474,-1018.2596968079727,-578455.0691748714,146.6905101762386,-598438.1815611161,2.304914834911642,1.0,1.0,0.0
50.97304020333104,23.219816321530114,3165.80615234375,73681.328125,89.85195922851562,297.6421203613281,-97.01895141601562,159793.2200098068,-1018.2599371488016,-578457.7263334121,151.16608627978712,-598438.2530276543,2.380430895756092,1.0,1.0,0.0
53.81184555380605,23.95790631067941,3163.569091796875,73614.515625,89.84933471679688,297.7135925292969,-97.6414566040039,159793.95300774075,-1018.26001900088,-578460.4689619109,155.79009963362478,-598438.3235833034,2.456130139365712,1.0,1.0,0.0
56.24526613007765,24.574327247687382,3161.704833984375,73558.8359375,89.85064697265625,297.7772521972656,-98.15677642822266,159794.58138058873,-1018.2599703336875,-578462.8199221467,159.75728460086975,-598438.3821731715,2.519353175889762,1.0,1.0,0.0
59.24682604079135,25.315648725898352,3159.468017578125,73492.03125,89.85330200195312,297.8560791015625,-98.77284240722656,159795.35652417553,-1018.2597738320749,-578465.7197706744,164.65504969796166,-598438.4532477539,2.5953894304230403,1.0,1.0,0.0
62.337484871502966,26.05873889554512,3157.23095703125,73425.21875,89.85330200195312,297.983642578125,-99.34223937988281,159796.15472374848,-1018.259426724426,-578468.70567412,169.7030302201165,-598438.5241268696,2.6716102898478766,1.0,1.0,0.0
64.98123790393583,26.679333344376545,3155.36669921875,73369.546875,89.85195922851562,298.1068115234375,-99.79998779296875,159796.83753960358,-1018.259022843353,-578471.2598112356,174.02487990586087,-598438.5820352315,2.73526893928954,1.0,1.0,0.0
68.23577729018871,27.425676716830047,3153.129638671875,73302.734375,89.8546142578125,298.2131042480469,-100.39212036132812,159797.6781536954,-1018.2584004665534,-578474.4040071579,179.34989424340893,-598438.650949441,2.811829632619151,1.0,1.0,0.0
71.57998105173465,28.173795913531315,3150.892822265625,73235.921875,89.85330200195312,298.34954833984375,-100.95338439941406,159798.5419785873,-1018.2576283330839,-578477.6348384966,184.82690744276624,-598438.7199402262,2.888575977704477,1.0,1.0,0.0
75.0141092465492,28.92369940708112,3148.65576171875,73169.1171875,89.8546142578125,298.5057373046875,-101.49775695800781,159799.4290709487,-1018.2567088122289,-578480.9525115385,190.45657424884848,-598438.7883029984,2.965508964136859,1.0,1.0,0.0
77.94469893560745,29.54998209076123,3146.79150390625,73113.4453125,89.85736083984375,298.54595947265625,-102.04046630859375,159800.18612143197,-1018.2558263952653,-578483.7837225543,195.26502739451826,-598438.8453143187,3.029762447728899,1.0,1.0,0.0
81.54420722625218,30.303161704911123,3144.5546875,73046.6328125,89.85873413085938,298.66265869140625,-102.62567138671875,159801.1160078673,-1018.2546318287771,-578487.2611434194,201.17621539055835,-598438.9121280201,3.1070384176834978,1.0,1.0,0.0
85.23420173872728,31.05813549117609,3142.317626953125,72979.8203125,89.85598754882812,298.760009765625,-103.22997283935547,159802.06931658598,-1018.2532934511821,-578490.8259864863,207.24187695712317,-598438.9787687374,3.184502366458048,1.0,1.0,0.0
89.014928624616,31.8149041826984,3140.08056640625,72913.015625,89.85873413085938,298.89813232421875,-103.79443359375,159803.04609339862,-1018.2518134231489,-578494.4784737225,213.4626576025039,-598439.0468928166,3.2621544691994586,1.0,1.0,0.0
92.23499658715446,32.446921409179545,3138.21630859375,72857.34375,89.860107421875,298.9676208496094,-104.3110580444336,159803.87804019687,-1018.2504697705428,-578497.5893141802,218.76561359257903,-598439.1027054962,3.327008959953332,1.0,1.0,0.0
96.1826186379185,33.20699472230125,3135.9794921875,72790.53125,89.860107421875,299.14990234375,-104.83427429199219,159804.89798943102,-1018.2487293149154,-578501.40301303,225.27249005017802,-598439.1680913386,3.4050078124238325,1.0,1.0,0.0
100.22155554452911,33.96887513990907,3133.742431640625,72723.71875,89.860107421875,299.32159423828125,-105.36798095703125,159805.94155940114,-1018.2468480135124,-578505.3049396835,231.9363385188626,-598439.2332644571,3.4831964287201345,1.0,1.0,0.0
103.65729271923192,34.60515540923488,3131.878173828125,72668.0390625,89.86151123046875,299.419677734375,-105.85751342773438,159806.8292952543,-1018.2451766098659,-578508.6241023662,237.60993489134125,-598439.2861449568,3.548498618640167,1.0,1.0,0.0
107.86427115695551,35.370353696750826,3129.64111328125,72601.234375,89.8658447265625,299.6735534667969,-106.31123352050781,159807.9163463174,-1018.2430482621114,-578512.6883360066,244.56329214083962,-598439.350267928,3.6270359582245533,1.0,1.0,0.0
112.1631896509789,36.1373678842207,3127.404296875,72534.421875,89.86294555664062,299.8063049316406,-106.8863525390625,159809.0271726872,-1018.2407848204296,-578516.8413917014,251.67549561907072,-598439.4123765416,3.7057643351185448,1.0,1.0,0.0
115.81601638055872,36.77793695472478,3125.5400390625,72478.75,89.8673095703125,300.017822265625,-107.26509094238281,159809.9710834306,-1018.2387993748109,-578520.370275983,257.7241640049033,-598439.464482241,3.7715176668019694,1.0,1.0,0.0
120.28408228373155,37.548290372936,3123.302978515625,72411.9453125,89.8687744140625,300.27667236328125,-107.71568298339844,159811.12567013214,-1018.2362942958991,-578524.6867229358,265.1293286301661,-598439.5261222232,3.8505975998164104,1.0,1.0,0.0
124.84473576396704,38.3204715447562,3121.066162109375,72345.1328125,89.8643798828125,300.4383544921875,-108.26458740234375,159812.3042033562,-1018.2336527670543,-578529.0926023598,272.6952600842342,-598439.5871128346,3.9298701280225714,1.0,1.0,0.0
129.49816949677188,39.09448324284615,3118.8291015625,72278.3203125,89.8687744140625,300.56488037109375,-108.84915161132812,159813.50674725208,-1018.2308752502124,-578533.5881164419,280.42261979798786,-598439.6480118156,4.009335656489895,1.0,1.0,0.0
133.44707696163096,39.74089351124231,3116.96484375,72222.6484375,89.8687744140625,300.658447265625,-109.34934997558594,159814.52724471863,-1018.2284622455757,-578537.4030069604,286.9858943033032,-598439.6980788389,4.075704688593817,1.0,1.0,0.0
138.271186686703,40.518269931185884,3114.727783203125,72155.8359375,89.8673095703125,300.7652587890625,-109.95565795898438,159815.77393332284,-1018.2254448200385,-578542.0633941863,295.01096551073715,-598439.7574969726,4.155525304567561,1.0,1.0,0.0
143.1887214477174,41.29748961894059,3112.490966796875,72089.03125,89.8673095703125,300.88531494140625,-110.55001068115234,159817.04478885524,-1018.2222922558706,-578546.8140346883,303.1994146303041,-598439.8180238756,4.235540581209932,1.0,1.0,0.0
147.3760667600436,41.948245097809554,3110.626708984375,72033.3515625,89.8687744140625,300.92041015625,-111.11054229736328,159818.12231654566,-1018.2195619183551,-578550.8419886576,310.14839131885674,-598439.8689575203,4.302368540344503,1.0,1.0,0.0
152.45440108980983,42.730845750079474,3108.3896484375,71966.546875,89.87026977539062,301.0296936035156,-111.71588134765625,159819.43758750026,-1018.2161725719179,-578555.7586294282,318.6381068084156,-598439.9284152886,4.382741251267248,1.0,1.0,0.0
157.6447330408264,43.51529678893042,3106.152587890625,71899.734375,89.87179565429688,301.0841064453125,-112.37890625,159820.7771740932,-1018.2126591611844,-578560.766117852,327.29313368396834,-598439.9864068428,4.463309769016519,1.0,1.0,0.0
162.91917469492182,44.301602351434326,3103.915771484375,71832.921875,89.87026977539062,301.1993408203125,-112.98019409179688,159822.14113554257,-1018.2090255900571,-578565.8646697879,336.1141696712002,-598440.0437023599,4.544074643362535,1.0,1.0,0.0
167.37716837308835,44.95827581458585,3102.051513671875,71777.25,89.87179565429688,301.28875732421875,-113.49054718017578,159823.2964309043,-1018.2059068330574,-578570.1831801734,343.59234707441647,-598440.0909882315,4.611529021461479,1.0,1.0,0.0
172.83162030752283,45.74799065056078,3099.814453125,71710.4375,89.87332153320312,301.31329345703125,-114.18421936035156,159824.7052267045,-1018.2020546468951,-578575.4492409297,352.7195473568281,-598440.1475033683,4.692655188747324,1.0,1.0,0.0
178.39807413809467,46.53957030221717,3097.57763671875,71643.625,89.87332153320312,301.3826904296875,-114.83470153808594,159826.13855587385,-1018.1980887282795,-578580.8069764614,362.01474122621585,-598440.203601472,4.773979156681605,1.0,1.0,0.0
183.07617928856052,47.200646045855585,3095.71337890625,71587.9609375,89.8780517578125,301.4173583984375,-115.40084075927734,159827.35177730015,-1018.1946976884623,-578585.3419419235,369.889569073217,-598440.2500454903,4.84190048506116,1.0,1.0,0.0
188.79867115523666,47.99565336383656,3093.476318359375,71521.140625,89.8780517578125,301.44873046875,-116.0914535522461,159828.83022982808,-1018.190527051159,-578590.8683128965,379.49458687077276,-598440.3054498492,4.92358835949392,1.0,1.0,0.0
194.62925862299744,48.7925361534674,3091.2392578125,71454.3359375,89.87966918945312,301.4951477050781,-116.76791381835938,159830.33337375816,-1018.1862476714582,-578596.486974606,389.26960918097757,-598440.3605368454,5.005475528111219,1.0,1.0,0.0
200.52782500709873,49.5912970539636,3089.00244140625,71387.53125,89.8780517578125,301.5316467285156,-117.45416259765625,159831.86126386977,-1018.1818615198189,-578602.1981459637,399.2153458612738,-598440.4153730047,5.087562404689095,1.0,1.0,0.0
205.53801217058208,50.2583690021895,3087.13818359375,71331.8515625,89.8780517578125,301.5521240234375,-118.03794860839844,159833.1534501975,-1018.1781266640478,-578607.0282803137,407.63438785332255,-598440.4606902257,5.156121125893492,1.0,1.0,0.0
211.61269773414824,51.06058400185225,3084.901123046875,71265.046875,89.8780517578125,301.60198974609375,-118.71339416503906,159834.72685467085,-1018.1735514858334,-578612.9096206304,417.8949755531503,-598440.5148639327,5.2385756336987015,1.0,1.0,0.0
217.79933924472425,51.86468812895563,3082.6640625,71198.234375,89.88131713867188,301.63836669921875,-119.40267181396484,159836.32516638396,-1018.1688762232346,-578618.8840915984,428.3283234555274,-598440.5683670882,5.321231402419926,1.0,1.0,0.0
223.03355948091485,52.53622062832984,3080.800048828125,71142.5546875,89.87966918945312,301.6670227050781,-119.98043823242188,159837.67615928355,-1018.1649051671467,-578623.9341166792,437.15527315530926,-598440.6128711505,5.390265321789457,1.0,1.0,0.0
229.3963209921494,53.343797602692305,3078.56298828125,71075.75,89.88296508789062,301.7059326171875,-120.6695556640625,159839.32027847556,-1018.160052277895,-578630.0798977001,447.90723620716017,-598440.6657416316,5.473291415739823,1.0,1.0,0.0
235.8510795768816,54.15327455441295,3076.325927734375,71008.9375,89.88131713867188,301.71478271484375,-121.38915252685547,159840.9894651158,-1018.155104049213,-578636.3194324926,458.83402811782435,-598440.7183110337,5.5565203029629515,1.0,1.0,0.0
241.30536569736432,54.829292018532776,3074.4619140625,70953.265625,89.8846435546875,333.6482849121094,-90.0,159842.39964141618,-1018.1509095793976,-578641.5908222082,468.07376376958564,-598440.7620334787,5.626032929535995,1.0,1.0,0.0
247.9561717446195,55.64226114863652,3072.224853515625,70886.453125,89.88131713867188,301.76458740234375,-122.6778564453125,159844.11492677004,-1018.1457947534417,-578648.0028150199,479.3229828684125,-598440.8142225981,5.709634910196371,1.0,1.0,0.0
254.67501790670212,56.45714031753189,3069.98779296875,70819.640625,89.8846435546875,335.1085510253906,-90.0,159845.85543797814,-1018.1405924863866,-578654.5091908434,490.7491205225233,-598440.8658606666,5.79344115700701,1.0,1.0,0.0
261.5259762193309,57.27393259729042,3067.750732421875,70752.8359375,89.8863525390625,335.8401794433594,-90.0,159847.62123248316,-1018.1353061744868,-578661.1101700336,502.35291640949436,-598440.9170483054,5.877452139699585,1.0,1.0,0.0
267.26836823357735,57.95605697559243,3065.88671875,70697.1640625,89.8863525390625,336.45062255859375,-90.0,159849.11208235062,-1018.1308374057508,-578666.683414298,512.1589971181238,-598440.9594251965,5.947618081196595,1.0,1.0,0.0
274.2753049326129,58.77636728991025,3063.649658203125,70630.3515625,89.8863525390625,337.18402099609375,-90.0,159850.92437893545,-1018.1254016855166,-578673.4584139591,524.090449739946,-598441.0098393583,6.032005917109245,1.0,1.0,0.0
281.4142626384273,59.598601408362725,3061.41259765625,70563.5390625,89.88809204101562,337.91839599609375,-90.0,159852.7621208347,-1018.1198880940175,-578680.3286506032,536.2016875535483,-598441.05988515,6.116600035022088,1.0,1.0,0.0
288.62127558502834,60.42276336981276,3059.175537109375,70496.7265625,89.8846435546875,338.6537780761719,-90.0,159854.6253666957,-1018.1143009823304,-578687.2943464592,548.4934679410653,-598441.109378203,6.201401014742942,1.0,1.0,0.0
294.6957657202147,61.11104047981549,3057.3115234375,70441.0625,89.88986206054688,339.2673034667969,-90.0,159856.19759595973,-1018.1095905450389,-578693.1721756364,558.8750816332176,-598441.150235765,6.272226923274502,1.0,1.0,0.0
302.1028237231076,61.93874676663325,3055.074462890625,70374.25,89.88809204101562,340.0043640136719,-90.0,159858.10774950645,-1018.1038745216039,-578700.3134643912,571.4998341287719,-598441.198957126,6.357408589729289,1.0,1.0,0.0
309.5739103317028,62.76839136984656,3052.83740234375,70307.4375,89.89166259765625,340.7424011230469,-90.0,159860.04357144362,-1018.098093544178,-578707.5508507725,584.3072899141116,-598441.2472792114,6.442798654912906,1.0,1.0,0.0
315.9165315773571,63.46124591816762,3050.973388671875,70251.765625,89.89166259765625,341.3581848144531,-90.0,159861.67640529678,-1018.0932286115572,-578713.6555761553,595.1202931891894,-598441.2873248698,6.514116702251727,1.0,1.0,0.0
323.58769341988955,64.29445543925489,3048.736328125,70184.953125,89.88986206054688,342.0979919433594,-90.0,159863.6594333878,-1018.087337917885,-578721.0697264387,608.2647129879333,-598441.3352298925,6.599890422866508,1.0,1.0,0.0
331.3468396405224,65.12961479147631,3046.499267578125,70118.1484375,89.89346313476562,342.83880615234375,-90.0,159865.66829192647,-1018.0813927884436,-578728.5806143181,621.5940279521747,-598441.3826520899,6.685874202060177,1.0,1.0,0.0
337.88944640546106,65.82707249264493,3044.635009765625,70062.46875,89.89346313476562,343.4569091796875,-90.0,159867.36211344815,-1018.0763990943458,-578734.9137488412,632.8435875715222,-598441.4221359482,6.757688146078408,1.0,1.0,0.0
345.84872925747186,66.66581644480385,3042.398193359375,69995.6640625,89.89166259765625,344.1995849609375,-90.0,159869.41847639158,-1018.0703618315281,-578742.6025803215,646.513902290957,-598441.4691570258,6.844058483588526,1.0,1.0,0.0
353.9199833946768,67.50652089550627,3040.1611328125,69928.8515625,89.89166259765625,344.94329833984375,-90.0,159871.50083287482,-1018.0642788150286,-578750.3887946492,660.3713267466519,-598441.515984009,6.930640455602429,1.0,1.0,0.0
362.0793126253411,68.34918966558567,3037.924072265625,69862.0390625,89.89166259765625,345.6833801269531,-90.0,159873.60923981506,-1018.0581547153572,-578758.2726202474,674.4166481824359,-598441.5624046919,7.017434633970083,1.0,1.0,0.0
368.9741273537511,69.05291788378337,3036.06005859375,69806.359375,89.89532470703125,346.294677734375,-90.0,159875.38618824864,-1018.0530222797902,-578764.9172044471,686.2651937358314,-598441.6007563941,7.089925727885998,1.0,1.0,0.0
377.313420894905,69.8992011210196,3033.822998046875,69739.5546875,89.89532470703125,347.0172424316406,-90.0,159877.5425078634,-1018.046830394062,-578772.9805781468,700.6570756847505,-598441.6463736563,7.177110768775549,1.0,1.0,0.0
385.7608105627587,70.74746220311509,3031.5859375,69672.75,89.89532470703125,347.7236022949219,-90.0,159879.72504511516,-1018.0406061376174,-578781.1422128847,715.2391265259357,-598441.6916023889,7.264509908012997,1.0,1.0,0.0
392.8756909063086,71.45586045627856,3029.7216796875,69617.0703125,89.897216796875,348.2978210449219,-90.0,159881.56389607646,-1018.0353971263564,-578788.0188009827,727.5366846541874,-598441.7290438483,7.337506525367303,1.0,1.0,0.0
401.5230952942511,72.30775902796245,3027.48486328125,69550.265625,89.897216796875,348.9679260253906,-90.0,159883.79465140862,-1018.0291233754933,-578796.3611785574,742.4694751604693,-598441.7737745871,7.4252998177627205,1.0,1.0,0.0
410.23858562193345,73.1616454704739,3025.247802734375,69483.453125,89.90109252929688,349.6164855957031,-90.0,159886.05178854617,-1018.0228285416935,-578804.8024702886,757.5947090128902,-598441.818337891,7.513308747568942,1.0,1.0,0.0
419.08609677897766,74.01751840429509,3023.0107421875,69416.6484375,89.89913940429688,350.2430725097656,-90.0,159888.33536770483,-1018.0165177865279,-578813.3429089262,772.9131590770558,-598441.8625798858,7.60153336088149,1.0,1.0,0.0
426.5331061515026,74.73226541376047,3021.146484375,69360.96875,89.897216796875,350.7483215332031,-90.0,159890.25859000554,-1018.0112481668863,-578820.5358440294,785.8267102373065,-598441.899109324,7.675218982963315,1.0,1.0,0.0
435.58057132421527,75.59178914302834,3018.90966796875,69294.1640625,89.89913940429688,351.3345031738281,-90.0,159892.59079722196,-1018.0049129296207,-578829.2586504524,801.5014931347687,-598441.9425752579,7.763840418523557,1.0,1.0,0.0
444.69236915628426,76.45330921969592,3016.672607421875,69227.3515625,89.89913940429688,351.89898681640625,-90.0,159894.94961321168,-1017.9985668577726,-578838.0812601328,817.3717957688496,-598441.9857345065,7.852679080547887,1.0,1.0,0.0
453.9399114040425,77.31683006239918,3014.435546875,69160.5390625,89.903076171875,352.44219970703125,-90.0,159897.33509631513,-1017.9922138880256,-578847.0039038017,833.4384430800565,-598442.0287153319,7.941735609884688,1.0,1.0,0.0
461.6989377429709,78.03796148815387,3012.571533203125,69104.8671875,89.90109252929688,352.87890625,-90.0,159899.3434118624,-1017.9869164162734,-578854.5160243645,846.9778949627653,-598442.0642518806,8.016116195408244,1.0,1.0,0.0
471.12263053725474,78.90515920067395,3010.33447265625,69038.0546875,89.89913940429688,353.3841857910156,-90.0,159901.77793688327,-1017.9805585170067,-578863.6226714251,863.4066474316642,-598442.106723178,8.10557355615424,1.0,1.0,0.0
480.6784046748653,79.77436568414016,3008.097412109375,68971.25,89.903076171875,353.869384765625,-90.0,159904.2392949686,-1017.9742031270533,-578872.8300159506,880.0340710383607,-598442.1491336542,8.195250150542904,1.0,1.0,0.0
488.68157551670447,80.50024102262287,3006.233154296875,68915.5703125,89.903076171875,354.2586669921875,-90.0,159906.3109659365,-1017.9689110656108,-578880.5798925834,894.0426158184418,-598442.1842767143,8.270148479754198,1.0,1.0,0.0
498.4172537450213,81.37313818342669,3003.996337890625,68848.7578125,89.903076171875,354.7079162597656,-90.0,159908.82166911388,-1017.9625684795652,-578889.9724552848,911.0364216568414,-598442.226092882,8.360228340793924,1.0,1.0,0.0
508.23716279887594,82.24805236997727,3001.75927734375,68781.953125,89.90512084960938,355.1380310058594,-90.0,159911.35937149636,-1017.9562379585592,-578899.4663785796,928.2312485328875,-598442.2677614556,8.450528845516942,1.0,1.0,0.0
516.5084032935556,82.97869222529756,2999.89501953125,68726.2734375,89.90512084960938,355.48193359375,-90.0,159913.49479090926,-1017.9509739373248,-578907.4555794602,942.714447755483,-598442.3022749512,8.525948363448606,1.0,1.0,0.0
526.5081865427783,83.85731602039459,2997.657958984375,68659.46875,89.90512084960938,355.87744140625,-90.0,159916.08214655935,-1017.9446730076405,-578917.1359422101,960.2800238714553,-598442.3434931268,8.616655114443574,1.0,1.0,0.0
536.6402332568541,84.73796845887327,2995.421142578125,68592.6640625,89.9072265625,356.2542724609375,-90.0,159918.6966686051,-1017.9383901093038,-578926.9183326864,978.0490283501567,-598442.3843612998,8.707584281731101,1.0,1.0,0.0
546.8841603219043,85.6206534121449,2993.18408203125,68525.84375,89.9072265625,356.61260986328125,-90.0,159921.33841762587,-1017.9321269180911,-578936.8029886193,996.0223155703861,-598442.4251261299,8.798736461385545,1.0,1.0,0.0
555.4874380626716,86.35777911698058,2991.31982421875,68470.171875,89.90936279296875,356.8971862792969,-90.0,159923.5607151023,-1017.9269256159786,-578945.1184916275,1011.1567182892468,-598442.45898748,8.874867353630918,1.0,1.0,0.0
565.9075157260522,87.24419824272468,2989.0830078125,68403.359375,89.90936279296875,357.2218017578125,-90.0,159926.25253096054,-1017.9207080751977,-578955.1912481748,1029.5067343012197,-598442.4994032551,8.96642974361589,1.0,1.0,0.0
576.4394715633243,88.13266063054549,2986.845947265625,68336.5546875,89.90936279296875,357.5281066894531,-90.0,159928.97174193079,-1017.9145193782056,-578965.366942092,1048.0634711631574,-598442.5394935441,9.058216847783171,1.0,1.0,0.0
585.3067922216142,88.8746086934875,2984.981689453125,68280.8828125,89.90512084960938,357.7693786621094,-90.0,159931.2587195732,-1017.9093856463593,-578973.9254908273,1063.685947394697,-598442.5727310939,9.134878104938366,1.0,1.0,0.0
596.0390683808364,89.7668248170227,2982.74462890625,68214.0703125,89.90512084960938,358.0419921875,-90.0,159934.02830785222,-1017.9032551917312,-578984.2905211688,1082.623907116591,-598442.6124408795,9.227078526521154,1.0,1.0,0.0
606.8592382577481,90.66109388547638,2980.5078125,68147.265625,89.90936279296875,358.2958984375,-90.0,159936.82545945363,-1017.8971605634047,-578994.7591636181,1101.771042942768,-598442.651823896,9.319505261775362,1.0,1.0,0.0
617.8112456641393,91.5574186233792,2978.270751953125,68080.453125,89.90936279296875,358.5296325683594,-90.0,159939.6502355785,-1017.8911045938233,-579005.3316577191,1121.1282228997443,-598442.6908919489,9.412158806859338,1.0,1.0,0.0
627.0109075234504,92.30592944038264,2976.406494140625,68024.78125,89.90936279296875,358.70623779296875,-90.0,159942.0253606123,-1017.8860896043705,-579014.2215734269,1137.4202962424606,-598442.7232518046,9.48954384041133,1.0,1.0,0.0
638.1429714935366,93.20603369396616,2974.169677734375,67957.96875,89.91152954101562,358.88946533203125,-90.0,159944.90093798758,-1017.8801113108182,-579024.9850848205,1157.1648556530708,-598442.7617967061,9.582614879356129,1.0,1.0,0.0
649.383252692176,94.10820386357433,2971.9326171875,67891.15625,89.91375732421875,359.0323791503906,-90.0,159947.80431188332,-1017.8741795120495,-579035.8531286984,1177.121960073593,-598442.8000561899,9.675914403630372,1.0,1.0,0.0
658.8509230912896,94.86159350782445,2970.068359375,67835.4765625,89.91152954101562,359.1159362792969,-90.0,159950.24506554406,-1017.8692725115404,-579044.9898552073,1193.9158853171393,-598442.8317160719,9.753839018283372,1.0,1.0,0.0
670.2912815894233,95.76756211220967,2967.831298828125,67768.671875,89.90936279296875,359.17523193359375,-90.0,159953.1995553092,-1017.8634278370258,-579056.0501654521,1214.2649803868262,-598442.8693542308,9.847559139792907,1.0,1.0,0.0
681.863598974538,96.67560763042111,2965.594482421875,67701.8671875,89.91375732421875,359.1974182128906,-90.0,159956.18201223228,-1017.8576317349801,-579067.2156901959,1234.8291554548778,-598442.9067427929,9.941509513493827,1.0,1.0,0.0
693.5282047791407,97.58573325153947,2963.357421875,67635.0546875,89.91152954101562,359.1933898925781,-90.0,159959.19249894103,-1017.8518854730379,-579078.4866714217,1255.6093065653695,-598442.9437380483,10.035690700263501,1.0,1.0,0.0
705.3004763399949,98.49794273991509,2961.120361328125,67568.2421875,89.91607666015625,359.174072265625,-90.0,159962.23107539513,-1017.846190290999,-579089.8633515096,1276.6063377477694,-598442.9806462568,10.1301033070647,1.0,1.0,0.0
717.2049532317324,99.41223983493978,2958.88330078125,67501.4296875,89.91152954101562,359.1485290527344,-90.0,159965.29780260217,-1017.8405470952255,-579101.3459738226,1297.8211577874608,-598443.0172095769,10.224747958966248,1.0,1.0,0.0
729.1774240271188,100.32863083033452,2956.646484375,67434.625,89.91152954101562,359.12371826171875,-90.0,159968.39274192438,-1017.8349573952863,-579112.9347819712,1319.2547056124313,-598443.0535144901,10.319625534724253,1.0,1.0,0.0
741.2820994369686,101.24712117364658,2954.409423828125,67367.8125,89.91152954101562,359.1044921875,-90.0,159971.5159535489,-1017.829422988811,-579124.6300194702,1340.907915079617,-598443.0895565192,10.414736830823415,1.0,1.0,0.0
753.4987764848629,102.1677177135326,2952.17236328125,67301.0,89.91375732421875,359.0936584472656,-90.0,159974.6675006099,-1017.8239464400649,-579136.4319319029,1362.7817409082782,-598443.1254030303,10.510082787719853,1.0,1.0,0.0
763.7666318622651,102.93649495974587,2950.30810546875,67245.328125,89.91607666015625,359.09185791015625,-90.0,159977.31547732677,-1017.8194281104534,-579146.3485230599,1381.1791425679112,-598443.1551403215,10.589717648599276,1.0,1.0,0.0
776.1792347169248,103.8609691813384,2948.0712890625,67178.5234375,89.91607666015625,359.0979919433594,-90.0,159980.51912948157,-1017.8140627898438,-579158.3466435395,1403.459910829435,-598443.1904551184,10.685496127143153,1.0,1.0,0.0
786.6232402645983,104.63298723277182,2946.20703125,67122.84375,89.91607666015625,359.1089782714844,-90.0,159983.21061531594,-1017.8096407985626,-579168.4270872849,1422.1977840773761,-598443.2196330385,10.765492734680208,1.0,1.0,0.0
799.2398255284643,105.5613616451074,2943.969970703125,67056.0390625,89.91375732421875,359.12750244140625,-90.0,159986.46658318894,-1017.8043957572239,-579180.6222463779,1444.8887476235395,-598443.254431047,10.861706870204841,1.0,1.0,0.0
811.9645063130883,106.49187357088638,2941.73291015625,66989.2265625,89.91842651367188,359.1496276855469,-90.0,159989.7511764337,-1017.7992211918609,-579192.9252330556,1467.8048440114362,-598443.2888795094,10.958160032536512,1.0,1.0,0.0
824.8251754617086,107.42453074346876,2939.49609375,66922.4140625,89.91607666015625,359.1732177734375,-90.0,159993.0644556739,-1017.7941196441128,-579205.3362960939,1490.9470670166193,-598443.3230601852,11.05485326458819,1.0,1.0,0.0
835.6213599917246,108.20338749832855,2937.6318359375,66866.7421875,89.92340087890625,359.1927185058594,-90.0,159995.8474814937,-1017.7899252356062,-579215.7615879104,1510.4056898920098,-598443.3514166792,11.13561490527735,1.0,1.0,0.0
848.6582412685966,109.13999167857693,2935.394775390625,66799.9296875,89.92340087890625,359.21502685546875,-90.0,159999.2135170891,-1017.7849635217693,-579228.3714415232,1533.9650129420916,-598443.3852175375,11.232750362113336,1.0,1.0,0.0
861.8270205423469,110.07876004411418,2933.157958984375,66733.125,89.92086791992188,359.2353820800781,-90.0,160002.60841735874,-1017.7800820203657,-579241.0900826037,1557.7532774487045,-598443.4187609678,11.330128556315685,1.0,1.0,0.0
872.8672286544461,110.86272467470361,2931.293701171875,66677.4453125,89.92086791992188,359.25067138671875,-90.0,160005.4595964988,-1017.7760770396784,-579251.7722337653,1577.7524373560445,-598443.4465613321,11.411463119333803,1.0,1.0,0.0
886.2601935431594,111.80547906135558,2929.056640625,66610.640625,89.92340087890625,359.2669982910156,-90.0,160008.90757991228,-1017.7713488353219,-579264.6909746146,1601.9630511826836,-598443.479659176,11.509288891142944,1.0,1.0,0.0
899.7171868679579,112.7504174535406,2926.819580078125,66543.828125,89.92340087890625,359.2812805175781,-90.0,160012.3846078534,-1017.766709978441,-579277.7192193656,1626.4054757858394,-598443.5124633246,11.607360178349438,1.0,1.0,0.0
913.3302478967234,113.69754646750319,2924.582763671875,66477.0234375,89.91842651367188,359.29388427734375,-90.0,160015.89074538124,-1017.7621623304493,-579290.8572239939,1651.080731691909,-598443.5449518958,11.705677927012232,1.0,1.0,0.0
924.7463165543741,114.4885010963315,2922.718505859375,66421.3515625,89.92086791992188,359.3033142089844,-90.0,160018.83480980317,-1017.7584440770331,-579301.889589499,1671.8220691586612,-598443.571752585,11.78779857417885,1.0,1.0,0.0
938.5595162097597,115.4396678693945,2920.4814453125,66354.5390625,89.92599487304688,359.3136291503906,-90.0,160022.3944819475,-1017.7540701453399,-579315.2294836934,1696.9269017658662,-598443.6036693566,11.886571089049312,1.0,1.0,0.0
952.4605464012129,116.39304843188417,2918.244384765625,66287.7265625,89.92340087890625,359.32305908203125,-90.0,160025.9834470572,-1017.7497950610649,-579328.6798635428,1722.2675386166666,-598443.6353769453,11.985593208251942,1.0,1.0,0.0
964.1449910561787,117.18922759734724,2916.38037109375,66232.046875,89.92340087890625,359.33050537109375,-90.0,160028.99667336384,-1017.7463098978864,-579339.9730988265,1743.5656103872461,-598443.6615824098,12.068302949842575,1.0,1.0,0.0
978.2901660548523,118.14668448904102,2914.143310546875,66165.2421875,89.92340087890625,359.3389892578125,-90.0,160032.6395085111,-1017.7422231835565,-579353.6267067101,1769.3412734082667,-598443.6926599124,12.167785221205804,1.0,1.0,0.0
992.523355245823,119.10637636520174,2911.90625,66098.4296875,89.92340087890625,359.3470764160156,-90.0,160036.31182149137,-1017.7382440074699,-579367.3915339909,1795.3557405360043,-598443.7232434743,12.267520070696776,1.0,1.0,0.0
1006.8888104725629,120.06831023782357,2909.66943359375,66031.625,89.92340087890625,359.35491943359375,-90.0,160040.01367936542,-1017.7343754438623,-579381.2678408434,1821.6100764397997,-598443.753512023,12.367508492819695,1.0,1.0,0.0
1018.9489926233655,120.87164069459789,2907.80517578125,65975.9453125,89.92868041992188,359.3612976074219,-90.0,160043.12117622566,-1017.731238524737,-579392.9167763097,1843.6727092687506,-598443.7786080664,12.451026723012944,1.0,1.0,0.0
1033.5386946519138,121.83770874744738,2905.568115234375,65909.1328125,89.92086791992188,359.3688049316406,-90.0,160046.877368915,-1017.727581974247,-579406.9981433612,1870.369660166325,-598443.8085349634,12.551483211109655,1.0,1.0,0.0
1048.215922442847,122.80604137934532,2903.3310546875,65842.328125,89.92868041992188,359.37615966796875,-90.0,160050.66329309257,-1017.7240441358013,-579421.1917334567,1897.3095652468037,-598443.8379212291,12.652196413209595,1.0,1.0,0.0
1060.5645009179134,123.61472314724875,2901.467041015625,65786.65625,89.92599487304688,359.3822021484375,-90.0,160053.8409892205,-1017.7211892042113,-579433.1056419652,1919.9458981174976,-598443.8623188523,12.736321204735873,1.0,1.0,0.0
1075.4619466275908,124.58723302492115,2899.22998046875,65719.84375,89.92599487304688,359.38934326171875,-90.0,160057.68159420116,-1017.7178773621999,-579447.5056620648,1947.3341447779676,-598443.8912117283,12.83750841165704,1.0,1.0,0.0
1090.4712119974429,125.56203206489151,2896.992919921875,65653.0390625,89.92340087890625,359.39630126953125,-90.0,160061.5521204233,-1017.7146908702407,-579462.0186568042,1974.9685086327372,-598443.9198981106,12.93895567758483,1.0,1.0,0.0
1103.063935051905,126.37611918338571,2895.12890625,65597.359375,89.92868041992188,359.4020080566406,-90.0,160064.8004630634,-1017.7121338634255,-579474.1993115891,1998.1859620729228,-598443.9435033257,13.023694551788708,1.0,1.0,0.0
1118.317465901724,127.35513615849513,2892.891845703125,65530.55078125,89.92599487304688,359.4087219238281,-90.0,160068.72601884013,-1017.7091864224976,-579488.9201204533,2026.2744617715944,-598443.9716362332,13.125621549371772,1.0,1.0,0.0
1133.6591340926243,128.33646742154616,2890.65478515625,65463.7421875,89.92868041992188,359.415283203125,-90.0,160072.6816859663,-1017.7063738858488,-579503.7546633668,2054.6123042159015,-598443.9994719016,13.227812045788482,1.0,1.0,0.0
1146.5398257778725,129.15601645767876,2888.79052734375,65408.06640625,89.92599487304688,359.42059326171875,-90.0,160076.00112605418,-1017.7041346894116,-579516.2038562996,2078.4184573402163,-598444.022365418,13.313172826813798,1.0,1.0,0.0
1162.1255159032298,130.14160979664598,2886.5537109375,65341.2578125,89.93145751953125,359.4268493652344,-90.0,160080.01217578448,-1017.701574920733,-579531.2476121115,2107.2163747444283,-598444.0496799112,13.415849173318747,1.0,1.0,0.0
1177.7992205370683,131.1295405242764,2884.316650390625,65274.44921875,89.93145751953125,359.4329528808594,-90.0,160084.05353027693,-1017.6991567873632,-579546.4058687359,2136.2668907067273,-598444.0766392561,13.518792269195046,1.0,1.0,0.0
1193.609035623842,132.11981736983577,2882.07958984375,65207.63671875,89.92599487304688,359.4388122558594,-90.0,160088.12526075312,-1017.6968825482664,-579561.678899329,2165.571175109013,-598444.1032709411,13.622003324357536,1.0,1.0,0.0
1206.8657103565056,132.94684613974061,2880.215576171875,65151.96875,89.92599487304688,359.4436340332031,-90.0,160091.5416204916,-1017.6950993811164,-579574.4942957032,2190.1861054342007,-598444.1253214006,13.708218056876092,1.0,1.0,0.0
1222.8955000226852,133.9414452991554,2877.978515625,65085.15625,89.92599487304688,359.4492492675781,-90.0,160095.6692158057,-1017.69309631903,-579589.9784552923,2219.9586714081233,-598444.1515178073,13.81192335493472,1.0,1.0,0.0
1239.0333235340659,134.9384154982767,2875.741455078125,65018.34765625,89.92868041992188,359.4547424316406,-90.0,160099.82737995923,-1017.6912474083294,-579605.5781663469,2249.9883612593403,-598444.1775037864,13.915900072969862,1.0,1.0,0.0
1255.307013709331,135.93776327962945,2873.50439453125,64951.53515625,89.92868041992188,359.46014404296875,-90.0,160104.0161834961,-1017.6895555740314,-579621.2937049775,2280.2763423972065,-598444.2031182433,14.020149213784123,1.0,1.0,0.0
1268.9400375700789,136.7723763635769,2871.640380859375,64895.859375,89.93145751953125,359.4645080566406,-90.0,160107.53030925617,-1017.6882669687928,-579634.4786671249,2305.7145123413065,-598444.2241962741,14.107232559959812,1.0,1.0,0.0
1285.434189834632,137.7761091385301,2869.4033203125,64829.05078125,89.93438720703125,359.4696350097656,-90.0,160111.77546764901,-1017.6868688977703,-579650.4072773729,2336.479210048332,-598444.2490506602,14.211984683635762,1.0,1.0,0.0
1302.040161255747,138.78224511085395,2867.166259765625,64762.2421875,89.93438720703125,359.474609375,-90.0,160116.05146757097,-1017.6856363035598,-579666.4525047054,2367.5056446109666,-598444.273591899,14.317012796428003,1.0,1.0,0.0
1315.9850802596193,139.62253463933777,2865.302001953125,64706.5625,89.92868041992188,359.4786376953125,-90.0,160119.63840987126,-1017.684736880017,-579679.9128111668,2393.5618392081233,-598444.2939053728,14.404748017359793,1.0,1.0,0.0
1332.7913723815,140.6331014934469,2863.065185546875,64639.7578125,89.93145751953125,359.4833679199219,-90.0,160123.97113289288,-1017.683813924078,-579696.1725630683,2425.071346080629,-598444.3177505964,14.510285563679076,1.0,1.0,0.0
1349.7496440166142,141.64609748004048,2860.828125,64572.9453125,89.93438720703125,359.48797607421875,-90.0,160128.33489839887,-1017.6830630363686,-579712.5497281398,2456.846099330578,-598444.3413533511,14.616102721422067,1.0,1.0,0.0
1366.819490217371,142.66153259127404,2858.591064453125,64506.13671875,89.93145751953125,359.492431640625,-90.0,160132.72977764352,-1017.6824872736707,-579729.0445893407,2488.8873651088215,-598444.3644811425,14.722200874254327,1.0,1.0,0.0
1381.1208612325136,143.50959753634774,2856.72705078125,64450.46484375,89.93438720703125,359.49609375,-90.0,160136.4159952752,-1017.6821436470044,-579742.880419617,2515.7929030037485,-598444.3838289892,14.810831475256578,1.0,1.0,0.0
1398.4349732877454,144.5295273394438,2854.489990234375,64383.65234375,89.93743896484375,359.5003662109375,-90.0,160140.86810161624,-1017.6818975391129,-579759.5917982911,2548.3260442632018,-598444.4067028961,14.917448020160464,1.0,1.0,0.0
1415.8372223211918,145.55192123897535,2852.2529296875,64316.84375,89.93743896484375,359.5045471191406,-90.0,160145.35152500894,-1017.6818365133066,-579776.4216815162,2581.1292788523715,-598444.4290059205,15.024349123887816,1.0,1.0,0.0
1430.4464597110637,146.40580555160312,2850.388671875,64261.16796875,89.93438720703125,359.5079650878906,-90.0,160149.11168759898,-1017.6819292557033,-579790.5373162869,2608.6725609177956,-598444.4474390678,15.113651721568033,1.0,1.0,0.0
1448.0926085659303,147.43274187523187,2848.15185546875,64194.359375,89.93438720703125,359.511962890625,-90.0,160153.65271580062,-1017.6822148408103,-579807.5852062504,2641.9743216496427,-598444.4692684793,15.221077977945356,1.0,1.0,0.0
1465.8509437633911,148.46216931348474,2845.914794921875,64127.546875,89.93145751953125,359.515869140625,-90.0,160158.22526880543,-1017.682692219453,-579824.7524183544,2675.5498487019213,-598444.49079503,15.328792576077205,1.0,1.0,0.0
1483.7417264793767,149.49409796664867,2843.677734375,64060.7421875,89.93743896484375,359.5196838378906,-90.0,160162.82941905924,-1017.6833642875962,-579842.0392431484,2709.400463549886,-598444.5120152707,15.436796920788481,1.0,1.0,0.0
1498.750994754373,150.35595525224753,2841.8134765625,64005.0625,89.93145751953125,359.52276611328125,-90.0,160166.69040182963,-1017.684075066728,-579856.536511836,2737.820386673906,-598444.5294349733,15.527022768635959,1.0,1.0,0.0
1516.841487888596,151.39249200033413,2839.57666015625,63938.25390625,89.93438720703125,359.52642822265625,-90.0,160171.35267275292,-1017.6851114947007,-579874.0433847914,2772.178730627056,-598444.5501270692,15.635561588776852,1.0,1.0,0.0
1535.108010274358,152.43155676585167,2837.339599609375,63871.4453125,89.93743896484375,359.530029296875,-90.0,160176.04675045374,-1017.6863504812758,-579891.6707000053,2806.8159224265255,-598444.5705411563,15.744393963182745,1.0,1.0,0.0
1550.4057341425214,153.29938032253747,2835.475341796875,63815.76953125,89.93438720703125,359.5329284667969,-90.0,160179.98283177646,-1017.687538930158,-579906.4523462609,2835.8941997283837,-598444.5872846892,15.835312652516336,1.0,1.0,0.0
1568.8719674642198,154.34310157416516,2833.238525390625,63748.96484375,89.940673828125,359.536376953125,-90.0,160184.73541550137,-1017.6891558970445,-579924.3012381811,2871.046062177513,-598444.6071464337,15.944686433841127,1.0,1.0,0.0
1587.4505051522283,155.389377521938,2831.00146484375,63682.15234375,89.940673828125,359.53973388671875,-90.0,160189.52001729698,-1017.6909832006576,-579942.2714099698,2906.480597411515,-598444.6267122277,16.05435759352929,1.0,1.0,0.0
1606.185663570417,156.43821648868075,2828.764404296875,63615.33984375,89.93438720703125,359.5430603027344,-90.0,160194.33671246585,-1017.6930213161901,-579960.3631600307,2942.199152876856,-598444.6460546087,16.164327369948012,1.0,1.0,0.0
1621.8789036463713,157.31421354926817,2826.900146484375,63559.6640625,89.93743896484375,359.5457458496094,-90.0,160198.37519430622,-1017.6948834791544,-579975.5327060638,2972.182565876865,-598444.6619701635,16.256197935643627,1.0,1.0,0.0
1640.833913229988,158.36777572398518,2824.663330078125,63492.85546875,89.94406127929688,359.54888916015625,-90.0,160203.25092320007,-1017.6973165859348,-579993.8481256227,3008.4253997356864,-598444.6805880946,16.366718713929856,1.0,1.0,0.0
1659.9207619830268,159.42392763702455,2822.42626953125,63426.046875,89.93438720703125,359.5520324707031,-90.0,160208.15895963917,-1017.6999712726175,-580012.2859735898,3044.956169985002,-598444.6991334909,16.477541965350156,1.0,1.0,0.0
1675.9063650538446,160.30603918431478,2820.56201171875,63370.375,89.93438720703125,359.5545349121094,-90.0,160212.27372520266,-1017.7023535207743,-580027.7445856547,3075.619437781046,-598444.714226632,16.57012672346974,1.0,1.0,0.0
1695.2372347587952,161.3669628901028,2818.324951171875,63303.5625,89.940673828125,359.5575256347656,-90.0,160217.241190708,-1017.7054189992064,-580046.4076699393,3112.6817206355045,-598444.7323726668,16.681508028279097,1.0,1.0,0.0
1714.656243137084,162.43050351841148,2816.088134765625,63236.75390625,89.93743896484375,359.56048583984375,-90.0,160222.24117867858,-1017.7087122265374,-580065.1940395655,3150.0359327000333,-598444.7500728549,16.79319576789277,1.0,1.0,0.0
1730.973638846539,163.31879196928378,2814.223876953125,63181.08203125,89.940673828125,359.56292724609375,-90.0,160226.43273607767,-1017.7116323588191,-580080.9437456379,3181.3884492187062,-598444.7647621799,16.88650381721584,1.0,1.0,0.0
1750.636790571618,164.3871529841448,2811.98681640625,63114.26953125,89.93743896484375,359.56585693359375,-90.0,160231.49255104718,-1017.7153504438772,-580099.9569345966,3219.281536994851,-598444.7819560802,16.99875673905325,1.0,1.0,0.0
1770.4360535648884,165.45815752822264,2809.75,63047.4609375,89.94406127929688,359.5686950683594,-90.0,160236.58510970898,-1017.7193034201063,-580119.0942768932,3257.470607309602,-598444.7986910838,17.111320007163442,1.0,1.0,0.0
1790.3632481603418,166.53181363459325,2807.512939453125,62980.65234375,89.94406127929688,359.5715026855469,-90.0,160241.71049010445,-1017.7234933323722,-580138.3560820175,3295.957083590096,-598444.8151996621,17.224194854419807,1.0,1.0,0.0
1807.0809194952017,167.42855953936626,2805.648681640625,62924.9765625,89.940673828125,359.5738220214844,-90.0,160246.00676906554,-1017.7271680133135,-580154.5028836369,3328.2573856596136,-598444.8286000252,17.318496274582344,1.0,1.0,0.0
1827.2521370348986,168.50710387343884,2803.41162109375,62858.16796875,89.94406127929688,359.5765075683594,-90.0,160251.1925262766,-1017.7317990856785,-580173.9936719888,3367.292938225437,-598444.8444411992,17.431946254872287,1.0,1.0,0.0
1847.5392012302764,169.58832743901743,2801.1748046875,62791.359375,89.94766235351562,359.57916259765625,-90.0,160256.411327686,-1017.7366753486326,-580193.6098010794,3406.6300631123595,-598444.860011818,17.545711878394286,1.0,1.0,0.0
1867.9548080655513,170.67224046528557,2798.937744140625,62724.55078125,89.940673828125,359.5817565917969,-90.0,160261.66325152296,-1017.7418004945141,-580213.3515840021,3446.270256292657,-598444.8752991891,17.659794635000594,1.0,1.0,0.0
1885.0924077014206,171.57756227914143,2797.073486328125,62668.87109375,89.94406127929688,359.58392333984375,-90.0,160266.06521380134,-1017.746263369947,-580229.8992812951,3479.5363313838607,-598444.8878134466,17.755106840166945,1.0,1.0,0.0
1905.7522810442606,172.66642953994716,2794.83642578125,62602.0625,89.940673828125,359.5864562988281,-90.0,160271.37806963106,-1017.7518530129848,-580249.8722445419,3519.7360135654453,-598444.9024534082,17.8697745819876,1.0,1.0,0.0
1926.5472889998928,173.75801286715932,2792.599609375,62535.25390625,89.94406127929688,359.5889587402344,-90.0,160276.72427399442,-1017.7576992919558,-580269.9717519488,3560.2430097367615,-598444.9167958511,17.98476345062113,1.0,1.0,0.0
1943.99373263109,174.66974736583543,2790.7353515625,62479.578125,89.940673828125,359.5910339355469,-90.0,160281.20497619762,-1017.7627684018946,-580286.8182359461,3594.2346906358143,-598444.9285449714,18.08083385222551,1.0,1.0,0.0
1965.0328846051125,175.7663352415076,2788.498291015625,62412.765625,89.940673828125,359.5934753417969,-90.0,160286.61252769167,-1017.7690911573186,-580307.1505653344,3635.309054775047,-598444.942270806,18.1964152139185,1.0,1.0,0.0
1986.1805592946475,176.86566675656516,2786.261474609375,62345.95703125,89.94406127929688,359.59588623046875,-90.0,160292.0536553074,-1017.7756793483871,-580327.6103394647,3676.6950717230793,-598444.9556872626,18.31232182892893,1.0,1.0,0.0
2003.9388981662923,177.78387827932156,2784.397216796875,62290.28515625,89.93743896484375,359.59783935546875,-90.0,160296.61363575223,-1017.7813743619654,-580344.7577361764,3711.422587514855,-598444.9666099045,18.409160092551645,1.0,1.0,0.0
2025.3302295720205,178.88826246881317,2782.16015625,62223.47265625,89.94406127929688,359.6001892089844,-90.0,160302.1165312113,-1017.7884564166294,-580365.4519910191,3753.3839488832746,-598444.9795023706,18.525666535880532,1.0,0.9995091040780616,0.0
2046.8779362690402,179.99541766128314,2779.923095703125,62156.66796875,89.94406127929688,359.6025085449219,-90.0,160307.65323309336,-1017.7958108875782,-580386.2745996243,3795.661372363218,-598444.9919376993,18.6425023782607,1.0,0.9990915128630031,0.0
2068.581894177245,181.1053534071527,2777.686279296875,62089.8515625,89.94406127929688,359.6048278808594,-90.0,160313.22382376244,-1017.8034399300408,-580407.2258855253,3838.256429805304,-598445.0042180883,18.759669057872145,1.0,0.9986708935236968,0.0
2086.7361143304734,182.03243083798787,2775.822021484375,62034.18359375,89.940673828125,359.6068115234375,-90.0,160317.89192780497,-1017.8100088784685,-580424.7838192908,3873.9960893087555,-598445.0143026455,18.85756174151919,1.0,0.998319067551735,0.0
2108.6837291144766,183.14748700617525,2773.5849609375,61967.37109375,89.94766235351562,359.60919189453125,-90.0,160323.5248570591,-1017.8181494680252,-580445.9718564933,3917.1775506279664,-598445.0263193903,18.97533853646263,1.0,0.997893726179952,0.0
2130.7197249135934,184.26534537896316,2771.347900390625,61900.56640625,89.93743896484375,359.6116943359375,-90.0,160329.1919054811,-1017.8265748590591,-580467.2894922066,3960.6810490174685,-598445.037972383,19.093449767084337,1.0,0.9974666719977986,0.0
2149.2062256264035,185.19903906689493,2769.48388671875,61844.8828125,89.940673828125,359.6138610839844,-90.0,160333.94056863207,-1017.833815224672,-580485.1534225076,3997.1810776839266,-598445.047328594,19.192132078984287,1.0,0.9971084064801086,0.0
2171.510048167431,186.32205366462057,2767.246826171875,61778.078125,89.9515380859375,359.61663818359375,-90.0,160339.67038500577,-1017.8427699004171,-580506.7095039954,4041.27904220426,-598445.058305083,19.310859648633993,1.0,0.9966761618572204,0.0
2193.9415583515074,187.44789070038948,2765.009765625,61711.26953125,89.940673828125,359.61968994140625,-90.0,160345.43455651548,-1017.8520184940992,-580528.396110415,4085.703487496008,-598445.0686222007,19.429925143809612,1.0,0.9962414426676064,0.0
2216.5097899331013,188.57655046465175,2762.77294921875,61644.45703125,89.94766235351562,359.623046875,-90.0,160351.23316944152,-1017.8615629021753,-580550.2135705515,4130.455863794545,-598445.0782076952,19.5493290865208,1.0,0.9958040738385058,0.0
2235.420370917651,189.51925951981596,2760.90869140625,61588.78125,89.9515380859375,359.62615966796875,-90.0,160356.09171802158,-1017.86974365271,-580568.4949811811,4168.001116917701,-598445.0856529117,19.649091574817533,1.0,0.9954375897108982,0.0
2258.252522770199,190.6531001729203,2758.671630859375,61521.96875,89.9515380859375,359.6305236816406,-90.0,160361.95369372907,-1017.8798349052349,-580590.553191528,4213.358573964564,-598445.0948760302,19.769117832324582,1.0,0.9949951061478643,0.0
2281.220418380457,191.789759822612,2756.4345703125,61455.1640625,89.95574951171875,359.6359558105469,-90.0,160367.8503467574,-1017.890228280422,-580612.7431864529,4259.048003070988,-598445.1031494288,19.889483559948474,1.0,0.9945499918918516,0.0
2300.4393541074824,192.73911771622463,2754.570556640625,61399.48828125,89.95574951171875,359.6413269042969,-90.0,160372.79077935408,-1017.8991223207283,-580631.3357509952,4297.376932511223,-598445.1087244869,19.990046808014938,1.0,0.9941775318971419,0.0
2323.671414385317,193.8809000742718,2752.33349609375,61332.68359375,89.96044921875,359.64923095703125,-90.0,160378.7512482264,-1017.910076812106,-580653.7681903341,4343.677861264208,-598445.112293823,20.11103164245975,1.0,0.9937272981708273,0.0
2347.0160257384414,195.0254454068426,2750.096435546875,61265.87109375,90.0,359.6586608886719,-90.0,160384.74667286393,-1017.9213404689052,-580676.333321743,4390.313768571708,-598445.1114679165,20.232351743273853,1.0,0.9932748832221233,0.0
2370.4919871318853,196.17272621191165,2747.859375,61199.0625,89.980224609375,359.6700744628906,-90.0,160390.77716015698,-1017.9329157497093,-580699.0314577634,4437.285537908436,-598445.1056014057,20.35400478556926,1.0,0.9928199227300022,0.0
2394.12029504159,197.32270887982224,2745.62255859375,61132.25,90.0,359.6836853027344,-90.0,160396.8428269038,-1017.944807726156,-580721.8629043555,4484.593922338914,-598445.0929689027,20.47598788031746,1.0,0.9923620097860156,0.0
2417.8845913504483,198.47534946703337,2743.385498046875,61065.4375,90.0,359.6998596191406,-90.0,160402.94380051942,-1017.9570192678989,-580744.827959812,4532.239446307998,-598445.071606325,20.598297075379833,1.0,0.991901461407937,0.0
2441.7773085733643,199.63059914032925,2741.1484375,60998.6328125,89.980224609375,359.71893310546875,-90.0,160409.08022052678,-1017.9695530917514,-580767.9269124984,4580.222513010376,-598445.0390237817,20.720927944638674,1.0,0.9914384242524542,0.0
2465.8602140422445,200.78839968329913,2738.911376953125,60931.8203125,89.96572875976562,359.7411193847656,-90.0,160415.25224353,-1017.9824109949551,-580791.1600402407,4628.543308408116,-598444.9921949315,20.843875118420215,1.0,0.9909717012782511,0.0
2486.034976545372,201.75513703155832,2737.04736328125,60876.1484375,89.940673828125,359.7620849609375,-90.0,160420.42291809834,-1017.9933756068127,-580810.6236665562,4669.068674483686,-598444.9399434379,20.946568540439785,1.0,0.9905807175088106,0.0
2510.361297001946,202.9174514549666,2734.810302734375,60809.33984375,89.91607666015625,359.7902526855469,-90.0,160426.66068227857,-1018.0068353689707,-580834.1034596169,4718.008782555698,-598444.8575089872,21.070080573384757,1.0,0.9901092771898847,0.0
2534.821897346643,204.0821387770246,2732.5732421875,60742.53125,89.8863525390625,359.8211975097656,-90.0,160432.9346112301,-1018.0206277687624,-580857.7181388244,4767.286712836125,-598444.7494687937,21.19389253893064,1.0,0.9896352345475458,0.0
2555.307216071291,205.05448409027326,2730.709228515625,60686.85546875,89.85873413085938,91.74854278564453,2.043365478515625,160438.19067825982,-1018.0323758042294,-580877.5002409208,4808.609786463669,-598444.6392416746,21.297294515962676,1.0,0.9892382322466804,0.0
2580.011232974357,206.22338315712787,2728.47216796875,60620.046875,89.82086181640625,91.47606658935547,1.7703857421875,160444.53152547913,-1018.0467793548668,-580901.3627939238,4858.507440281799,-598444.4790932257,21.42164357032442,1.0,0.9887594722291791,0.0
2604.870285689365,207.39451451098142,2726.235107421875,60553.234375,89.78692626953125,91.27542877197266,1.5670166015625,160450.90925107678,-1018.0615197471772,-580925.3608455369,4908.743532811175,-598444.2847597058,21.546279927137675,1.0,0.988277707641679,0.0
2625.712061157101,208.37214187112374,2724.370849609375,60497.55859375,89.75531005859375,91.15010833740234,1.441253662109375,160456.2523917203,-1018.0740625298729,-580945.4628715061,4950.865900036646,-598444.097769451,21.650361168760355,1.0,0.9878737972643972,0.0
2650.8155070422217,209.54729592803247,2722.134033203125,60430.75,89.71676635742188,91.03113555908203,1.31988525390625,160462.69844716313,-1018.0894269967037,-580969.7098519774,5001.724114647252,-598443.8412128566,21.775518283886072,1.0,0.9873872963751508,0.0
2676.073500130442,210.7246139945066,2719.89697265625,60363.94140625,89.6773681640625,90.9411392211914,1.228729248046875,160469.18218894457,-1018.1051355060238,-580994.0928817282,5052.922757925931,-598443.5460193763,21.900957385539073,1.0,0.986897800385069,0.0
2701.5087438845076,211.90409324654658,2717.659912109375,60297.1328125,89.63577270507812,90.86383819580078,1.149932861328125,160475.70391327256,-1018.1211904468402,-581018.6121479063,5104.46294530842,-598443.2154212986,22.02667848692039,1.0,0.9864048693045638,0.0
2727.033837330062,213.08573289314123,2715.4228515625,60230.3203125,89.59603881835938,90.79952239990234,1.084136962890625,160482.26391169088,-1018.1375946926217,-581043.2678380129,5156.34587327647,-598442.8480724589,22.152682149584678,1.0,0.9859101969509677,0.0
2748.430078851874,214.07208128565404,2713.558837890625,60174.6484375,89.56256103515625,90.7532958984375,1.0372314453125,160487.76002700557,-1018.1515331848583,-581063.9185955438,5199.844295397401,-598442.5142264137,22.257901248533642,1.0,0.9854955411075218,0.0
2774.2425355454907,215.25767322041202,2711.32177734375,60107.8359375,89.5198974609375,90.70587921142578,0.9881591796875,160494.3909633466,-1018.1685831606088,-581088.8248835385,5252.358537174063,-598442.0787760037,22.38442353904844,1.0,0.9849952996987308,0.0
2795.8380038122414,216.24730936498125,2709.45751953125,60052.16015625,89.48565673828125,90.67182922363281,0.952606201171875,160499.94662130447,-1018.183062870112,-581109.6847289428,5296.384646155289,-598441.6845005287,22.490075267400528,1.0,0.9845767828718558,0.0
2821.895836696378,217.43685072562067,2707.220703125,59985.3515625,89.44293212890625,90.63121795654297,0.91082763671875,160506.649507496,-1018.2007662627308,-581134.8422358776,5349.5341502887895,-598441.1877976864,22.617117240097343,1.0,0.9840717861105353,0.0
2848.1062592334347,218.62851078356002,2704.983642578125,59918.546875,89.39736938476562,90.5902099609375,0.868377685546875,160513.39199881966,-1018.2188308319008,-581160.1370496587,5403.0311128158355,-598440.6524128871,22.744440123857203,1.0,0.9835638321853986,0.0
