obs_alt,obs_vel,obs_fuel,obs_mass,obs_pitch,obs_heading,obs_roll,obs_pos_x,obs_pos_y,obs_pos_z,obs_ap,obs_pe,obs_time_to_ap,act_throttle,act_pitch,act_stage
19.815145905362442,26.994831848317066,2468.710693359375,48428.12109375,89.95574951171875,289.39697265625,-90.0,159785.6132208924,-1018.0253952539497,-578427.3889584023,129.61166914366186,-598435.5366346721,2.76723197440964,1.0,1.0,0.0
23.481460355455056,33.08705174319719,2457.31298828125,48301.48046875,89.96044921875,297.15252685546875,-90.0,159786.5862949951,-1018.0301827176445,-578430.9237804848,152.04093709366862,-598435.5734254819,3.3919255193196136,1.0,1.0,0.0
27.880013702088036,39.19580913711009,2445.91552734375,48174.83984375,89.96044921875,305.4546203613281,-90.0,159787.75394914197,-1018.0353863744967,-578435.164512946,179.07612256438006,-598435.575048517,4.018426247819775,1.0,1.0,0.0
33.01273099356331,45.32031274965458,2434.51806640625,48048.19921875,89.95574951171875,314.0575866699219,-90.0,159789.1168720509,-1018.041006090396,-578440.1129676669,210.7477681656601,-598435.5477317838,4.646674513056098,1.0,1.0,0.0
38.88144574407488,51.45983953862776,2423.120361328125,47921.5625,89.9515380859375,322.5251159667969,-90.0,159790.67560503114,-1018.0470310731762,-578445.7708977683,247.08499112469144,-598435.5136180001,5.276617579583615,1.0,1.0,0.0
45.48792098171543,57.6137944399455,2411.72265625,47794.921875,89.95574951171875,330.7138671875,-90.0,159792.4306218328,-1018.0534482731455,-578452.1399998735,288.11607250070665,-598435.466082158,5.908216455032914,1.0,1.0,0.0
52.83386379049625,63.781645499380154,2400.3251953125,47668.28125,89.96044921875,338.4786376953125,-90.0,159794.38243128324,-1018.060336215698,-578459.2218904116,333.8684309909586,-598435.4018787331,6.5414388325784785,1.0,1.0,0.0
60.920903464080766,69.9629065332791,2388.927490234375,47541.640625,89.95574951171875,345.6109924316406,-90.0,159796.53147966354,-1018.0678080583893,-578467.0181421223,384.36868711875286,-598435.3352113434,7.176256933950469,1.0,1.0,0.0
69.75058457802515,76.1571424207432,2377.52978515625,47415.0,89.96572875976562,351.97515869140625,-90.0,159798.87814008497,-1018.0759214091086,-578475.5302859421,439.642871022108,-598435.2657904981,7.812648695381597,1.0,1.0,0.0
79.32448763947468,82.36392091599068,2366.13232421875,47288.359375,89.96044921875,357.4795837402344,-90.0,159801.42278342778,-1018.0847510484018,-578484.7598093709,499.7161718403222,-598435.1960997006,8.450592480753699,1.0,1.0,0.0
89.64403234957717,88.5826785109262,2354.734619140625,47161.71875,89.9720458984375,2.0059235095977783,-90.0,159804.1657289482,-1018.0943895320379,-578494.7081405823,564.6116965514375,-598435.1343496992,9.090053163073435,1.0,1.0,0.0
100.71053853130434,94.811489701804,2343.3369140625,47035.078125,89.9515380859375,5.327040195465088,-90.0,159807.10719920776,-1018.1048867574864,-578505.3765797173,634.3379998330493,-598435.0831265514,9.73085581759932,1.0,1.0,0.0
112.52532854897436,101.05190980374523,2331.939453125,46908.4375,89.96044921875,6.97144889831543,-90.0,159810.2474173656,-1018.1162824577623,-578516.7663994147,708.9350630521076,-598435.045727984,10.37318350966217,1.0,1.0,0.0
125.08982395543717,107.3047046251536,2320.5419921875,46781.796875,89.9515380859375,7.156560897827148,-90.0,159813.58668674264,-1018.1285808741086,-578528.8790306775,788.4386708645616,-598435.0056600368,11.017139273055363,1.0,1.0,0.0
138.40549946122337,113.56931390908181,2309.14404296875,46655.15625,89.95574951171875,6.210099697113037,-90.0,159817.1253109585,-1018.1416818595462,-578541.7158907569,872.8713538283482,-598434.976481192,11.662688960273783,1.0,1.0,0.0
152.47375033213757,119.84568399590017,2297.74658203125,46528.51953125,89.9515380859375,4.351564884185791,-90.0,159820.86356017523,-1018.1555220841401,-578555.2783781878,962.2607251807349,-598434.9562763717,12.309851294442922,1.0,1.0,0.0
167.29598964366596,126.1338373978447,2286.34912109375,46401.87890625,89.9515380859375,1.8913865089416504,-90.0,159824.80169641468,-1018.1700931622618,-578569.567876512,1056.635564945871,-598434.9429753093,12.958653133352072,1.0,1.0,0.0
182.8736413141014,132.43373696751343,2274.951416015625,46275.23828125,89.94766235351562,359.1217041015625,-90.0,159828.9400092001,-1018.1853642522328,-578584.585769869,1156.024191339966,-598434.938260169,13.609115303206408,1.0,1.0,0.0
199.2080688684946,138.74530279581643,2263.5537109375,46148.59765625,89.940673828125,356.3927001953125,-90.0,159833.27874119204,-1018.2012932582729,-578600.3334561959,1260.4545358947944,-598434.9438955269,14.261254464995773,1.0,1.0,0.0
216.3007266415516,145.06829100749027,2252.15625,46021.95703125,89.94406127929688,354.1871643066406,-90.0,159837.81818876596,-1018.2178424878948,-578616.8122964995,1369.9522024063626,-598434.9550490293,14.915070908591701,1.0,1.0,0.0
234.15297048783395,151.40321469063252,2240.758544921875,45895.31640625,89.93743896484375,352.79302978515625,-90.0,159842.55861890994,-1018.234989477598,-578634.0236405653,1484.5542831799248,-598434.9676819083,15.570643391261171,1.0,1.0,0.0
252.7662418158725,157.75037715515492,2229.36083984375,45768.67578125,89.93438720703125,352.14080810546875,-90.0,159847.50038121044,-1018.2527320965164,-578651.9689331001,1604.2962097949348,-598434.9798311113,16.228029329955575,1.0,1.0,0.0
272.14212116319686,164.1096242324008,2217.96337890625,45642.03515625,89.92868041992188,352.1710205078125,-90.0,159852.6438046044,-1018.271057946884,-578670.6495950805,1729.2068131291308,-598434.9936894618,16.887238953113467,1.0,1.0,0.0
288.872117491439,169.41795323226916,2208.46533203125,45536.50390625,89.92868041992188,352.6652526855469,-90.0,159857.08425678912,-1018.2867371573084,-578686.7795470641,1837.2650950268144,-598435.0162856408,17.43796350894479,1.0,1.0,0.0
309.64949455775786,175.79822755157258,2197.06787109375,45409.86328125,89.93145751953125,353.7107238769531,-90.0,159862.59814433494,-1018.3059960736864,-578706.811954915,1971.712832348654,-598435.0339074469,18.100468734697415,1.0,1.0,0.0
331.19328537548427,182.189129073133,2185.669921875,45283.22265625,89.93145751953125,355.13201904296875,-90.0,159868.3145805325,-1018.3257488145464,-578727.5834977208,2111.39020487573,-598435.0501798333,18.76472244610079,1.0,1.0,0.0
353.50466912193224,188.58971170287512,2174.2724609375,45156.58203125,89.93145751953125,356.7975769042969,-90.0,159874.23381033877,-1018.3460092975729,-578749.0953702829,2256.3080622220878,-598435.0711004422,19.430653024836943,1.0,1.0,0.0
376.584733585245,194.998707907584,2162.875,45029.94140625,89.92340087890625,358.5683898925781,-90.0,159880.35603483487,-1018.3667395546072,-578771.3486436922,2406.4685122944647,-598435.0946856219,20.098155838298226,1.0,1.0,0.0
400.43449149816297,201.41504266821798,2151.477294921875,44903.30078125,89.92599487304688,0.29059576988220215,-90.0,159886.68143743987,-1018.3879674210184,-578794.3442278008,2561.874418737716,-598435.1193305795,20.767146038234557,1.0,1.0,0.0
425.0546908194665,207.838407790634,2140.07958984375,44776.6640625,89.92340087890625,1.716306447982788,-90.0,159893.2101864869,-1018.4097267522448,-578818.0829474726,2722.542458409909,-598435.1472969538,21.437618192896196,1.0,1.0,0.0
450.44606390199624,214.2681442851253,2128.68212890625,44650.0234375,89.91607666015625,2.6913535594940186,-90.0,159899.94242529076,-1018.4320044650667,-578842.5656100959,2888.4809920208063,-598435.1801214422,22.10953042608304,1.0,1.0,0.0
476.60945147974417,220.7039576486053,2117.284423828125,44523.3828125,89.91842651367188,3.0156667232513428,-90.0,159906.878248324,-1018.4547190501326,-578867.7929331041,3059.7051112980116,-598435.2213509935,22.782878669336583,1.0,1.0,0.0
503.54554159450345,227.145518658016,2105.88671875,44396.7421875,89.91842651367188,2.7417774200439453,-90.0,159914.01774132153,-1018.4778546824091,-578893.7656464404,3236.2286636664066,-598435.2691497747,23.45765570130294,1.0,1.0,0.0
526.5830501477467,232.51749606635596,2096.388671875,44291.2109375,89.91607666015625,2.1797034740448,-90.0,159920.12296930345,-1018.4974310531252,-578915.9794078219,3387.3859944439027,-598435.2999383069,24.021042219673234,1.0,1.0,0.0
554.9374486656161,238.96837415256545,2084.9912109375,44164.5703125,89.91375732421875,1.1913537979125977,-90.0,159927.636265522,-1018.5211625828379,-578943.3202705802,3573.6500923108542,-598435.3293621208,24.698384062430137,1.0,1.0,0.0
584.0663462341763,245.4239074459737,2073.59375,44037.9296875,89.91152954101562,0.01078964862972498,-90.0,159935.35360093255,-1018.5451124443643,-578971.408233364,3765.2447325296234,-598435.3717094971,25.37711691281197,1.0,1.0,0.0
613.9701313932892,251.88363644678066,2062.196044921875,43911.2890625,89.90512084960938,358.9444885253906,-90.0,159943.27493856728,-1018.5693265928858,-579000.2438287312,3962.1776120972354,-598435.4212115079,26.05722031128323,1.0,1.0,0.0
644.6494246487273,258.3470733201382,2050.79833984375,43784.6484375,89.903076171875,358.1080017089844,-90.0,159951.40042136775,-1018.5937974288099,-579029.8274915561,4164.454685421428,-598435.4718037796,26.738670852191547,1.0,1.0,0.0
670.8081065202132,263.7359020790337,2041.30029296875,43679.11328125,89.903076171875,357.67327880859375,-90.0,159958.32758658027,-1018.6143454744451,-579055.0523406423,4337.108785320772,-598435.5275946299,27.30757278085548,1.0,1.0,0.0
702.9100612981711,270.20523285160095,2029.90283203125,43552.47265625,89.897216796875,357.5907897949219,-90.0,159966.82720710154,-1018.6391388012999,-579086.0086302306,4549.205303817987,-598435.6016460528,27.99146697496758,1.0,1.0,0.0
735.7884859401966,276.67730051296326,2018.505126953125,43425.83203125,89.89913940429688,357.8852233886719,-90.0,159975.53097390832,-1018.6641317441099,-579117.7141048193,4766.669302643742,-598435.6655133426,28.676684584220027,1.0,1.0,0.0
769.4438106175512,283.15179581223003,2007.1075439453125,43299.1953125,89.89346313476562,358.4770202636719,-90.0,159984.4389123924,-1018.6893645956152,-579150.1691543984,4989.508393725846,-598435.7388929623,29.363218528444975,1.0,1.0,0.0
803.8762125725625,289.62822603202795,1995.7099609375,43172.5546875,89.89532470703125,359.2707824707031,-90.0,159993.55101777412,-1018.7146906687849,-579183.3739989813,5217.724311869824,-598435.8201220508,30.05104427149547,1.0,1.0,0.0
839.0858521065675,296.10629835728685,1984.312255859375,43045.9140625,89.8863525390625,0.07685468345880508,-90.0,160002.86720028555,-1018.7400816514128,-579217.3288736674,5451.32394076779,-598435.9011690223,30.740158987334837,1.0,1.0,0.0
875.073146565468,302.5856667601417,1972.914794921875,42919.2734375,89.88809204101562,0.7057211399078369,-90.0,160012.3873876342,-1018.7655973269575,-579252.0339885373,5690.311369613744,-598436.0086173617,31.430550606882605,1.0,1.0,0.0
911.8376713257749,309.0621953050106,1961.51708984375,42792.6328125,89.89166259765625,1.1577093601226807,-90.0,160022.11140984372,-1018.791196270191,-579287.4893737624,5934.568512461381,-598436.1004716187,32.1218115774887,1.0,1.0,0.0
949.3780212560669,315.5113346096503,1950.1195068359375,42665.9921875,89.88131713867188,318.1279602050781,-133.34820556640625,160032.03893502738,-1018.8169045879476,-579323.6931596017,6183.289666601457,-598436.1851189416,32.81135509435978,1.0,1.0,0.0
987.6880410726881,321.89724822322466,1938.721923828125,42539.35546875,89.88296508789062,316.7003479003906,-134.681884765625,160042.168252668,-1018.8427932097547,-579360.6399075546,6435.215557806194,-598436.3106005565,33.495371017812374,1.0,1.0,0.0
1026.7573642078787,328.17974042596575,1927.32421875,42412.71484375,89.87646484375,316.4112243652344,-134.5782470703125,160052.4962625652,-1018.8688060476416,-579398.3195603306,6688.834551394102,-598436.446389482,34.169568131734195,1.0,1.0,0.0
1066.571249897126,334.32068060281784,1915.9266357421875,42286.07421875,89.8748779296875,316.3464660644531,-134.0995330810547,160063.01901015663,-1018.8948730661505,-579436.7177413251,6942.594289976987,-598436.5723430032,34.82984703218557,1.0,1.0,0.0
1107.1100801514694,340.2850034898531,1904.529052734375,42159.43359375,89.8748779296875,315.84954833984375,-134.09625244140625,160073.73126635666,-1018.9209259583586,-579475.8156100345,7194.94898762682,-598436.6839991488,35.47240797849315,1.0,1.0,0.0
1148.35037189594,346.0427113166538,1893.13134765625,42032.79296875,89.8687744140625,313.4139099121094,-136.15194702148438,160084.6268833414,-1018.9469751550787,-579515.5906317298,7444.448125145165,-598436.8060682612,36.093966530479406,1.0,1.0,0.0
1190.2657797475113,351.57143632836807,1881.73388671875,41906.15234375,89.8687744140625,312.32861328125,-136.9330291748047,160095.69845534273,-1018.9730709030264,-579556.0173828288,7689.854755162029,-598436.970852373,36.69203582266442,1.0,1.0,0.0
1232.8277198339347,356.85858425014675,1870.336181640625,41779.51171875,89.86151123046875,311.2325744628906,-137.8044891357422,160106.93822961993,-1018.9991426899069,-579597.0684850195,7930.258091495722,-598437.1278821119,37.26517521116676,1.0,1.0,0.0
1276.007173811202,361.9031246918788,1858.9385986328125,41652.875,89.860107421875,310.246826171875,-138.67601013183594,160118.33870765037,-1019.0252156092756,-579638.7157697042,8165.173792212387,-598437.2576302391,37.81317791985515,1.0,1.0,0.0
1327.125598371029,367.4963302844575,1845.641357421875,41505.125,89.85195922851562,307.81781005859375,-141.1721649169922,160131.8321473215,-1019.0555648638838,-579688.021314356,8432.296410524752,-598437.4389220297,38.422173131036686,1.0,1.0,0.0
1371.5478596921312,372.0651041548166,1834.2437744140625,41378.484375,89.84677124023438,305.70416259765625,-143.49978637695312,160143.5548758676,-1019.0815515353315,-579730.8689234984,8655.837620789534,-598437.6422705716,38.92074933101844,1.0,1.0,0.0
1416.5056634738576,376.4581691021426,1822.84619140625,41251.84765625,89.84051513671875,304.0177917480469,-145.451416015625,160155.41578840042,-1019.1074458195799,-579774.2339995943,8875.30539597338,-598437.8668138926,39.40112280454241,1.0,1.0,0.0
1461.9807189428248,380.7132194539216,1811.448486328125,41125.20703125,89.83685302734375,302.7586669921875,-146.94436645507812,160167.4099369375,-1019.1331878735655,-579818.0987919017,9091.942891646293,-598438.08746497,39.867310837616856,1.0,1.0,0.0
1507.9592743470566,384.8731351282042,1800.051025390625,40998.56640625,89.829833984375,301.34991455078125,-148.52330017089844,160179.53367819104,-1019.1587809159391,-579862.4501835534,9307.28720110585,-598438.3070428852,40.32391033272751,1.0,1.0,0.0
1554.4327090275474,388.9793577427125,1788.6533203125,40871.92578125,89.82867431640625,299.8826904296875,-150.12640380859375,160191.78461397186,-1019.1842866971128,-579907.2800966338,9522.905063313432,-598438.541142494,40.77538407934259,1.0,1.0,0.0
1601.3961733932374,393.0443217919056,1777.2557373046875,40745.28515625,89.82754516601562,299.2735900878906,-150.83538818359375,160204.16136415626,-1019.209886534416,-579952.5834723264,9739.238324968494,-598438.7888758081,41.223068653081214,1.0,1.0,0.0
1648.845079327235,397.0706105908898,1765.858154296875,40618.64453125,89.82528686523438,298.35272216796875,-151.82867431640625,160216.66233413338,-1019.2356183364027,-579998.3557720496,9956.338096269406,-598439.0689086393,41.667233054933945,1.0,1.0,0.0
1696.7739414455136,401.0606065819512,1754.46044921875,40492.00390625,89.82867431640625,299.8293762207031,-150.39830017089844,160229.2862644655,-1019.2614000870817,-580044.5926168931,10174.254280064139,-598439.3211276205,42.10813659705718,1.0,1.0,0.0
1745.179680252797,405.01669533583305,1743.06298828125,40365.36328125,89.82528686523438,299.8541259765625,-150.417724609375,160242.03236113387,-1019.2871186568373,-580091.290027495,10393.041249096976,-598439.517788732,42.54603582510481,1.0,1.0,0.0
1794.0574844343355,408.94179795564094,1731.665283203125,40238.7265625,89.82196044921875,298.3929443359375,-151.9058837890625,160254.89993019353,-1019.3125979735487,-580138.4440943968,10612.778949014959,-598439.7135580428,42.98123513052633,1.0,1.0,0.0
1843.4046492662746,412.83835175201216,1720.2677001953125,40112.0859375,89.82086181640625,297.6809997558594,-152.6357421875,160267.88761840572,-1019.3380864693754,-580186.0516388288,10833.53292779671,-598439.9307563683,43.41399191108303,1.0,1.0,0.0
1893.2175513786497,416.7087902569325,1708.8701171875,39985.4453125,89.817626953125,297.0149841308594,-153.31570434570312,160280.9944823871,-1019.3636725976103,-580234.1093216047,11055.374568648054,-598440.144686834,43.84457110702715,1.0,1.0,0.0
1943.4932426975574,420.55592583466154,1697.472412109375,39858.8046875,89.81024169921875,295.9698791503906,-154.36093139648438,160294.2200393935,-1019.3893402649992,-580282.6144231008,11278.395408393582,-598440.3853116332,44.273272436689865,1.0,1.0,0.0
1994.2292905107606,424.3821149370042,1686.0748291015625,39732.1640625,89.80718994140625,295.9066162109375,-154.42086791992188,160307.56264701675,-1019.4149908854597,-580331.5646048707,11502.671381386113,-598440.6943887732,44.70034513410184,1.0,1.0,0.0
2045.4227487436729,428.18962797749924,1674.67724609375,39605.5234375,89.80718994140625,295.4648742675781,-154.8568115234375,160321.02188285568,-1019.4406270815962,-580380.9574872438,11728.283169122064,-598440.9786144721,45.12605039092648,1.0,1.0,0.0
2097.0718557161745,431.9810414838662,1663.279541015625,39478.88671875,89.80416870117188,295.19073486328125,-155.11685180664062,160334.597484926,-1019.4662934376829,-580430.7911004047,11955.327988611185,-598441.211229334,45.55067466615236,1.0,0.9981187624861206,0.0
2149.175681065186,435.75869180640996,1651.882080078125,39352.24609375,89.80218505859375,295.26605224609375,-155.02743530273438,160348.28871148563,-1019.4919838740461,-580481.0637350293,12183.893628364196,-598441.4617489969,45.97446466164939,1.0,0.9971089984289693,0.0
2201.731598899816,439.524892651798,1640.484375,39225.60546875,89.80416870117188,295.9633483886719,-154.31080627441406,160362.0953910649,-1019.5176795556181,-580531.7739312318,12414.072650711285,-598441.7501471192,46.397673158256055,1.0,0.9960904728895384,0.0
2254.7385518383235,443.2818752661904,1629.0867919921875,39098.96484375,89.80316162109375,296.4652099609375,-153.79486083984375,160376.01656265487,-1019.5434042050474,-580582.920719937,12645.960195292835,-598442.0366063718,46.82055446082478,1.0,0.9950632063597225,0.0
2317.1494473002385,447.65654706586196,1615.78955078125,38951.21875,89.80316162109375,297.4795227050781,-152.7658233642578,160392.40268506343,-1019.5732741191023,-580643.1423467603,12918.7952811477,-598442.3741565528,47.31385647827926,1.0,0.9938536928817783,0.0
2371.131628659321,451.4013347445883,1604.3919677734375,38824.578125,89.81024169921875,299.2753601074219,-150.95681762695312,160406.57154135048,-1019.5987648799055,-580695.2321144862,13154.729817365413,-598442.7255085222,47.73688904642438,1.0,0.9928075265763697,0.0
2425.562761541456,455.14312671560475,1592.994384765625,38697.9375,89.82867431640625,301.89227294921875,-148.33578491210938,160420.85384768416,-1019.624001724922,-580747.756555683,13392.654771459871,-598443.1194792228,48.160288075740254,1.0,0.9917526596600492,0.0
2480.443042191444,458.88186267676735,1581.5968017578125,38571.296875,89.8546142578125,308.3597106933594,-141.85617065429688,160435.24944364725,-1019.6490343644255,-580800.7152604954,13632.569352809107,-598443.503615405,48.58406075773013,1.0,0.9906890883296231,0.0
2535.765457367059,462.61774540605535,1570.19921875,38444.65625,89.897216796875,0.14543522894382477,-90.0,160449.75835322618,-1019.6738610159779,-580854.1080029791,13874.484165961156,-598443.8628722944,49.00823760773295,1.0,0.9896169485006384,0.0
2591.542350020958,466.35052985294806,1558.801513671875,38318.015625,89.92086791992188,0.20992331206798553,-90.0,160464.38094055865,-1019.6984911508915,-580907.9341686607,14118.391530751484,-598444.0921165221,49.43281448152919,1.0,0.9885360009685861,0.0
2647.7868013129337,470.0801292028993,1547.4039306640625,38191.375,89.8748779296875,50.1823844909668,-40.0093994140625,160479.1184186484,-1019.7229778209943,-580962.1930812885,14364.29277565598,-598444.0544292941,49.857810655021694,1.0,0.9874459922226175,0.0
2704.4519509694073,473.80729922076364,1536.00634765625,38064.734375,89.79730224609375,67.50602722167969,-22.677215576171875,160493.97266157254,-1019.7472484509321,-581016.8838716887,14612.229199271183,-598443.6941008215,50.283326520149956,1.0,0.9863478304075697,0.0
2761.5614732325776,477.5339302760534,1524.608642578125,37938.09765625,89.70791625976562,74.6795425415039,-15.49462890625,160508.945655116,-1019.7711871851391,-581072.0058153016,14862.299358566757,-598443.0231911122,50.70957863452395,1.0,0.9852410567202988,0.0
2819.1351290954044,481.262830288932,1513.2110595703125,37811.45703125,89.6241455078125,78.31280517578125,-11.853179931640625,160524.03921449592,-1019.7946739188094,-581127.5585403675,15114.651257003425,-598442.0971453369,51.13688005369056,1.0,0.9841252881958255,0.0
2877.1563217528164,484.9972606952408,1501.8134765625,37684.81640625,89.54672241210938,80.47025299072266,-9.6865234375,160539.2548265133,-1019.8175996647255,-581183.5421525284,15369.461426482652,-598440.9826161355,51.565594335107676,1.0,0.9830008464776586,0.0
2935.6184545946307,488.7404566784751,1490.4158935546875,37558.17578125,89.4732666015625,81.95014190673828,-8.197265625,160554.59371130244,-1019.8398718719529,-581239.9572432598,15626.911962555256,-598439.7272175566,51.99608728255453,1.0,0.9818678594070808,0.0
2994.528367839521,492.4951059697213,1479.018310546875,37431.53515625,89.39703369140625,83.09396362304688,-7.04425048828125,160570.05700358463,-1019.8614125933586,-581296.8047908519,15887.16361164616,-598438.3413388444,52.42867169723826,1.0,0.9807261944217147,0.0
3053.902188514592,496.2632702657528,1467.62060546875,37304.89453125,89.31643676757812,84.04218292236328,-6.086578369140625,160585.6459958943,-1019.8821508087124,-581354.0860210559,16150.350459556212,-598436.7978169424,52.86359845332976,1.0,0.9795755389822755,0.0
3113.72063637292,500.0465744753147,1456.2230224609375,37178.2578125,89.22900390625,84.84517669677734,-5.273651123046875,160601.3623051968,-1019.9020134018189,-581411.8022900503,16416.588260050863,-598435.0457289632,53.301075172467506,1.0,0.9784162667369589,0.0
3173.9632084000623,503.8465207403307,1444.825439453125,37051.6171875,89.134521484375,85.52064514160156,-4.58843994140625,160617.20794596433,-1019.920917063026,-581469.9550366434,16685.989673693315,-598433.0326324397,53.74129753363519,1.0,0.9772487750310066,0.0
3234.7182843429036,507.6647540053103,1433.4278564453125,36924.9765625,89.03509521484375,86.0816879272461,-4.01751708984375,160633.18527509374,-1019.9387655113412,-581528.5457963676,16958.678059815895,-598430.7175532824,54.184476909740624,1.0,0.9760713510786259,0.0
3295.8928468807135,511.5032264038453,1422.0302734375,36798.3359375,88.93304443359375,86.5411605834961,-3.54779052734375,160649.2968926044,-1019.9554534184658,-581587.5762687856,17234.796501077944,-598428.0812597034,54.63085720191299,1.0,0.9748857975410715,0.0
3357.5601292562205,515.3641868463948,1410.632568359375,36671.6953125,88.830810546875,86.91705322265625,-3.161376953125,160665.54551225944,-1019.9708705599614,-581647.0483831041,17514.508223791374,-598425.1207841132,55.080714839408415,1.0,0.9736906951694532,0.0
3409.2843171418644,518.6005834401985,1401.134521484375,36566.16015625,88.74493408203125,87.17901611328125,-2.89044189453125,160679.19268520363,-1019.9826659987114,-581696.947429024,17750.474271845538,-598422.4111248762,55.45846663419616,1.0,0.9726882884274832,0.0
3471.776138328132,522.5091105461978,1389.737060546875,36439.5234375,88.64361572265625,87.44499969482422,-2.61346435546875,160695.6997488911,-1019.9954539435347,-581757.2351607387,18037.242609301815,-598418.8443756093,55.91548162457565,1.0,0.9714772066215479,0.0
3534.7801936529577,526.4472758392944,1378.33935546875,36312.8828125,88.54437255859375,87.66725158691406,-2.379852294921875,160712.35202682813,-1020.0066409951639,-581817.9715052829,18328.1385569704,-598414.9533879985,56.37685583332933,1.0,0.9702561977974233,0.0
3598.228377899388,530.417690559437,1366.9417724609375,36186.2421875,88.44644165039062,87.85487365722656,-2.1806640625,160729.15230448422,-1020.0161211717603,-581879.1595735382,18623.364621983725,-598410.7820009348,56.84290673499328,1.0,0.9690265818236553,0.0
3662.1680718023563,534.4225054044779,1355.544189453125,36059.6015625,88.34555053710938,88.02409362792969,-1.99969482421875,160746.10337509535,-1020.0237823320809,-581940.8027741064,18923.105173578835,-598406.3202069508,57.313911817335395,1.0,0.9677874404689466,0.0
3726.5768270468106,538.4634237881799,1344.146484375,35932.9609375,88.239990234375,88.17726135253906,-1.83428955078125,160763.2082757474,-1020.0295127405999,-582002.9046764396,19227.525033455226,-598401.5300533514,57.79010512249306,1.0,0.9665392087781626,0.0
3791.4539205548353,542.5418932133348,1332.7489013671875,35806.3203125,88.12936401367188,88.31578826904297,-1.683380126953125,160780.47035017665,-1020.033191635915,-582065.4689585599,19536.77879879705,-598396.3665216439,58.27169498498057,1.0,0.9652819007644412,0.0
3856.8669805473182,546.6592963036449,1321.351318359375,35679.6796875,88.01434326171875,88.4421157836914,-1.544189453125,160797.893266163,-1020.0346894310993,-582128.4993837825,19851.021260474925,-598390.7865096111,58.758884104834124,1.0,0.9640142058033465,0.0
3922.7481307426933,550.8170853681863,1309.9537353515625,35553.0390625,87.89596557617188,88.55313873291016,-1.420074462890625,160815.4809544643,-1020.0338684828973,-582191.9998169118,20170.41496265831,-598384.757928738,59.25188323427233,1.0,0.9627374393266921,0.0
3989.1464380825637,555.0168164774333,1298.55615234375,35426.40234375,87.77569580078125,88.65092468261719,-1.308837890625,160833.2375297618,-1020.0305780075823,-582255.9742620423,20495.132357727154,-598378.2627870411,59.750914551162396,1.0,0.9614506504247566,0.0
4056.0567688482115,559.260105305307,1287.158447265625,35299.76171875,87.6551513671875,88.7374496459961,-1.20843505859375,160851.1672107863,-1020.0246659862275,-582320.4268920135,20825.353695186204,-598371.2927220038,60.25620753536998,1.0,0.960153938588213,0.0
4123.45861173782,563.5485215516853,1275.7608642578125,35173.12109375,87.53414916992188,88.81416320800781,-1.117523193359375,160869.27429037966,-1020.015978770222,-582385.3620597996,21161.26110898098,-598363.8422822428,60.76798817750557,1.0,0.9588477013229105,0.0
4191.398353355355,567.8834801824596,1264.36328125,35046.48046875,87.4129638671875,88.8825454711914,-1.03460693359375,160887.56311594284,-1020.0043649025249,-582450.7842885717,21503.031914007734,-598355.9072227268,61.28646671482977,1.0,0.9575310396636559,0.0
4248.396850418532,571.5323361768657,1254.865234375,34940.9453125,87.3114013671875,88.93294525146484,-0.971527099609375,160902.94581187764,-1019.9923451367935,-582505.678235014,21792.439697801135,-598348.9180717485,61.723781287774386,1.0,0.9564264176275479,0.0
4317.276156515232,575.9553904472609,1243.4676513671875,34814.30859375,87.18896484375,88.98748016357422,-0.9014892578125,160921.57934994213,-1019.9749756692597,-582572.0055918054,22145.380469268304,-598340.0502310646,62.254994593961044,1.0,0.9550915473543559,0.0
4386.716053652926,580.4276671055252,1232.070068359375,34687.66796875,87.067626953125,89.03569030761719,-0.837554931640625,160940.40760734744,-1019.9542436293733,-582638.8333854668,22504.629833819345,-598330.6332060315,62.79337038227425,1.0,0.953745812913703,0.0
4456.695541327703,584.9499415584173,1220.6724853515625,34561.02734375,86.9476318359375,89.07601165771484,-0.7813720703125,160959.4351443587,-1019.9299986675214,-582706.1665456425,22870.336664263858,-598320.7188889446,63.33904102607926,1.0,0.9523896212920988,0.0
4527.212696257397,589.5223314829356,1209.2747802734375,34434.38671875,86.82595825195312,89.11405181884766,-0.727020263671875,160978.6663936817,-1019.9020826648145,-582774.0100896717,23242.613748182543,-598310.3035263671,63.89207540541764,1.0,0.9510230097624535,0.0
4598.2690030707745,594.1442591480481,1197.877197265625,34307.74609375,86.7010498046875,89.14793395996094,-0.676666259765625,160998.10592543564,-1019.8703429250563,-582842.3689576855,23621.532283730456,-598299.3489216742,64.45246960078919,1.0,0.9496459495528919,0.0
4669.886440800619,598.8145940415242,1186.4796142578125,34181.10546875,86.57269287109375,89.17881774902344,-0.62939453125,161017.7584962551,-1019.8346167626714,-582911.2479275037,24007.127340682666,-598287.8143384005,65.02015614471469,1.0,0.9482580147131663,0.0
4742.064519130392,603.5317406447349,1175.08203125,34054.46484375,86.44091796875,89.20690155029297,-0.5849609375,161037.62903281106,-1019.794733165013,-582980.6515515917,24399.40181028738,-598275.6592221842,65.59501306927223,1.0,0.946859214745535,0.0
4814.825692458544,608.2937158399425,1163.684326171875,33927.82421875,86.30694580078125,89.23123931884766,-0.54437255859375,161057.7225921725,-1019.75050881778,-583050.5841205451,24798.32958559075,-598262.8508456942,66.17687069590409,1.0,0.9454491144872375,0.0
4875.907730048173,612.2945880311584,1154.1864013671875,33822.29296875,86.19454956054688,89.2489242553711,-0.51324462890625,161074.64126874413,-1019.7102051147419,-583109.2682163841,25135.81278957019,-598251.662074612,66.66694516908183,1.0,0.9442653540688338,0.0
4949.727615814889,617.1323242237859,1142.788818359375,33695.65234375,86.05975341796875,89.26725006103516,-0.478973388671875,161095.15690919536,-1019.6575385819428,-583180.1807037126,25546.76899969147,-598237.6035445454,67.26103563682221,1.0,0.9428347361276184,0.0
5024.110009466531,622.0071243091202,1131.39111328125,33569.01171875,85.928466796875,89.28213500976562,-0.44842529296875,161115.9100958838,-1019.5999987862607,-583251.6325794405,25964.1335218217,-598222.81670028,67.86138173713994,1.0,0.9413932168708036,0.0
5099.101277895272,626.9158916054265,1119.9935302734375,33442.37109375,85.80230712890625,89.2917709350586,-0.42352294921875,161136.90549951597,-1019.5374047162907,-583323.6269516156,26387.773835478583,-598207.4109774957,68.46764298592439,1.0,0.9399398977152079,0.0
5174.677537927986,631.8544280548986,1108.595947265625,33315.73046875,85.67730712890625,89.2997055053711,-0.400909423828125,161158.14721660776,-1019.4695832089881,-583396.166626539,26817.47686931526,-598191.4258202296,69.07935985051364,1.0,0.9384752415130235,0.0
5250.838329423685,636.8172363319302,1097.1983642578125,33189.09375,85.5511474609375,89.30670928955078,-0.3798828125,161179.6391087353,-1019.3963715378588,-583469.2538534778,27252.93012390111,-598174.8467216947,69.69592512439186,1.0,0.9369992571817115,0.0
5327.607122517307,641.7976775207866,1085.8006591796875,33062.453125,85.4219970703125,89.31121063232422,-0.362152099609375,161201.3849417904,-1019.3176044955577,-583542.8901455093,27693.725764361676,-598157.6436199986,70.316592139499,1.0,0.9355114898736956,0.0
5417.591644884669,640.6115603372187,1079.608642578125,32993.65234375,85.29656982421875,89.42430877685547,-0.26318359375,161226.96756939456,-1019.218186295751,-583629.1602345768,27706.023114902433,-598144.7158575658,70.19829730922925,1.0,0.9337676037813047,1.0
6201.2390138065675,634.6733201541609,1072.0859375,17850.06640625,88.60101318359375,90.70603942871094,1.254852294921875,161450.33727049996,-1018.2589690575744,-584377.0297719311,28120.293018597527,-598123.5272798934,69.67283956650823,1.0,0.9185806392673146,0.0
6278.319789571571,634.3469693179568,1071.3460693359375,17841.845703125,88.19821166992188,86.79589080810547,-2.720703125,161472.0930612276,-1018.1782260723326,-584450.0111717428,28178.705213879235,-598123.7980262433,69.65136750005632,1.0,0.9170868257834967,0.0
6354.870592549327,633.9931069086408,1070.606201171875,17833.623046875,87.71038818359375,86.04413604736328,-3.52740478515625,161493.8344893972,-1018.0938753751183,-584522.954047886,28235.188609280856,-598123.0616063068,69.62679870134963,1.0,0.9156032830901293,0.0
6430.9283323677955,633.6023348060411,1069.8662109375,17825.40234375,87.21414184570312,86.92912292480469,-2.693939208984375,161515.5671530903,-1018.0048145823181,-584595.852674104,28289.087773376494,-598121.0927477505,69.59805250730682,1.0,0.9141292958843451,0.0
6494.289233496063,633.2468897436672,1069.24951171875,17818.55078125,86.84259033203125,88.2584228515625,-1.407318115234375,161533.67537288318,-1017.9267353926931,-584656.5630483817,28331.910671204212,-598118.555219163,69.5707002684257,1.0,0.9129013714438747,0.0
6570.239974587224,632.7880803722902,1068.5096435546875,17810.330078125,86.47430419921875,90.20829772949219,0.490020751953125,161555.40639651348,-1017.8287575356519,-584729.3642236687,28381.014502482838,-598114.6990614363,69.53415615194956,1.0,0.9114294578568367,0.0
6646.144805644057,632.3011070417815,1067.769775390625,17802.107421875,86.20120239257812,92.29995727539062,2.52850341796875,161577.1417311048,-1017.7270040779132,-584802.1049612095,28428.111849574023,-598110.1826005873,69.49434565167536,1.0,0.9099584339991461,0.0
6709.328754467424,631.8806435602953,1067.153076171875,17795.255859375,86.0535888671875,94.04212188720703,4.2264404296875,161595.25967124026,-1017.6402808873298,-584862.6734734348,28466.305158527102,-598106.0508856631,69.45946801499912,1.0,0.9087339388669105,0.0
6785.144661611761,631.3682474661748,1066.4130859375,17787.03515625,85.97454833984375,96.06544494628906,6.197296142578125,161617.00853418544,-1017.5352292751656,-584935.2954454201,28511.54440957622,-598100.9302060257,69.41667901556912,1.0,0.9072646383408574,0.0
6860.8517662840895,630.8582821830278,1065.6732177734375,17778.8125,85.99609375,97.94207763671875,8.0225830078125,161638.76530815434,-1017.4305805052372,-585007.8514979755,28556.896570023615,-598095.9245602781,69.37412287912326,1.0,0.9057974463898433,0.0
6936.534680893645,630.3614647679442,1064.933349609375,17770.591796875,86.10379028320312,99.59590148925781,9.6265869140625,161660.52868303368,-1017.3277808707229,-585080.343085756,28603.104350658134,-598091.2911098324,69.33303037251795,1.0,0.9043307232384952,0.0
7012.132601351477,629.8866374812255,1064.193359375,17762.37109375,86.27667236328125,100.927490234375,10.910247802734375,161682.29644496442,-1017.2279999624236,-585152.7731197542,28650.782905253,-598087.2053396956,69.29442637402076,1.0,0.9028656472606302,0.0
7087.705850903061,629.4401781880322,1063.453369140625,17754.1484375,86.4908447265625,101.81700134277344,11.75384521484375,161704.06592198767,-1017.1319857601183,-585225.1455653835,28700.378996763262,-598083.7513079428,69.25906098018169,1.0,0.9014010494011035,0.0
7163.192175984965,629.0257228614802,1062.7135009765625,17745.927734375,86.7203369140625,102.14925384521484,12.04229736328125,161725.8344073262,-1017.0399516591333,-585297.4649936468,28752.15115055279,-598080.9285132335,69.22737427622081,1.0,0.8999381361243224,0.0
7238.65769473149,628.6441024113648,1061.9736328125,17737.705078125,86.93951416015625,101.85191345214844,11.703125,161747.59949843245,-1016.9515795672531,-585369.7361415362,28806.164144458948,-598078.6697980578,69.19948431446477,1.0,0.8984756260710952,0.0
7314.059572109138,628.293552072409,1061.233642578125,17729.484375,87.12493896484375,100.93418884277344,10.745086669921875,161769.35932209942,-1016.8661577001554,-585441.9635107663,28862.30237717647,-598076.8634928374,69.17520691424153,1.0,0.8970143493777298,0.0
7376.893874289002,628.0224091761955,1060.6170654296875,17722.634765625,87.23974609375,99.77156829833984,9.54986572265625,161787.48757239626,-1016.7965789246098,-585502.1224147801,28910.520952980267,-598075.6064243014,69.15742816221194,1.0,0.8957966303432363,0.0
7452.209094925667,627.7176884732712,1059.877197265625,17714.412109375,87.31927490234375,98.08643341064453,7.82647705078125,161809.23500364064,-1016.7142251275634,-585574.2792216033,28969.797045977088,-598074.2712351999,69.13852171159004,1.0,0.8943370330440762,0.0
7527.5237536126515,627.4298087737808,1059.13720703125,17706.19140625,87.3299560546875,96.34162902832031,6.044219970703125,161830.97536202698,-1016.6323223055721,-585646.4013263797,29030.223834570264,-598072.9919595834,69.12161124720399,1.0,0.8928774466354137,0.0
7602.796328825643,627.1525910556549,1058.397216796875,17697.96875,87.27471923828125,94.80458068847656,4.47021484375,161852.7091896272,-1016.5501541221666,-585718.4902280965,29091.374583187513,-598071.6373788065,69.10598376679087,1.0,0.8914186757979526,0.0
7678.028742221533,626.8802310024132,1057.6573486328125,17689.748046875,87.16220092773438,93.6589126586914,3.2879638671875,161874.43753714682,-1016.4671488913799,-585790.5465357895,29152.847572036437,-598070.0924670199,69.09096704498859,1.0,0.8899606832902803,0.0
7753.235599251348,626.6077449361013,1056.9173583984375,17681.52734375,87.0050048828125,92.97358703613281,2.56640625,161896.1618744499,-1016.3828884511029,-585862.5700774561,29214.297250034753,-598068.2635136398,69.07598224748585,1.0,0.8885031860610204,0.0
7828.40218682366,626.331298878841,1056.177490234375,17673.3046875,86.81942749023438,92.7214584350586,2.27825927734375,161917.883982936,-1016.2971159283272,-585934.5600538785,29275.45720154594,-598066.0827607653,69.0605826366089,1.0,0.8870464692476036,0.0
7903.546488161548,626.0483959617661,1055.4375,17665.083984375,86.6207275390625,92.82084655761719,2.3416748046875,161939.60583481967,-1016.2097372439339,-586006.5152312296,29336.15321622684,-598063.5119316411,69.04447550503471,1.0,0.8855901843379544,0.0
7966.147432840662,625.8068742121004,1054.8209228515625,17658.232421875,86.45623779296875,93.1082763671875,2.5992431640625,161957.70864828015,-1016.1357376776451,-586066.4502466251,29386.31967091479,-598061.0658072245,69.03041234565836,1.0,0.8843769877356462,0.0
8041.227821135428,625.5102395783804,1054.0810546875,17650.01171875,86.27117919921875,93.6089096069336,3.06427001953125,161979.43524813687,-1016.0456650464504,-586138.3378200245,29446.029382760287,-598057.7845546423,69.01277678409298,1.0,0.8829219414508638,0.0
8116.265112508554,625.2073488985592,1053.341064453125,17641.7890625,86.10992431640625,94.21580505371094,3.635711669921875,162001.167041503,-1015.954488572797,-586210.1865524403,29505.2834602081,-598054.1718076193,68.99444244387786,1.0,0.8814677303777412,0.0
8191.257262702449,624.9003353887215,1052.60107421875,17633.568359375,85.97967529296875,94.86715698242188,4.251983642578125,162022.9055171527,-1015.8625871737737,-586281.9954012078,29564.227150146617,-598050.2972350992,68.97565003634543,1.0,0.8800143941336734,0.0
8266.230081346817,624.5919750011543,1051.8612060546875,17625.34765625,85.88525390625,95.51470184326172,4.864898681640625,162044.65179141643,-1015.7703908474728,-586353.7637396838,29623.05020680267,-598046.244706842,68.95671479974874,1.0,0.8785614325320384,0.0
8328.677888804581,624.3362142878228,1051.24462890625,17618.494140625,85.8345947265625,96.02220916748047,5.343994140625,162062.7801703694,-1015.6936541958356,-586413.5396259868,29672.13041099999,-598042.7960054226,68.94108113857175,1.0,0.8773512037053376,0.0
8403.585666305502,624.0334744782771,1050.504638671875,17610.2734375,85.80615234375,96.56397247314453,5.85235595703125,162084.54229954278,-1015.6020472287554,-586485.2336914403,29731.28699878021,-598038.6462402538,68.9228074789429,1.0,0.8758995025909786,0.0
8478.448228009627,623.7380692736166,1049.7646484375,17602.05078125,85.80950927734375,97.00399017333984,6.259765625,162106.3132336885,-1015.5113082557996,-586556.8881309475,29790.919120484148,-598034.5559991131,68.90538448010744,1.0,0.8744486777517515,0.0
8540.786961856531,623.499360884214,1049.148193359375,17595.201171875,85.83224487304688,97.27515411376953,6.50439453125,162124.46220431768,-1015.4365657373168,-586616.5707361829,29841.10425730562,-598031.2372677034,68.89172992301997,1.0,0.8732405627547184,0.0
8615.611054564943,623.2236382293058,1048.408203125,17586.98046875,85.87725830078125,97.47045135498047,6.668701171875,162146.2483819451,-1015.3480850650792,-586688.1558445587,29902.039475935046,-598027.3998955963,68.87658815461685,1.0,0.8717904834386639,0.0
8690.366685022134,622.9609684002542,1047.668212890625,17578.7578125,85.93435668945312,97.51502990722656,6.68328857421875,162168.04208016285,-1015.2609971553605,-586759.7054757245,29963.847106133704,-598023.7431931882,68.86296207103044,1.0,0.8703417309104238,0.0
8765.081275440054,622.7121313543385,1046.92822265625,17570.537109375,85.99508666992188,97.41182708740234,6.550994873046875,162189.84266495283,-1015.1752684312945,-586831.2214944804,30026.58290949778,-598020.2722578525,68.85094591115688,1.0,0.868893773731782,0.0
8839.796886246535,622.4779004083086,1046.1883544921875,17562.31640625,86.05191040039062,97.17546844482422,6.286285400390625,162211.6495492127,-1015.0907695231592,-586902.7058369769,30090.30330425885,-598016.9779055602,68.84063651967693,1.0,0.8674457967781679,0.0
8914.492097047623,622.2580881247812,1045.448486328125,17554.09375,86.0970458984375,96.83031463623047,5.913421630859375,162233.46225686718,-1015.0073059895368,-586974.1604576285,30154.998201715178,-598013.8360544706,68.83201816504874,1.0,0.8659982151734957,0.0
8989.143516690354,622.0515622981954,1044.70849609375,17545.873046875,86.12506103515625,96.4096450805664,5.46551513671875,162255.28047359642,-1014.9246427917373,-587045.587160439,30220.591947359615,-598010.8088198166,68.8249640807669,1.0,0.864551482234683,0.0
9063.774615992792,621.8568091356805,1043.968505859375,17537.650390625,86.13140869140625,95.9527816772461,4.981781005859375,162277.1040805187,-1014.8425298490015,-587116.9875264412,30286.982439087587,-598007.8513681734,68.81930284816161,1.0,0.8631051431009149,0.0
9125.946685542003,621.7022503050339,1043.35205078125,17530.798828125,86.11849975585938,95.57300567626953,4.57989501953125,162295.2945989088,-1014.7743468481525,-587176.4686696952,30342.83125309355,-598005.4053992294,68.81550589918453,1.0,0.8619002580321317,0.0
9200.53422504128,621.5244672413904,1042.612060546875,17522.578125,86.08059692382812,95.14778900146484,4.12835693359375,162317.12848829178,-1014.6926261562033,-587247.8239595136,30410.369490810088,-598002.4504863117,68.81187208123038,1.0,0.8604547630805953,0.0
9275.10439865978,621.3533253049586,1041.8720703125,17514.35546875,86.01904296875,94.78321075439453,3.737640380859375,162338.96858838096,-1014.6108329268685,-587319.155894326,30478.35567096912,-597999.4302637466,68.80904437985396,1.0,0.8590096046771359,0.0
9349.65133594966,621.186860264755,1041.1322021484375,17506.13671875,85.93630981445312,94.49803924560547,3.426513671875,162360.81556679602,-1014.5288135484668,-587390.4649742604,30546.6551394969,-597996.3028338961,68.80679542857757,1.0,0.8575648965901229,0.0
9424.180875949445,621.0232172713453,1040.392333984375,17497.9140625,85.83563232421875,94.29998016357422,3.202667236328125,162382.67024349442,-1014.4464577757861,-587461.7514181726,30615.140275944257,-597993.0326506692,68.80490938784834,1.0,0.8561205256598945,0.0
9486.29317736614,620.8878862244527,1039.775634765625,17491.0625,85.74111938476562,94.20052337646484,3.081787109375,162400.88902869303,-1014.3775220564078,-587521.1394863583,30672.27599293471,-597990.1781127871,68.80348450640122,1.0,0.8549167988882532,0.0
9560.778050612076,620.7256837005509,1039.03564453125,17482.841796875,85.618896484375,94.15556335449219,3.011260986328125,162422.76031792213,-1014.2944123029705,-587592.3842323165,30740.843881358043,-597986.5801975784,68.80182765065638,1.0,0.8534732935927891,0.0
9635.266919139074,620.5628759416237,1038.2957763671875,17474.619140625,85.49127197265625,94.17950439453125,3.009857177734375,162444.64215350273,-1014.2108953529789,-587663.6058268812,30809.36041579058,-597982.7834795126,68.80013205152073,1.0,0.8520297108693978,0.0
9709.71286417765,620.3989411914798,1037.555908203125,17466.3984375,85.36306762695312,94.257568359375,3.06268310546875,162466.53560683405,-1014.1270266483413,-587734.8038553149,30877.788934431737,-597978.7853387094,68.79833502971206,1.0,0.8505869599965572,0.0
9784.139280426782,620.2336968092234,1036.81591796875,17458.17578125,85.23797607421875,94.37435913085938,3.1544189453125,162488.44172418836,-1014.0428933308899,-587805.9778714012,30946.11600974179,-597974.591573743,68.79641298276596,1.0,0.8491445875886282,0.0
9858.563708397443,620.0672594007603,1036.075927734375,17449.955078125,85.11956787109375,94.51449584960938,3.269775390625,162510.3614907953,-1013.9586071784212,-587877.1274458448,31014.348748891498,-597970.2154294981,68.79437683055215,1.0,0.8477022537132279,0.0
9932.94900270272,619.8999972083775,1035.3360595703125,17441.734375,85.010498046875,94.66397094726562,3.394805908203125,162532.29580197335,-1013.8742970810249,-587948.2522061887,31082.511578104226,-597965.6761335924,68.79226662867069,1.0,0.8462606782421953,0.0
10007.335176156135,619.7324746847261,1034.59619140625,17433.51171875,84.9124755859375,94.80973815917969,3.51641845703125,162554.2454452049,-1013.7901001133835,-588019.3518712549,31150.642489153775,-597960.9971755448,68.7901452852339,1.0,0.8448190857334081,0.0
10081.699748330633,619.5653927964919,1033.856201171875,17425.291015625,84.82659912109375,94.94097900390625,3.623931884765625,162576.21108585305,-1013.706152147474,-588090.4262733214,31218.788982563186,-597956.2045399178,68.7880917606924,1.0,0.8433779118540575,0.0
10156.045639500022,619.3995288319461,1033.1162109375,17417.068359375,84.7530517578125,95.048583984375,3.708251953125,162598.19326433213,-1013.622580396216,-588161.4753743552,31287.00398067513,-597951.3247977012,68.786194229626,1.0,0.8419371000096896,0.0
10230.328904116293,619.2356819804495,1032.3763427734375,17408.84765625,84.69122314453125,95.1250228881836,3.761871337890625,162620.1923997354,-1013.5394929936103,-588232.4992668899,31355.342114724568,-597946.3834732856,68.78454386701935,1.0,0.8404975018582113,0.0
10304.632560416125,619.0746198701681,1031.636474609375,17400.626953125,84.6400146484375,95.16606140136719,3.780609130859375,162642.20880123135,-1013.4569732399297,-588303.4981734585,31423.856069528498,-597941.4036147033,68.78322869630824,1.0,0.8390575085190672,0.0
10378.917561092763,618.9170351376126,1030.896484375,17392.40625,84.59783935546875,95.1694564819336,3.76220703125,162664.2426839345,-1013.3750765569222,-588374.4724313484,31492.59359185025,-597936.4047468237,68.7823285546562,1.0,0.8376178767230086,0.0
10453.158537453739,618.763511353402,1030.156494140625,17384.18359375,84.56256103515625,95.13544464111328,3.70697021484375,162686.2941878025,-1013.293828742309,-588445.4224786658,31561.595149049303,-597931.40200398,68.7819111466772,1.0,0.8361790981113616,0.0
10515.047624439932,618.6390063797633,1029.5399169921875,17377.33203125,84.53671264648438,95.07982635498047,3.634063720703125,162704.6839664356,-1013.2266164069996,-588504.5293934157,31619.32116694085,-597927.2377448835,68.78197059209549,1.0,0.8349796972007765,0.0
10614.005870166584,618.4467524987762,1028.5533447265625,17366.369140625,84.498779296875,94.9468765258789,3.4742431640625,162734.1332782857,-1013.1199661274873,-588599.0670517881,31712.1407957552,-597920.5920643297,68.78289117734721,1.0,0.8330619017409576,0.0
10675.828532660264,618.3310732482435,1027.936767578125,17359.51953125,84.47494506835938,94.84127044677734,3.35223388671875,162752.5551853823,-1013.0538215205886,-588658.1327493968,31770.449196297675,-597916.4500379968,68.78399890482899,1.0,0.8318637881267391,0.0
10750.015758633264,618.1968137443661,1027.19677734375,17351.296875,84.4439697265625,94.6981430053711,3.189849853515625,162774.67786914398,-1012.9749052542793,-588728.9915177356,31840.721355047077,-597911.4877807825,68.78587093499448,1.0,0.8304260511892778,0.0
10811.842395758955,618.0886380070605,1026.5802001953125,17344.447265625,84.41497802734375,94.56947326660156,3.04547119140625,162793.12716512056,-1012.9094724540751,-588788.0241652078,31899.52774609241,-597907.354323341,68.7878739518801,1.0,0.829227860547307,0.0
10886.009236521786,617.963072387078,1025.84033203125,17336.224609375,84.374755859375,94.41021728515625,2.867706298828125,162815.28290801303,-1012.8312846673455,-588858.8442268374,31970.377805877244,-597902.387216779,68.79078698844592,1.0,0.8277905186720583,0.0
10960.134180227062,617.8418276051344,1025.100341796875,17328.00390625,84.3271484375,94.25103759765625,2.690399169921875,162837.456923717,-1012.7533867584068,-588929.6439111582,32041.515525343246,-597897.4002633884,68.79422132081936,1.0,0.8263539887552895,0.0
11034.284626816167,617.72450900865,1024.3603515625,17319.78125,84.27117919921875,94.09722137451172,2.518798828125,162859.6494619898,-1012.6757063166622,-589000.4236573505,32112.914740527165,-597892.3786291997,68.79813284969043,1.0,0.8249169645965859,0.0
11108.391250582878,617.6106752853427,1023.6204833984375,17311.560546875,84.206298828125,93.95405578613281,2.35809326171875,162881.86084485205,-1012.5981766807753,-589071.1838344084,32184.546042007278,-597887.3061800798,68.80247204862383,1.0,0.8234807897173861,0.0
11182.51851354551,617.4998608276654,1022.8805541992188,17303.33984375,84.13211059570312,93.82415008544922,2.210968017578125,162904.09146918738,-1012.5207405854808,-589141.924732174,32256.37828389369,-597882.1662738725,68.8071864932495,1.0,0.8220442148537692,0.0
11256.759191854857,617.391604371187,1022.140625,17295.1171875,84.04876708984375,93.70999145507812,2.079864501953125,162926.34180348626,-1012.4433503538153,-589212.6465630243,32328.380558068864,-597876.9423081422,68.81222421513263,1.0,0.8206054420183168,0.0
11331.259771129233,617.2854660185452,1021.4006958007812,17286.896484375,83.95648193359375,93.61277770996094,1.96588134765625,162948.6123918313,-1012.3659694976118,-589283.3494632188,32400.523347588023,-597871.6183677213,68.81753562451445,1.0,0.8191616323424568,0.0
11405.79075322987,617.1810465250354,1020.6607666015625,17278.67578125,83.856201171875,93.5327377319336,1.86932373046875,162970.9038444798,-1012.2885728592721,-589354.0334962148,32472.779856936424,-597866.1796491146,68.82307576317106,1.0,0.8177172334645374,0.0
11480.26228808274,617.078002620588,1019.9208374023438,17270.453125,83.74853515625,93.46902465820312,1.78936767578125,162993.2168331342,-1012.2111453791987,-589424.6986658709,32545.127062317682,-597860.6129845594,68.82880605614412,1.0,0.8162739866650631,0.0
11554.760303858668,616.9760579708347,1019.180908203125,17262.232421875,83.634765625,93.4203872680664,1.724700927734375,163015.5520831628,-1012.1336826653408,-589495.3449211514,32617.5464729534,-597854.9070968316,68.83469559683624,1.0,0.8148302266694056,0.0
11629.240842302679,616.8750079903864,1018.4409790039062,17254.009765625,83.51608276367188,93.3851547241211,1.67364501953125,163037.91036196574,-1012.0561903080802,-589565.9721705829,32690.024461404188,-597849.0528678135,68.84072168261781,1.0,0.8133868053817309,0.0
11703.690217735013,616.7747260908011,1017.7009887695312,17245.7890625,83.39349365234375,93.3606948852539,1.63360595703125,163060.292471855,-1011.9786837608593,-589636.5802938831,32762.552707933122,-597843.0434603594,68.84687056038058,1.0,0.8119439880283912,0.0
11778.16993760434,616.6751631520726,1016.9610595703125,17237.56640625,83.2684326171875,93.34456634521484,1.60211181640625,163082.6992378668,-1011.9011851107448,-589707.1691526854,32835.1281742095,-597836.8743080059,68.85313737737033,1.0,0.8105005826045671,0.0
11852.63018260186,616.5763458749843,1016.2211303710938,17229.345703125,83.14199829101562,93.33438873291016,1.5767822265625,163105.13149973983,-1011.823720905698,-589777.7386058728,32907.75299927872,-597830.5431559542,68.85952598471562,1.0,0.8090575546007391,0.0
11926.971326894243,616.4783669889516,1015.481201171875,17221.125,83.01531982421875,93.32763671875,1.55517578125,163127.5901012028,-1011.7463236464476,-589848.2885193257,32980.433829966234,-597824.0499220229,68.86604778839688,1.0,0.8076168347501116,0.0
12000.954097317299,616.3813844139709,1014.7412719726562,17212.90234375,82.889404296875,93.32197570800781,1.534912109375,163150.07587785684,-1011.6690280563397,-589918.8187748012,33053.1817891486,-597817.3964270396,68.87272172008954,1.0,0.8061830601295097,0.0
12074.928089262103,616.2856059440583,1014.0013427734375,17204.681640625,82.7650146484375,93.31519317626953,1.5137939453125,163172.58965524856,-1011.5918688749797,-589989.3292835036,33126.011424075696,-597810.5862181484,68.87957242200946,1.0,0.8047494556344554,0.0
12148.886453613988,616.1912822452787,1013.2614135742188,17196.458984375,82.64288330078125,93.30543518066406,1.489990234375,163195.13223749312,-1011.514880383164,-590059.8199897874,33198.94023990596,-597803.6242213022,68.88662948029884,1.0,0.803316153999729,0.0
12222.838946608477,616.0986941766113,1012.521484375,17188.23828125,82.52346801757812,93.29141235351562,1.462158203125,163217.70440448236,-1011.4380944947889,-590130.2908787939,33271.987838009605,-597796.5164366582,68.89392595631239,1.0,0.8018829661509984,0.0
12296.77872519265,616.0081421101853,1011.7815551757812,17180.017578125,82.40719604492188,93.27153778076172,1.4288330078125,163240.30690639105,-1011.3615389666741,-590200.741980348,33345.17519116588,-597789.2695928379,68.90149716781508,1.0,0.8004500247055688,0.0
12370.7077372052,615.9199349501005,1011.0416259765625,17171.794921875,82.29415893554688,93.24536895751953,1.3895263671875,163262.94046327195,-1011.2852357120183,-590271.1733702581,33418.52389701828,-597781.8907862256,68.90937943476649,1.0,0.799017291914628,0.0
12444.623050388764,615.8343778092775,1010.3016967773438,17163.57421875,82.18429565429688,93.21224975585938,1.343505859375,163285.60576360725,-1011.2092018995722,-590341.5851720843,33492.05533025437,-597774.3872414851,68.91760863185766,1.0,0.7975848246048689,0.0
12506.213589901221,615.7653181035005,1009.6851196289062,17156.72265625,82.09518432617188,93.17913818359375,1.2999267578125,163304.51823748587,-1011.1460540962635,-590400.2468306893,33553.48611775611,-597768.0440096807,68.92475647523031,1.0,0.7963912094980383,0.0
12580.118113872828,615.6853711256708,1008.9451904296875,17148.501953125,81.99075317382812,93.1332015991211,1.24169921875,163327.24341944227,-1011.0705358428692,-590470.6231920102,33627.40544696851,-597760.3294282458,68.93371032990075,1.0,0.7949589512815345,0.0
12654.006017202628,615.6088522037445,1008.2052001953125,17140.28125,81.88876342773438,93.08080291748047,1.17730712890625,163350.00213228347,-1010.9952984842332,-590540.9805542261,33701.5624026726,-597752.5083052483,68.94310296931394,1.0,0.7935270151704917,0.0
12715.576004540082,615.5478676235598,1007.588623046875,17133.4296875,81.8052978515625,93.03269958496094,1.119476318359375,163368.993761121,-1010.9328094037966,-590599.5973791992,33763.552991478704,-597745.9129317936,68.95128468387611,1.0,0.7923337983616262,0.0
12789.451197569026,615.4781863857556,1006.8486938476562,17125.20703125,81.70657348632812,92.9706039428711,1.04595947265625,163391.8154449569,-1010.8580609451769,-590669.9206642272,33838.185195442406,-597737.9086573073,68.96154764330663,1.0,0.7909021085742437,0.0
12863.320536987041,615.4124668452439,1006.1087646484375,17116.986328125,81.608642578125,92.90428161621094,0.968536376953125,163414.67226323672,-1010.783557993624,-590740.2258243192,33913.09352705977,-597729.8091569463,68.97231326841671,1.0,0.7894705322289333,0.0
12937.177197021665,615.3507856276286,1005.3688354492188,17108.763671875,81.51104736328125,92.83470153808594,0.88812255859375,163437.564755197,-1010.7092795990104,-590810.5132077467,33988.28390841314,-597721.6162310146,68.98359100153027,1.0,0.7880392016081074,0.0
13011.033885807497,615.2931470176861,1004.62890625,17100.54296875,81.4129638671875,92.76312255859375,0.805938720703125,163460.49345274354,-1010.6352014096758,-590880.7831710323,34063.75725802337,-597713.330462038,68.99538172817984,1.0,0.7866078704300872,0.0
13084.879877216415,615.2395173221955,1003.8889770507812,17092.3203125,81.31375122070312,92.69052124023438,0.72296142578125,163483.45888665842,-1010.5612971334243,-590951.0360689358,34139.511907515815,-597704.9511737911,69.00768197937612,1.0,0.7851767465655735,0.0
13146.411897877464,615.1978406385776,1003.2723388671875,17085.470703125,81.22979736328125,92.630126953125,0.65411376953125,163502.62519534264,-1010.4998229672839,-591009.5673638809,34202.852868960355,-597697.8956683527,69.01831624160815,1.0,0.7839842655450103,0.0
13220.250189248822,615.1513639308931,1002.5324096679688,17077.25,81.12698364257812,92.55848693847656,0.57244873046875,163525.65937096116,-1010.4261658258231,-591079.7898635097,34279.11146098666,-597689.3391380142,69.03152916140175,1.0,0.7825532909060307,0.0
13294.079772263649,615.1086292520599,1001.79248046875,17069.02734375,81.02117919921875,92.4884033203125,0.492584228515625,163548.7318188062,-1010.3526058436883,-591149.9962409853,34355.6349415998,-597680.6807138156,69.04522224536237,1.0,0.7811224850336502,0.0
13367.905541699496,615.0694928742331,1001.0525512695312,17060.806640625,80.91204833984375,92.42060089111328,0.4151611328125,163571.84310916215,-1010.2791199131532,-591220.1867939947,34432.41413954797,-597671.9153526404,69.05937951943656,1.0,0.7796917530678393,0.0
13441.72751262912,615.0337913961998,1000.3126220703125,17052.583984375,80.79891967773438,92.35523223876953,0.34039306640625,163594.99383237012,-1010.2056839410369,-591290.3617949502,34509.438534596586,-597663.0371028262,69.07398278822058,1.0,0.77826109471649,0.0
13515.543739998597,615.0013469553855,999.5726928710938,17044.36328125,80.6815185546875,92.29338836669922,0.269256591796875,163618.1846032671,-1010.132274056291,-591360.521487544,34586.69661088602,-597654.0392450143,69.08901223732676,1.0,0.7768305476744457,0.0
13577.05573129491,614.9766586715211,998.9561157226562,17037.51171875,80.5802001953125,92.24459838867188,0.212860107421875,163637.54130077365,-1010.071105844765,-591418.9763590413,34651.24777361599,-597646.44442588,69.10184676790436,1.0,0.7756384548198662,0.0
13650.867316152086,614.9496805775025,998.2161254882812,17029.2890625,80.45407104492188,92.18939971923828,0.148681640625,163660.80718179967,-1009.9976995563972,-591489.1085162561,34728.901352599845,-597637.2079702289,69.11760116388467,1.0,0.7742079977489906,0.0
13724.675136831473,614.9253984588127,997.4761962890625,17021.068359375,80.32290649414062,92.13803100585938,0.08843994140625,163684.11500833908,-1009.924273935091,-591559.2258831256,34806.751982887276,-597627.8299301561,69.13371912685471,1.0,0.7727776136272969,0.0
13798.481153893052,614.90360702308,996.7362670898438,17012.84765625,80.18655395507812,92.09080505371094,0.032501220703125,163707.4655106103,-1009.8508163444602,-591629.3285785174,34884.78619889438,-597618.301931122,69.15017775221173,1.0,0.7713472644594371,0.0
13872.285372724524,614.8841024192484,995.996337890625,17004.625,80.04501342773438,92.0473403930664,-0.019561767578125,163730.85944996084,-1009.7773193047659,-591699.416684575,34962.9906062223,-597608.6154868625,69.16695430697553,1.0,0.7699169501409977,0.0
13946.085844721063,614.8666863413305,995.2564086914062,16996.404296875,79.89828491210938,92.00787353515625,-0.067535400390625,163754.29762114177,-1009.7037767551435,-591769.4902522599,35041.35216969822,-597598.7620854168,69.1840267146327,1.0,0.7684867084356384,0.0
14019.885501089972,614.8511660832377,994.5164794921875,16988.181640625,79.74639892578125,91.97215270996094,-0.111663818359375,163777.78085075447,-1009.6301855716949,-591839.5492967663,35119.858202753705,-597588.7333541298,69.20137352393402,1.0,0.7670564825370161,0.0
14081.38566623861,614.8395487018736,993.89990234375,16981.33203125,79.61611938476562,91.94506072998047,-0.14569091796875,163797.3852458277,-1009.5688226121247,-591897.9207295314,35185.38156104402,-597580.2362864586,69.21602413240248,1.0,0.7658646188713447,0.0
14155.18171777553,614.8270376086936,993.1599731445312,16973.111328125,79.455322265625,91.91557312011719,-0.183349609375,163820.95333037947,-1009.4951455067094,-591967.953087118,35264.12173413229,-597569.8652567738,69.23382217403343,1.0,0.7644344628338076,0.0
