obs_alt,obs_vel,obs_fuel,obs_pitch,obs_heading,obs_roll,obs_pos_x,obs_pos_y,obs_pos_z,obs_ap,obs_pe,obs_time_to_ap,act_throttle,act_stage
6.36254349630326,2.6970583369785937,3229.93359375,89.85330200195312,328.81201171875,-46.235382080078125,159781.64115619654,-1018.1410042959881,-578414.4891858671,79.14325013838243,-598436.29223418,0.2764388788676797,1.0,0.0
6.66708907764405,3.268212235098373,3228.0693359375,89.87026977539062,328.1855773925781,-47.425689697265625,159781.71636613054,-1018.1386209968161,-578414.7843623045,79.62239966902416,-598436.3439511306,0.33498053129937944,1.0,0.0
7.108212266815826,3.9573785651574473,3225.832275390625,89.8846435546875,286.36871337890625,-90.0,159781.82643143943,-1018.1353165227604,-578415.2116020448,80.31871513056103,-598436.3911546718,0.4056184739408195,1.0,0.0
7.539121953188442,4.533697036343622,3223.96826171875,89.903076171875,286.9268798828125,-90.0,159781.9347824577,-1018.1322890612912,-578415.6287216595,81.00040993536822,-598436.4226119828,0.4646901241156911,1.0,0.0
8.132416907930747,5.2271608536579866,3221.731201171875,89.92086791992188,287.5999450683594,-90.0,159782.08486620768,-1018.1284230220747,-578416.2027807964,81.94059406488668,-598436.4509540334,0.5357694691201118,1.0,0.0
8.809062578948215,5.922475551635996,3219.494140625,89.94766235351562,288.273193359375,-90.0,159782.2569588538,-1018.1244012843501,-578416.8572327694,83.0145445211092,-598436.4695709873,0.6070391566629496,1.0,0.0
9.56926350586582,6.619448692897627,3217.257080078125,89.95574951171875,288.94769287109375,-90.0,159782.45115664115,-1018.1203322317135,-578417.5922627023,84.22273182694335,-598436.481385775,0.6784795483763446,1.0,0.0
10.26673691358883,7.201532991423396,3215.39306640625,90.0,289.5103759765625,-90.0,159782.62993746798,-1018.1169557291698,-578418.2664723685,85.33250264497474,-598436.487233527,0.738144334371043,1.0,0.0
11.180639383383095,7.9015693018708335,3213.156005859375,89.9720458984375,290.1868896484375,-90.0,159782.86487642681,-1018.1129699665737,-578419.1497078047,86.7882553547388,-598436.4907890552,0.8099002355961602,1.0,0.0
12.178667488624342,8.603281892123507,3210.9189453125,90.0,290.8651123046875,-90.0,159783.12214057753,-1018.1091022453886,-578420.1140500607,88.37984512024559,-598436.4907259217,0.8818289188690756,1.0,0.0
13.074763455195352,9.189322980898696,3209.0546875,90.0,291.43035888671875,-90.0,159783.35363086374,-1018.1059937625807,-578420.9797620557,89.81034085084684,-598436.4885897604,0.9419015491670848,1.0,0.0
14.22753908939194,9.89411347038018,3206.81787109375,89.980224609375,292.10888671875,-90.0,159783.65199546842,-1018.1024286374134,-578422.0932943102,91.6524348204257,-598436.4847091712,1.0141477117473983,1.0,0.0
15.465008051483892,10.600591965501454,3204.580810546875,90.0,292.7887878417969,-90.0,159783.97286153736,-1018.099069796471,-578423.2884760399,93.63198037247639,-598436.4790763318,1.0865681115661232,1.0,0.0
16.78737843525596,11.308761707502041,3202.34375,90.0,293.46966552734375,-90.0,159784.31628863633,-1018.095932034744,-578424.5655032105,95.7495533451438,-598436.4720270926,1.1591631721345266,1.0,0.0
17.954349493491463,11.900196024573795,3200.479736328125,89.9720458984375,294.037353515625,-90.0,159784.61975136155,-1018.093495447157,-578425.6923523796,97.62004920910113,-598436.4654499365,1.219792639415573,1.0,0.0
19.43289034755435,12.61147433309716,3198.24267578125,89.96044921875,294.71905517578125,-90.0,159785.0046798366,-1018.0907968990189,-578427.1199355549,99.9921723366715,-598436.4575333437,1.292708961072833,1.0,0.0
20.996905740350485,13.32445609911499,3196.005615234375,89.96044921875,295.40167236328125,-90.0,159785.41231651703,-1018.088353232449,-578428.6299211112,102.5039690954145,-598436.4491683065,1.3658014562316225,1.0,0.0
22.365693830768578,13.919912648269836,3194.141357421875,89.980224609375,295.97119140625,-90.0,159785.76939931826,-1018.0865144403335,-578429.951331935,104.70425207144581,-598436.4420354414,1.4268469055331252,1.0,0.0
24.086937254178338,14.636027531166079,3191.904541015625,89.96044921875,296.65521240234375,-90.0,159786.21880029392,-1018.0845478833337,-578431.6129016739,107.47363940055948,-598436.4332182534,1.500263667320155,1.0,0.0
25.894240684923716,15.353856088868737,3189.66748046875,89.96044921875,297.3399658203125,-90.0,159786.69105349845,-1018.082848221032,-578433.3574379387,110.38436635863036,-598436.4244396591,1.5738579186316883,1.0,0.0
27.787802681676112,16.073403797942543,3187.430419921875,89.96044921875,298.0255432128906,-90.0,159787.18620558467,-1018.0814186640466,-578435.1851393776,113.43702814343851,-598436.4155472602,1.647630318943527,1.0,0.0
29.431818873272277,16.674342442538695,3185.566162109375,89.96044921875,298.5975036621094,-90.0,159787.6163636808,-1018.0804340308507,-578436.7718992252,116.08976485137828,-598436.4076755949,1.7092437152604703,1.0,0.0
31.48406909860205,17.397052047100313,3183.329345703125,89.96044921875,299.28460693359375,-90.0,159788.15363428663,-1018.079502235659,-578438.7525895012,119.40419057803228,-598436.3981600507,1.783344017420518,1.0,0.0
33.62316284014378,18.12149057390764,3181.09228515625,89.96044921875,299.9725036621094,-90.0,159788.71394982407,-1018.0788439424625,-578440.8170142747,122.86224494047929,-598436.3882268779,1.8576237529352966,1.0,0.0
35.47223546507303,18.72651386763263,3179.22802734375,89.95574951171875,300.5463562011719,-90.0,159789.19852223905,-1018.078504745002,-578442.6014787573,125.85411296389066,-598436.3796224445,1.9196610638801417,1.0,0.0
37.7710872462485,19.4541346814596,3176.9912109375,89.96044921875,301.23590087890625,-90.0,159789.80122354676,-1018.0783510643207,-578444.819938346,129.57706282660365,-598436.3694114394,1.9942713116399773,1.0,0.0
40.15737991500646,20.18349687186428,3174.754150390625,89.96044921875,301.92626953125,-90.0,159790.42711443244,-1018.078473051047,-578447.1227066955,133.4453648837516,-598436.3590607629,2.069062556101585,1.0,0.0
42.63132210704498,20.9146036436384,3172.51708984375,89.96572875976562,302.6173095703125,-90.0,159791.0762474823,-1018.0788675686028,-578449.5099810106,137.45962558919564,-598436.348263588,2.14403523145495,1.0,0.0
44.760044124443084,21.52519513867115,3170.65283203125,89.96044921875,303.19390869140625,-90.0,159791.63498321694,-1018.0794043851467,-578451.5640786472,140.91678389313165,-598436.339667143,2.2066514506445287,1.0,0.0
47.3952202568762,22.259510831897657,3168.416015625,89.96044921875,303.8868713378906,-90.0,159792.32685377242,-1018.0803020908618,-578454.1068206286,145.2002378902398,-598436.3298982764,2.2819580865057674,1.0,0.0
50.11863910104148,22.995583136334954,3166.178955078125,89.96044921875,304.58038330078125,-90.0,159793.0421022914,-1018.0814719735329,-578456.7346480576,149.63140180381015,-598436.3196635701,2.3574476850753854,1.0,0.0
52.93051049683709,23.733414657910842,3163.94189453125,89.96044921875,305.27508544921875,-90.0,159793.7807812279,-1018.082916767072,-578459.4477676742,154.21089425275568,-598436.309219574,2.4331206188164742,1.0,0.0
55.341449196916074,24.349621488795226,3162.07763671875,89.96044921875,305.85455322265625,-90.0,159794.41428923,-1018.0843304935527,-578461.773999664,158.14089532627258,-598436.2996915923,2.496321874997932,1.0,0.0
58.316022028564475,25.09068905647816,3159.8408203125,89.9720458984375,306.5507507324219,-90.0,159795.19606310263,-1018.0862779766005,-578464.6440217849,162.99394998000935,-598436.2880984592,2.5723323207587327,1.0,0.0
61.37966041453183,25.833528352048376,3157.603759765625,89.96572875976562,307.24786376953125,-90.0,159796.0014306342,-1018.0884992284384,-578467.5999174817,167.99711794184987,-598436.2759602856,2.6485276969490883,1.0,0.0
64.0008656141581,26.453915963382304,3155.739501953125,89.96572875976562,307.82928466796875,-90.0,159796.69061553816,-1018.0905541600343,-578470.1289078643,172.28154408442788,-598436.2666997015,2.7121653289102596,1.0,0.0
67.2283223454142,27.200011169265867,3153.502685546875,89.96572875976562,308.52789306640625,-90.0,159797.5393516145,-1018.0932660158408,-578473.2427750218,177.56155349267647,-598436.2540859937,2.7887008230631523,1.0,0.0
70.54542825650424,27.947887751176587,3151.265625,89.95574951171875,309.22723388671875,-90.0,159798.41181900346,-1018.0962439141852,-578476.4430990783,182.9934696931159,-598436.2411697474,2.865422552559494,1.0,0.0
73.3783285227837,28.572484373245324,3149.4013671875,89.96044921875,309.810546875,-90.0,159799.15704274116,-1018.0989291350973,-578479.1762331582,187.63657860516105,-598436.2302124959,2.9295002221905406,1.0,0.0
76.86036896856967,29.323637355654448,3147.164306640625,89.96572875976562,310.5113830566406,-90.0,159800.07315599226,-1018.1023977417183,-578482.5356053133,193.34865792887285,-598436.217802514,3.006564750611858,1.0,0.0
80.43267124867998,30.07658608388426,3144.927490234375,89.96572875976562,311.2131652832031,-90.0,159801.01314493787,-1018.1061335466486,-578485.9820277023,199.21447955525946,-598436.2051668204,3.0838173124670902,1.0,0.0
84.09545889985748,30.831329544536537,3142.6904296875,89.96572875976562,311.9158935546875,-90.0,159801.97706690631,-1018.1101366188061,-578489.515713237,205.2346761265071,-598436.1929429756,3.1612579138716796,1.0,0.0
87.21706229983829,31.461657924858482,3140.826171875,89.9720458984375,312.5019836425781,-90.0,159802.79865804515,-1018.1136767770779,-578492.5272558962,210.36990599927958,-598436.1810151332,3.2259359599595427,1.0,0.0
91.04627601744141,32.21970640845405,3138.589111328125,89.980224609375,313.2057800292969,-90.0,159803.80659697525,-1018.1181703749728,-578496.2214566034,216.67483019724023,-598436.1668889325,3.303723141739283,1.0,0.0
94.9665915541118,32.97956427952871,3136.352294921875,89.980224609375,313.91064453125,-90.0,159804.838617283,-1018.1229328605962,-578500.0035024013,223.13599389290903,-598436.1514395252,3.3817002225459305,1.0,0.0
98.97822481032927,33.74123277780691,3134.115234375,89.96044921875,314.615966796875,-90.0,159805.8947907065,-1018.1279658917022,-578503.8736125056,229.75404834526125,-598436.1371952465,3.459867422032346,1.0,0.0
102.39116272691172,34.377344208918494,3132.2509765625,89.96572875976562,315.2049255371094,-90.0,159806.79340041894,-1018.1323722023201,-578507.1661288582,235.3894243716495,-598436.125921452,3.5251525439564375,1.0,0.0
106.57077390805352,35.142346232376255,3130.01416015625,89.96044921875,315.912109375,-90.0,159807.89395093822,-1018.1379117685985,-578511.1982416583,242.29684782377444,-598436.1120266827,3.603670072165869,1.0,0.0
110.84230706503149,35.90916953739169,3127.777099609375,89.96572875976562,316.62030029296875,-90.0,159809.01878057246,-1018.1437242682707,-578515.3190171862,249.36304819281213,-598436.0989176267,3.6823791637202135,1.0,0.0
114.47228906583041,36.54958482660323,3125.912841796875,89.96044921875,317.21148681640625,-90.0,159809.97471737437,-1018.1487844120395,-578518.8208881489,255.37332739052363,-598436.0882832112,3.748116972981336,1.0,0.0
118.91292169853114,37.31976085484687,3123.67578125,89.96044921875,317.92169189453125,-90.0,159811.14419114514,-1018.1551156397593,-578523.1047688106,262.73237084120046,-598436.0737960364,3.827179029573472,1.0,0.0
123.44611112272833,38.09177105489107,3121.43896484375,89.96044921875,318.6328430175781,-90.0,159812.33810817343,-1018.1617346983087,-578527.4779111501,270.25210530415643,-598436.0581707836,3.9064343532357952,1.0,0.0
127.29462955112103,38.73651636854694,3119.57470703125,89.9720458984375,319.2267761230469,-90.0,159813.35173860652,-1018.1674697454703,-578531.1905472705,276.6417902359972,-598436.0452906924,3.972628414661699,1.0,0.0
131.9980628459016,39.51189811973801,3117.337646484375,89.95574951171875,319.9396667480469,-90.0,159814.5905895923,-1018.1746107469928,-578535.7279051277,284.45788731379434,-598436.0293258982,4.052239287057887,1.0,0.0
136.7946968121687,40.28912441105445,3115.1005859375,89.96044921875,320.6534729003906,-90.0,159815.85404797818,-1018.1820336859357,-578540.3551236128,292.4366011839593,-598436.0113435765,4.13204487007971,1.0,0.0
141.68469930207357,41.06819857239306,3112.86376953125,89.96044921875,321.36822509765625,-90.0,159817.1421547763,-1018.1897356938255,-578545.072436776,300.5786230082158,-598435.9941152962,4.212045599527016,1.0,0.0
145.82930484169628,41.7188410284871,3110.99951171875,89.9720458984375,321.96429443359375,-90.0,159818.234455824,-1018.1963668290501,-578549.0725024764,307.48888715170324,-598435.9797020894,4.27886229652546,1.0,0.0
150.89262315200176,42.50131568032413,3108.762451171875,89.96572875976562,322.6805114746094,-90.0,159819.56789787792,-1018.2045824078159,-578553.9555331408,315.93211172882,-598435.9638903826,4.359222443247177,1.0,0.0
156.04969106870703,43.285650271365,3106.525634765625,89.96572875976562,323.39764404296875,-90.0,159820.92613753644,-1018.2130781568605,-578558.9292634071,324.54061163950246,-598435.9470287419,4.439779378068408,1.0,0.0
160.41915202746168,43.94068659934283,3104.661376953125,89.96044921875,323.9958801269531,-90.0,159822.07698911545,-1018.2203710319347,-578563.1434794901,331.8411215398228,-598435.9324936479,4.507060922156825,1.0,0.0
165.73249074385967,44.72844125213662,3102.42431640625,89.96044921875,324.71466064453125,-90.0,159823.480841244,-1018.2293793274046,-578568.2840541871,340.75444632489234,-598435.9148991696,4.587980016616541,1.0,0.0
171.17708518274594,45.518066550651774,3100.187255859375,89.9720458984375,325.43426513671875,-90.0,159824.90965123003,-1018.2386676585921,-578573.5159434121,349.8350360082695,-598435.8969381737,4.669097376922537,1.0,0.0
176.6654125173809,46.30956626106312,3097.950439453125,89.96572875976562,326.15472412109375,-90.0,159826.363474585,-1018.2482376574992,-578578.8393642362,359.0835967392195,-598435.8787971265,4.750413526104239,1.0,0.0
181.37238745356444,46.97058390692498,3096.086181640625,89.96044921875,326.7558288574219,-90.0,159827.59413981216,-1018.2564306131924,-578583.3456250498,366.91955367824994,-598435.8634741709,4.818329217096846,1.0,0.0
187.04199296061415,47.76553044233949,3093.84912109375,89.96572875976562,327.47796630859375,-90.0,159829.09396218968,-1018.2665245817886,-578588.837421517,376.47791183681693,-598435.844972838,4.900011246706924,1.0,0.0
192.84284084837418,48.562363193841136,3091.612060546875,89.9720458984375,328.2010498046875,-90.0,159830.61895300006,-1018.2769067060066,-578594.4213696423,386.2062671263702,-598435.8262548625,4.981893678728454,1.0,0.0
197.73103216651361,49.227832906698694,3089.748046875,89.96572875976562,328.8043518066406,-90.0,159831.9090435859,-1018.2857788941211,-578599.1452117546,394.4436017641565,-598435.8105495928,5.050282387020047,1.0,0.0
203.68811767513398,50.028133086193584,3087.510986328125,89.96572875976562,329.5291748046875,-90.0,159833.4803188881,-1018.2966909085279,-578604.8986761086,404.4854874807643,-598435.7915914804,5.132533557143688,1.0,0.0
209.75773764471523,50.830329900970376,3085.27392578125,89.96044921875,330.2549133300781,-90.0,159835.07691804544,-1018.3078930343332,-578610.7449170141,414.6994159546448,-598435.7725499549,5.21498660822914,1.0,0.0
215.91488469264004,51.63442663819474,3083.037109375,89.96044921875,330.9816589355469,-90.0,159836.6988954209,-1018.319384876904,-578616.6841551225,425.0861118888715,-598435.7532836798,5.2976420276833665,1.0,0.0
221.1155802658759,52.305961456733016,3081.1728515625,89.96572875976562,331.58795166015625,-90.0,159838.06997117537,-1018.3291836557096,-578621.7047196983,433.8741958743194,-598435.7370188846,5.366676534006274,1.0,0.0
227.45391281042248,53.113551956667365,3078.935791015625,89.9720458984375,332.31640625,-90.0,159839.7386224573,-1018.3412095274945,-578627.8150285912,444.57953847781755,-598435.717307618,5.449704435640683,1.0,0.0
233.87981606496032,53.92305421984685,3076.69873046875,89.9720458984375,333.04571533203125,-90.0,159841.43281209664,-1018.3535290838662,-578634.0189631532,455.45973480679095,-598435.6972330421,5.532936348983981,1.0,0.0
239.32427603763063,54.59910255702452,3074.834716796875,89.96044921875,333.65423583984375,-90.0,159842.86418478153,-1018.36402203016,-578639.260589377,464.660667803837,-598435.6804733714,5.602452506180555,1.0,0.0
245.92515544802882,55.41211945623446,3072.59765625,89.95574951171875,334.3852844238281,-90.0,159844.60533958807,-1018.3768874362906,-578645.6367509114,475.8633540556766,-598435.6600472826,5.686059832069134,1.0,0.0
252.6447798467707,56.22705960064434,3070.360595703125,89.96572875976562,335.1173400878906,-90.0,159846.37219009074,-1018.3900522741275,-578652.1071707301,487.2430040623294,-598435.6396076585,5.769872777595424,1.0,0.0
259.42692139733117,57.043925304082926,3068.12353515625,89.96044921875,335.85028076171875,-90.0,159848.16479262456,-1018.4035163804989,-578658.6720731377,498.80035823432263,-598435.6189406108,5.853891740572237,1.0,0.0
265.18390090647154,57.72612183656374,3066.259521484375,89.9720458984375,336.4618225097656,-90.0,159849.67834049027,-1018.41496580735,-578664.2151615246,508.5677845682949,-598435.6016350489,5.924065460624604,1.0,0.0
272.1660575461574,58.546529626111514,3064.0224609375,89.96044921875,337.196533203125,-90.0,159851.5183008133,-1018.428982090045,-578670.9538657058,520.4528988329694,-598435.5806763348,6.008463751411114,1.0,0.0
279.2419042579131,59.36887552027409,3061.785400390625,89.96572875976562,337.9322509765625,-90.0,159853.3841716582,-1018.443301614282,-578677.7876905273,532.5178687955486,-598435.5597431383,6.09306979275965,1.0,0.0
285.242662592791,60.055646306296566,3059.92138671875,89.96044921875,338.5459899902344,-90.0,159854.95889862478,-1018.4554668420856,-578683.555369247,542.7099457647419,-598435.5418298593,6.1637338617754835,1.0,0.0
292.4935905948514,60.881554361963175,3057.684326171875,89.96044921875,339.28338623046875,-90.0,159856.87242018568,-1018.470345641848,-578690.564167943,555.1066263667308,-598435.5204691956,6.248722129986334,1.0,0.0
299.856918183621,61.70941073951426,3055.447265625,89.96572875976562,340.02178955078125,-90.0,159858.81201404193,-1018.485533468419,-578697.6687294345,567.6853270261781,-598435.4989742717,6.3339196620125335,1.0,0.0
307.332795829745,62.539220072141575,3053.210205078125,89.96572875976562,340.76116943359375,-90.0,159860.77773582388,-1018.5010334338148,-578704.8692795669,580.4468234096421,-598435.4770368238,6.419327105569778,1.0,0.0
314.8961685381364,63.37098552086485,3050.973388671875,89.96044921875,341.5014953613281,-90.0,159862.76964443427,-1018.5168476649454,-578712.1660454702,593.3918854658259,-598435.4547207867,6.504944950817162,1.0,0.0
322.5532928990433,64.20471084961643,3048.736328125,89.9720458984375,342.2427978515625,-90.0,159864.78779594606,-1018.5329787707021,-578719.5592550214,606.5212902083294,-598435.4324281308,6.590773743801435,1.0,0.0
330.3167425545398,65.04040030393969,3046.499267578125,89.95574951171875,342.98504638671875,-90.0,159866.83224788657,-1018.5494295830845,-578727.0491374789,619.8358221534872,-598435.4099171304,6.676814095334294,1.0,0.0
338.19265041383915,65.87805704329394,3044.26220703125,89.95574951171875,343.728271484375,-90.0,159868.903057808,-1018.5662009523645,-578734.6359213751,633.3362606568262,-598435.387180841,6.763066501036121,1.0,0.0
344.81841834879015,66.57761111345582,3042.398193359375,89.9720458984375,344.348388671875,-90.0,159870.64890850708,-1018.5804232611822,-578741.0324290642,644.7292154897004,-598435.3680731062,6.8351060266940635,1.0,0.0
352.8755429654848,67.4188868034625,3040.1611328125,89.9720458984375,345.0934143066406,-90.0,159872.76819103706,-1018.5977870821227,-578748.7974624573,658.5725482463604,-598435.3450199242,6.921748904670039,1.0,0.0
361.02022458135616,68.26214247748717,3037.924072265625,89.96044921875,345.83428955078125,-90.0,159874.91399367413,-1018.615473967421,-578756.6600486035,672.6040415085154,-598435.321767411,7.008605633057982,1.0,0.0
367.8897097677691,68.96637082955374,3036.06005859375,89.96044921875,346.4467468261719,-90.0,159876.72246295633,-1018.6304635162115,-578763.2868902986,684.4412623102544,-598435.3023530811,7.0811500105264145,1.0,0.0
376.2156685757218,69.8132681518946,3033.822998046875,89.96044921875,347.1693420410156,-90.0,159878.9170347736,-1018.6487515946793,-578771.3289240128,698.819803570048,-598435.2790631771,7.168400449513854,1.0,0.0
384.6478285409976,70.6621587452633,3031.5859375,89.96572875976562,347.8754577636719,-90.0,159881.13828954086,-1018.6673685297922,-578779.4691670823,713.38879360992,-598435.2556252021,7.255866606795166,1.0,0.0
393.1925399833126,71.51304662705618,3029.348876953125,89.96044921875,348.56219482421875,-90.0,159883.38628482126,-1018.6863158701045,-578787.7078518679,728.1490414945874,-598435.2319702618,7.343549077570515,1.0,0.0
400.3994636266725,72.22364901780495,3027.48486328125,89.96572875976562,349.11846923828125,-90.0,159885.28008326812,-1018.7023605612854,-578794.6487887172,740.595938585233,-598435.2120990348,7.416783528494591,1.0,0.0
409.1253301256802,73.07821063244653,3025.247802734375,89.96572875976562,349.76605224609375,-90.0,159887.5772547216,-1018.7219221159444,-578803.0685546498,755.7089529463556,-598435.188051021,7.504864285563144,1.0,0.0
417.9388760236325,73.93478227589807,3023.0107421875,89.96572875976562,350.3915100097656,-90.0,159889.9013325401,-1018.7418229603733,-578811.5874238135,771.0155495847575,-598435.1638735462,7.5931631837596,1.0,0.0
425.3896688037785,74.65013032736863,3021.146484375,89.96572875976562,350.8957824707031,-90.0,159891.8586593041,-1018.7586672601683,-578818.7623530473,783.9195155778434,-598435.1434651011,7.666912672242404,1.0,0.0
434.40307742601726,75.51039665795632,3018.90966796875,89.96572875976562,351.480712890625,-90.0,159894.23221813826,-1018.7791927140551,-578827.4635190237,799.5831479822518,-598435.1188307534,7.755612977371413,1.0,0.0
443.52903587929904,76.37268044847126,3016.672607421875,89.96044921875,352.0439758300781,-90.0,159896.63284855775,-1018.8000598127289,-578836.2644519727,815.4426735754823,-598435.0940800103,7.84453271955033,1.0,0.0
452.76742306444794,77.23698267224961,3014.435546875,89.96572875976562,352.5859680175781,-90.0,159899.06061128405,-1018.8212692642719,-578845.1653879507,831.4989009186393,-598435.0691576871,7.933672190942048,1.0,0.0
460.53075171483215,77.95877874773996,3012.571533203125,89.95574951171875,353.0216369628906,-90.0,159901.10451255355,-1018.8392060998348,-578852.6593942463,845.0299452564213,-598435.0482976737,8.008123313105841,1.0,0.0
469.92530040536076,78.82679014186606,3010.33447265625,89.96044921875,353.5256652832031,-90.0,159903.58216642088,-1018.8610465068509,-578861.7442804014,861.4489482628414,-598435.0232572473,8.097667012138402,1.0,0.0
479.45129039511085,79.69682940873561,3008.097412109375,89.95574951171875,354.00958251953125,-90.0,159906.08711717394,-1018.8832328586024,-578870.92983683,878.0670105776517,-598434.9978265236,8.1874319657191,1.0,0.0
487.483422070276,80.42341484997526,3006.233154296875,89.96572875976562,354.39776611328125,-90.0,159908.19547014896,-1018.9019863510129,-578878.6615385731,892.0680700560333,-598434.9765607768,8.262405618806724,1.0,0.0
497.1905971302185,81.29718275816904,3003.996337890625,89.96044921875,354.8457336425781,-90.0,159910.75061806504,-1018.9248089645793,-578888.0322719517,909.0532727871323,-598434.9510584519,8.352577818843315,1.0,0.0
506.98532962449826,82.17298907418797,3001.75927734375,89.95574951171875,355.2745361328125,-90.0,159913.333228944,-1018.9479808385219,-578897.5043476217,926.2399289709283,-598434.9254545755,8.44297291061713,1.0,0.0
516.936221661861,83.05083799856632,2999.522216796875,89.95574951171875,355.6842956542969,-90.0,159915.94336142263,-1018.9715044201182,-578907.0780028136,943.6288939663209,-598434.8996595662,8.533591529976604,1.0,0.0
525.280767482589,83.78394194643882,2997.657958984375,89.9720458984375,356.0114440917969,-90.0,159918.1395386374,-1018.9913767438078,-578915.1338161319,958.2748578307219,-598434.8781459662,8.609278232406098,1.0,0.0
535.3879744429141,84.66554726747161,2995.421142578125,89.96572875976562,356.38690185546875,-90.0,159920.80028219137,-1019.0155491059119,-578924.8943206319,976.036964245257,-598434.8522155129,8.700308369336597,1.0,0.0
545.6264687450603,85.54920531475817,2993.18408203125,89.9720458984375,356.74383544921875,-90.0,159923.48871385286,-1019.0400770744483,-578934.7570803477,994.0038082363317,-598434.8260427837,8.791563655422635,1.0,0.0
554.195993859088,86.28715906792335,2991.31982421875,89.96044921875,357.02716064453125,-90.0,159925.75026841095,-1019.0607889332496,-578943.0543322947,1009.1332117700949,-598434.8043104124,8.867782268970188,1.0,0.0
564.6157051705522,87.17459283913678,2989.0830078125,89.9720458984375,357.350341796875,-90.0,159928.489617355,-1019.08596897696,-578953.1051856229,1027.4776851518545,-598434.7781389022,8.959452131042724,1.0,0.0
575.1666442282731,88.06409142089922,2986.845947265625,89.96044921875,357.65509033203125,-90.0,159931.25682417065,-1019.1115053150783,-578963.258974686,1046.0293724356452,-598434.7518121724,9.051348975718838,1.0,0.0
585.7864316311898,88.95565900054825,2984.60888671875,89.9515380859375,357.9415588378906,-90.0,159934.0519474755,-1019.1373983819375,-578973.5159416009,1064.789154790924,-598434.7254812949,9.143473441784522,1.0,0.0
594.7371280891821,89.70021407597486,2982.74462890625,89.96044921875,358.1661682128906,-90.0,159936.40258410774,-1019.159249832281,-578982.1424043081,1080.5818922246108,-598434.7034479599,9.220418030039696,1.0,0.0
605.5568699893774,90.59558335107093,2980.5078125,89.95574951171875,358.41839599609375,-90.0,159939.2490419189,-1019.1858012840329,-578992.5891573112,1099.7254585967166,-598434.6768625521,9.312961244739142,1.0,0.0
616.4891628287733,91.49303056932224,2978.270751953125,89.96044921875,358.6502685546875,-90.0,159942.12358514767,-1019.2127120925766,-579003.1397720915,1119.0796062228037,-598434.6500891737,9.405733618013869,1.0,0.0
625.7024974533124,92.24249246354852,2976.406494140625,89.95574951171875,358.82513427734375,-90.0,159944.54053636198,-1019.2354134189708,-579012.0114652965,1135.3695582151413,-598434.6276210165,9.48321933413257,1.0,0.0
636.8347449984867,93.14375685684757,2974.169677734375,89.95574951171875,359.0052490234375,-90.0,159947.46672704705,-1019.2629861709509,-579022.7531231306,1155.1120649707736,-598434.6005365584,9.576413183927002,1.0,0.0
648.0794807182392,94.047107326891,2971.9326171875,89.9720458984375,359.1436767578125,-90.0,159950.42117492363,-1019.290920987783,-579033.5993306461,1175.0676598147256,-598434.5732821702,9.66983765383958,1.0,0.0
657.5177946237382,94.80149481379132,2970.068359375,89.96572875976562,359.2232360839844,-90.0,159952.90484335207,-1019.3144771643945,-579042.7178769067,1191.8607381553156,-598434.5506696563,9.747867896256253,1.0,0.0
668.962546959403,95.70867763498741,2967.831298828125,89.96044921875,359.27874755859375,-90.0,159955.91125076983,-1019.3430776075307,-579053.7563905251,1212.2093128873967,-598434.5232092061,9.841716559787244,1.0,0.0
680.5197282349691,96.61795754439633,2965.594482421875,89.95574951171875,359.29791259765625,-90.0,159958.9460862867,-1019.3720399294424,-579064.9001449767,1232.7735369072761,-598434.4956832756,9.935797612716271,1.0,0.0
692.1645586527884,97.5293370850312,2963.357421875,89.95574951171875,359.2918701171875,-90.0,159962.0094094386,-1019.4013645400561,-579076.1493835363,1253.5543070524,-598434.4680958234,10.03011154553053,1.0,0.0
701.9591397213517,98.29042774062326,2961.4931640625,89.96044921875,359.2755126953125,-90.0,159964.58398324242,-1019.4260783876654,-579085.6045047041,1271.037703271606,-598434.445101104,10.108884942388045,1.0,0.0
713.8288868977688,99.20567007214817,2959.256103515625,89.96572875976562,359.2497863769531,-90.0,159967.69968993939,-1019.4560658528611,-579097.0477694147,1292.217889174004,-598434.4173778642,10.203627810194178,1.0,0.0
725.7862210437888,100.12302803967442,2957.019287109375,89.96044921875,359.224365234375,-90.0,159970.8440540344,-1019.4864143492848,-579108.597213936,1313.6172749911202,-598434.3896416831,10.298605863541695,1.0,0.0
735.8494844260858,100.8891126426172,2955.155029296875,89.96044921875,359.2071838378906,-90.0,159973.48629341339,-1019.511980774624,-579118.3030402861,1331.6182186644292,-598434.3665318241,10.377934429321442,1.0,0.0
748.0317967848387,101.81036420438566,2952.91796875,89.96044921875,359.1937561035156,-90.0,159976.68335541358,-1019.5429907904885,-579130.0477925506,1353.421937115956,-598434.3388557886,10.473345805998008,1.0,0.0
760.3015757366084,102.73374905228872,2950.68115234375,89.96572875976562,359.189697265625,-90.0,159979.90924646732,-1019.5743625315788,-579141.8994273962,1375.447566914605,-598434.311094558,10.568994863447074,1.0,0.0
772.7025205484824,103.65927304973613,2948.444091796875,89.96572875976562,359.19488525390625,-90.0,159983.16402898557,-1019.6060962743279,-579153.8581943086,1397.6960715823807,-598434.2831794078,10.66488245014665,1.0,0.0
783.1221130415797,104.4321826636727,2946.579833984375,89.96044921875,359.2052307128906,-90.0,159985.89846215752,-1019.6328179439603,-579163.9058507164,1416.4074563181493,-598434.2598453983,10.744971727886252,1.0,0.0
795.7044577198103,105.36164678182634,2944.3427734375,89.96044921875,359.22320556640625,-90.0,159989.20637338978,-1019.6652175488093,-579176.0616758324,1439.0671168761328,-598434.2316985861,10.841299142293792,1.0,0.0
808.4241939975182,106.29326925063275,2942.10595703125,89.96572875976562,359.24493408203125,-90.0,159992.54335113306,-1019.6979803205452,-579188.3253425257,1461.9524365289835,-598434.2034875855,10.937867758114294,1.0,0.0
819.0875641112216,107.07127597755353,2940.24169921875,89.96572875976562,359.26446533203125,-90.0,159995.34641385832,-1019.7255587266783,-579198.6276253645,1481.1966420440003,-598434.1799467182,11.01852664644099,1.0,0.0
832.0259325149236,108.00687450871175,2938.004638671875,89.96572875976562,359.287841796875,-90.0,159998.73684195164,-1019.7589849127588,-579211.0896570468,1504.4982700227993,-598434.1515129205,11.115540086341241,1.0,0.0
845.0332723943284,108.94464990016363,2935.767578125,89.96572875976562,359.31005859375,-90.0,160002.15651342098,-1019.7927723636963,-579223.660247009,1528.0283779759193,-598434.1230264131,11.212797348282038,1.0,0.0
858.1719001330202,109.88460975842452,2933.53076171875,89.96572875976562,359.3304138183594,-90.0,160005.60549064376,-1019.8269228015165,-579236.3396488908,1551.7879838683875,-598434.0945054031,11.310299471560825,1.0,0.0
869.2166242179228,110.6695838667484,2931.66650390625,89.9720458984375,359.34564208984375,-90.0,160008.50207025223,-1019.8556599175539,-579246.9891217486,1571.7637055682717,-598434.0706131991,11.391739048414365,1.0,0.0
882.555146293249,111.61356777026565,2929.429443359375,89.96572875976562,359.3619079589844,-90.0,160012.00493847657,-1019.8904789815784,-579259.868676641,1595.9467146508396,-598434.0419609706,11.48969273677659,1.0,0.0
896.0311820617644,112.55975765463008,2927.192626953125,89.96572875976562,359.3761901855469,-90.0,160015.5372914099,-1019.9256639604597,-579272.8577685172,1620.362137913704,-598434.0131742104,11.587894245277141,1.0,0.0
907.319501569611,113.34993962939015,2925.328369140625,89.96572875976562,359.38671875,-90.0,160018.50348755956,-1019.955264809448,-579283.765872215,1640.8866108061047,-598433.9890540558,11.669918878960004,1.0,0.0
920.9954925728962,114.30019284074788,2923.09130859375,89.96572875976562,359.3980407714844,-90.0,160022.09006026725,-1019.9911236406635,-579296.9564522626,1665.730825470062,-598433.9601404087,11.768577370122614,1.0,0.0
934.7840944087366,115.25267273789974,2920.854248046875,89.9720458984375,359.40826416015625,-90.0,160025.7062995965,-1020.0273511931626,-579310.2573018235,1690.8104100755882,-598433.9309425671,11.867486577301747,1.0,0.0
948.6790821963223,116.20738668517654,2918.617431640625,89.96044921875,359.41754150390625,-90.0,160029.35226883937,-1020.0639481786533,-579323.6686807245,1716.126418851898,-598433.9015847694,11.96664752600583,1.0,0.0
960.3486955394037,117.00469415379415,2916.753173828125,89.95574951171875,359.4248046875,-90.0,160032.4133340458,-1020.0947290889521,-579334.9294496705,1737.4044674410252,-598433.8769917374,12.049474763114858,1.0,0.0
974.4684789568419,117.96352452660734,2914.51611328125,89.96044921875,359.4330139160156,-90.0,160036.1139780841,-1020.1320070926228,-579348.5441432355,1763.156699998537,-598433.8473190999,12.149100081815789,1.0,0.0
988.681954990956,118.92461161534057,2912.279052734375,89.96044921875,359.44085693359375,-90.0,160039.84453716697,-1020.169658247763,-579362.2701083347,1789.1484018787742,-598433.8176998325,12.248980251625824,1.0,0.0
1000.6140835314291,119.72724686094956,2910.4150390625,89.96044921875,359.44720458984375,-90.0,160042.97623441962,-1020.2013202919356,-579373.7936007282,1810.9918616838986,-598433.7928101674,12.332409179317722,1.0,0.0
1015.0713981095469,120.69249184115485,2908.177978515625,89.96044921875,359.4546203613281,-90.0,160046.761805432,-1020.2396584493395,-579387.7242460942,1837.4254156521056,-598433.7628221911,12.432759446789646,1.0,0.0
1029.6161780697294,121.66001563720947,2905.94091796875,89.96572875976562,359.4618835449219,-90.0,160050.57747595274,-1020.278372848088,-579401.7669116823,1864.101528004161,-598433.732784199,12.533367648774515,1.0,0.0
1044.2735078799305,122.6298266340067,2903.7041015625,89.96044921875,359.4690246582031,-90.0,160054.42331120785,-1020.3174635598116,-579415.921862465,1891.0213086638832,-598433.7027432488,12.634234935288134,1.0,0.0
1056.5870519236196,123.439755911938,2901.83984375,89.95574951171875,359.474853515625,-90.0,160057.65126487482,-1020.3503253613692,-579427.8036220239,1913.64140433399,-598433.6775577305,12.718489782184975,1.0,0.0
1071.488160056062,124.41378175394333,2899.602783203125,89.9720458984375,359.48175048828125,-90.0,160061.55257525409,-1020.390103435024,-579442.1651254897,1941.0108159300871,-598433.647293208,12.819835052890824,1.0,0.0
1086.457996299956,125.39011732757211,2897.36572265625,89.96572875976562,359.488525390625,-90.0,160065.48423867393,-1020.4302577411033,-579456.639674192,1968.6270626776386,-598433.6168988522,12.92144256463132,1.0,0.0
1099.059020090499,126.2055022820002,2895.501708984375,89.96044921875,359.49407958984375,-90.0,160068.78385991827,-1020.4640090055362,-579468.7883469283,1991.8299962785095,-598433.5914118261,13.006316815064508,1.0,0.0
1114.2725114906207,127.18609666574247,2893.2646484375,89.96044921875,359.5006103515625,-90.0,160072.77134440496,-1020.5048594001771,-579483.470846492,2019.9017619899241,-598433.5607784637,13.108408382948141,1.0,0.0
1129.5987989156274,128.16902376956767,2891.027587890625,89.96044921875,359.5069885253906,-90.0,160076.78937192447,-1020.5460912835166,-579498.2671578195,2048.223588902969,-598433.5299852127,13.210765412676267,1.0,0.0
1145.062171833939,129.15429342332456,2888.79052734375,89.96572875976562,359.5132141113281,-90.0,160080.8380098626,-1020.5877029720154,-579513.1775533827,2076.796651579207,-598433.4990005745,13.313389224627485,1.0,0.0
1158.0194032812724,129.9771471172592,2886.926513671875,89.95574951171875,359.51824951171875,-90.0,160084.23530819922,-1020.6226697538485,-579525.6902282613,2100.80029403558,-598433.4729751216,13.39911372385859,1.0,0.0
1173.7018973297672,130.96673339907488,2884.689453125,89.95574951171875,359.5241394042969,-90.0,160088.34024564436,-1020.6649788590864,-579540.8104898139,2129.8369828694267,-598433.4415875181,13.502229703619435,1.0,0.0
1189.4717948372709,131.95868620661125,2882.452392578125,89.95574951171875,359.52984619140625,-90.0,160092.47598740814,-1020.7076705697542,-579556.0456126546,2159.1282218856504,-598433.4101390915,13.60561581079105,1.0,0.0
1202.7226111582713,132.78712835825777,2880.58837890625,89.95574951171875,359.53448486328125,-90.0,160095.94601983248,-1020.7435376617319,-579568.8294897014,2183.7329024021747,-598433.3839528337,13.691978199050368,1.0,0.0
1218.7174877044745,133.78344415140793,2878.351318359375,89.96572875976562,359.5399169921875,-90.0,160100.13841395255,-1020.7869289624324,-579584.275911299,2213.493928917451,-598433.3525073132,13.795862867940798,1.0,0.0
1234.8687392084394,134.78215208141071,2876.1142578125,89.96044921875,359.54522705078125,-90.0,160104.36180703057,-1020.8307051232864,-579599.8379809081,2243.5129019313026,-598433.3207874474,13.9000212164446,1.0,0.0
1251.0885957733262,135.78325855823203,2873.877197265625,89.95574951171875,359.55029296875,-90.0,160108.61626871084,-1020.8748659190368,-579615.5159770746,2273.790997066302,-598433.2888073707,14.004454227566725,1.0,0.0
1264.7394420214696,136.61935538268108,2872.01318359375,89.9515380859375,359.554443359375,-90.0,160112.18543747967,-1020.9119601836023,-579628.6697313498,2299.2216008208925,-598433.2621281286,14.091692726510473,1.0,0.0
1281.203077185084,137.62488760653306,2869.776123046875,89.9720458984375,359.5592346191406,-90.0,160116.49704062814,-1020.9568257822059,-579644.5609886866,2329.977995436522,-598433.2299318063,14.196633055947643,1.0,0.0
1297.7979397720192,138.63284563532252,2867.5390625,89.96572875976562,359.56390380859375,-90.0,160120.8399096866,-1021.0020768081188,-579660.5689698773,2360.997010169667,-598433.1978637372,14.301851774184968,1.0,0.0
1311.6925653463695,139.47467048186124,2865.675048828125,89.96044921875,359.56768798828125,-90.0,160124.48290036956,-1021.040081544301,-579673.9983225435,2387.04770045646,-598433.1711763771,14.389747640771532,1.0,0.0
1328.4939744436415,140.48709925062687,2863.43798828125,89.9515380859375,359.5721435546875,-90.0,160128.8832703402,-1021.086041835682,-579690.2210338728,2418.551414382062,-598433.138949267,14.495480044959947,1.0,0.0
1345.4449219726957,141.50197832507146,2861.200927734375,89.95574951171875,359.5764465332031,-90.0,160133.3151059739,-1021.1323895307805,-579706.5612749518,2450.32127077505,-598433.1065445298,14.601494335030225,1.0,0.0
1362.4898651221301,142.5193166450761,2858.9638671875,89.9720458984375,359.5806884765625,-90.0,160137.77847663916,-1021.1791258051,-579723.0193302932,2482.358528481098,-598433.0739794215,14.707791775343026,1.0,0.0
1376.7846434761304,143.3689838720759,2857.099853515625,89.95574951171875,359.5841064453125,-90.0,160141.52209424932,-1021.218370179755,-579736.8245817537,2509.261428146274,-598433.0468637317,14.796590205148163,1.0,0.0
1394.073243385763,144.3908549677711,2854.86279296875,89.96044921875,359.5881652832031,-90.0,160146.04346643316,-1021.2658203510025,-579753.4993795424,2541.792239152477,-598433.0143601295,14.903410130658585,1.0,0.0
1411.474272258347,145.41521129533143,2852.625732421875,89.95574951171875,359.59210205078125,-90.0,160150.59657576945,-1021.313661741645,-579770.2928094472,2574.5940783447586,-598432.9817382814,15.010516874047653,1.0,0.0
1428.982114391867,146.44206050143384,2850.388671875,89.96044921875,359.59600830078125,-90.0,160155.18149421192,-1021.3618945036034,-579787.2051612237,2607.668216902297,-598432.9489713523,15.11791157967167,1.0,0.0
1446.626677080756,147.4714123904209,2848.15185546875,89.96572875976562,359.5998229980469,-90.0,160159.7982940574,-1021.4105199524595,-579804.2367257831,2641.0159669334535,-598432.9159482474,15.225595623188156,1.0,0.0
1464.4030782970367,148.50327551863955,2845.914794921875,89.95574951171875,359.6035461425781,-90.0,160164.44705079313,-1021.4595393670935,-579821.3877957251,2674.638630290283,-598432.8826883484,15.333570247553496,1.0,0.0
1482.3166882412042,149.53766010241026,2843.677734375,89.96044921875,359.6072082519531,-90.0,160169.12783495904,-1021.5089525117698,-579838.6586636106,2708.5375394845614,-598432.8493365619,15.441836864641289,1.0,0.0
1497.3052042962518,150.40157948532692,2841.8134765625,89.95574951171875,359.61016845703125,-90.0,160173.05300769114,-1021.5504325301489,-579853.1427782436,2736.998601182364,-598432.8214256263,15.532282994173784,1.0,0.0
1515.4186478086049,151.4406096892876,2839.57666015625,89.96572875976562,359.61370849609375,-90.0,160177.79270162724,-1021.6005712983834,-579870.6340409344,2771.407400290016,-598432.7877429369,15.641088264939299,1.0,0.0
1533.6638069523033,152.48218601705005,2837.339599609375,89.96044921875,359.6170959472656,-90.0,160182.56463310018,-1021.651105811596,-579888.2459386019,2806.0962053659605,-598432.7539030818,15.750189127033138,1.0,0.0
1552.0462968965294,153.52631897542142,2835.1025390625,89.96044921875,359.6204833984375,-90.0,160187.36887560206,-1021.7020389006132,-579905.9787686258,2841.066386634251,-598432.7199456132,15.859587040571455,1.0,0.0
1567.4596248752205,154.3983893092094,2833.238525390625,89.96572875976562,359.62322998046875,-90.0,160191.397147125,-1021.7447873269211,-579920.8487202253,2870.424123045639,-598432.6914618547,15.950979838536398,1.0,0.0
1586.060990592232,155.44723315808014,2831.00146484375,89.96044921875,359.62646484375,-90.0,160196.26082015026,-1021.7964531352266,-579938.8040342226,2905.913692191476,-598432.6571980846,16.06092579114693,1.0,0.0
1604.7746646346059,156.4986599244039,2828.764404296875,89.95574951171875,359.6296081542969,-90.0,160201.15701613895,-1021.8485204093301,-579956.8811282064,2941.6885113741737,-598432.622732646,16.171172599567853,1.0,0.0
1620.5007407286903,157.3768280197694,2826.900146484375,89.95574951171875,359.6321716308594,-90.0,160205.26207739834,-1021.8922169822874,-579972.0386170365,2971.7197479201714,-598432.59392546,16.26327566332759,1.0,0.0
1639.4397602237295,158.43301243754183,2824.663330078125,89.9720458984375,359.6352233886719,-90.0,160210.21809345688,-1021.9450221146229,-579990.3397581987,3008.021095519536,-598432.5592876336,16.374077346793285,1.0,0.0
1658.534542146488,159.49180606861015,2822.42626953125,89.96044921875,359.63818359375,-90.0,160215.2068462942,-1021.9982285864382,-580008.7635362986,3044.6116358680883,-598432.5242457313,16.485183725945603,1.0,0.0
1677.7356509759557,160.5532178594064,2820.189208984375,89.96044921875,359.6410827636719,-90.0,160220.2284127804,-1022.0518374219733,-580027.3102561054,3081.492769762641,-598432.4892381848,16.59659610022328,1.0,0.0
1693.8616371309618,161.43973435156678,2818.324951171875,89.96572875976562,359.6434631347656,-90.0,160224.4381711558,-1022.096820518816,-580042.8599900651,3112.4500505686738,-598432.4599294672,16.689674481567067,1.0,0.0
1713.3131157677853,162.50597084510048,2816.088134765625,89.96572875976562,359.6462097167969,-90.0,160229.52009094984,-1022.151170886694,-580061.632897178,3149.8676346818684,-598432.4245561615,16.801651476048846,1.0,0.0
1732.876534140436,163.57485288113475,2813.85107421875,89.95574951171875,359.64892578125,-90.0,160234.6350405103,-1022.2059263147336,-580080.5296138483,3187.579865425825,-598432.3890466124,16.913938455643233,1.0,0.0
1749.2902460070327,164.46761507447545,2811.98681640625,89.96044921875,359.65118408203125,-90.0,160238.92278427325,-1022.2518669405497,-580096.3716776136,3219.2328335461207,-598432.3593957861,17.007748675057485,1.0,0.0
1769.0976870786399,165.5413705713147,2809.75,89.96572875976562,359.6538391113281,-90.0,160244.09848624395,-1022.307369360276,-580115.4961819098,3257.488984806463,-598432.3236666052,17.12060744152319,1.0,0.0
1789.0611372934654,166.61779689359162,2807.512939453125,89.96572875976562,359.6564636230469,-90.0,160249.30743702073,-1022.3632806379305,-580134.7453745096,3296.043871751521,-598432.2877332303,17.23377998883541,1.0,0.0
1809.1127236324828,167.69690379818613,2805.27587890625,89.9720458984375,359.6590270996094,-90.0,160254.54971322187,-1022.4196009241342,-580154.1195659363,3334.8989676472265,-598432.2514644479,17.34726775680565,1.0,0.0
1825.9512465996668,168.59821465462824,2803.41162109375,89.96044921875,359.6611022949219,-90.0,160258.94379215105,-1022.4668462901167,-580170.3604364048,3367.508616906125,-598432.2211047816,17.44208276071106,1.0,0.0
1846.252593022422,169.68226205267916,2801.1748046875,89.9720458984375,359.66357421875,-90.0,160264.247371951,-1022.5239132492799,-580189.9646065586,3406.9179667995777,-598432.184563973,17.55615222458431,1.0,0.0
1866.7035998010542,170.76901820458212,2798.937744140625,89.96044921875,359.6659851074219,-90.0,160269.58450076924,-1022.5813898916535,-580209.6946655101,3446.6317605194636,-598432.1478611164,17.670541033145525,1.0,0.0
1883.8111711847596,171.67672484096033,2797.073486328125,89.96572875976562,359.6679382324219,-90.0,160274.05779166688,-1022.6296011031529,-580226.2327739506,3479.960242168745,-598432.1172418473,17.76611005227386,1.0,0.0
1904.4871579192113,172.76847454595912,2794.83642578125,89.9720458984375,359.6702880859375,-90.0,160279.45662996452,-1022.6878335197066,-580246.1944501016,3520.2361456116196,-598432.0804671288,17.881088299562805,1.0,0.0
1925.3198856287636,173.86296028238107,2792.599609375,89.9515380859375,359.6725769042969,-90.0,160284.8892408379,-1022.7464790079492,-580266.282915093,3560.820787706529,-598432.0435168959,17.996389964759544,1.0,0.0
1946.239772913861,174.9601901901435,2790.362548828125,89.95574951171875,359.67486572265625,-90.0,160290.35570334972,-1022.8055401015104,-580286.498487045,3601.7156742980005,-598432.0063781445,18.112016338599233,1.0,0.0
1963.815979482024,175.87665242406183,2788.498291015625,89.9515380859375,359.6767272949219,-90.0,160294.93700659898,-1022.8550748366202,-580303.4421234867,3636.0328650680603,-598431.9752330034,18.20862082217269,1.0,0.0
1985.004792539985,176.9789407698831,2786.261474609375,89.96572875976562,359.678955078125,-90.0,160300.46573891825,-1022.9148994615705,-580323.8915571182,3677.5005876314826,-598431.9378524168,18.32484651090374,1.0,0.0
2006.305912467651,178.08400127620382,2784.0244140625,89.96572875976562,359.68109130859375,-90.0,160306.02855085995,-1022.9751439902975,-580344.4690083074,3719.282962168916,-598431.9001806924,18.44140110499086,1.0,0.0
2024.1695997288916,179.00700965207602,2782.16015625,89.95574951171875,359.6828918457031,-90.0,160310.69031911058,-1023.0256681720778,-580361.714909005,3754.343097980367,-598431.8687463504,18.538782228600212,1.0,0.0
2045.7148640087107,180.1171771871263,2779.923095703125,89.96044921875,359.6850280761719,-90.0,160316.31582029705,-1023.086682246784,-580382.5278998131,3796.706408621045,-598431.8307908223,18.655943569206272,1.0,0.0
2067.416137597058,181.2301428744706,2777.686279296875,89.96044921875,359.6871643066406,-90.0,160321.97562926044,-1023.1481179927899,-580403.4698272997,3839.3888140423223,-598431.7929656308,18.77343780443124,1.0,0.0
2089.254863980226,182.34591634490857,2775.44921875,89.96572875976562,359.6893005371094,-90.0,160327.66982890098,-1023.2099769757235,-580424.5410190062,3882.3919127077097,-598431.7548212464,18.89126643517369,1.0,0.0
2107.543362434604,183.27787757944103,2773.5849609375,89.95574951171875,359.691162109375,-90.0,160332.4413241511,-1023.2618494882406,-580442.199325358,3918.473924764199,-598431.723097617,18.989713263044735,1.0,0.0
2129.6196419966873,184.39881956292606,2771.347900390625,89.96044921875,359.69342041015625,-90.0,160338.1987836261,-1023.3244844349781,-580463.5083522638,3962.0690555147594,-598431.6847487675,19.10815833976983,1.0,0.0
2151.8148213869426,185.5225914402013,2769.111083984375,89.95574951171875,359.69580078125,-90.0,160343.99086565702,-1023.3875427540945,-580484.9475732085,4005.9893505284563,-598431.6461351741,19.226941464638855,1.0,0.0
2170.4346237153513,186.46123429417744,2767.246826171875,89.96044921875,359.69781494140625,-90.0,160348.84410840287,-1023.4404148618236,-580502.9132819679,4042.839115894749,-598431.6136883321,19.32618646294287,1.0,0.0
2192.87321429397,187.59021244047236,2765.009765625,89.96572875976562,359.7004089355469,-90.0,160354.69988133927,-1023.5042502687728,-580524.5920490792,4087.359651123057,-598431.5747118206,19.445592486915984,1.0,0.0
2215.4683023510734,188.72203937414872,2762.77294921875,89.96044921875,359.7032775878906,-90.0,160360.59051228594,-1023.568510778946,-580546.4019472462,4132.209828866296,-598431.5353748093,19.565339918883126,1.0,0.0
2238.19498304592,189.85671727154306,2760.535888671875,89.95574951171875,359.70648193359375,-90.0,160366.51608552082,-1023.6331967209272,-580568.3433075484,4177.391156207188,-598431.4956169658,19.68542948497469,1.0,0.0
2257.240088077844,190.80446047073607,2758.671630859375,89.96044921875,359.7095031738281,-90.0,160371.4808173501,-1023.6874286872347,-580586.7284371168,4215.296294249129,-598431.4619824007,19.785765895927,1.0,0.0
2280.2348395120353,191.94436673154703,2756.4345703125,89.9515380859375,359.7135925292969,-90.0,160377.47067578847,-1023.7528977372946,-580608.9116720064,4261.088585775346,-598431.4204387662,19.906484239232384,1.0,0.0
2303.3423874187283,193.08712248467677,2754.19775390625,89.96572875976562,359.71832275390625,-90.0,160383.49572739852,-1023.8187960299967,-580631.2273059955,4307.2161767005455,-598431.3774926438,20.027546050515753,1.0,0.0
2322.700241035549,194.04159085918874,2752.33349609375,89.95574951171875,359.722900390625,-90.0,160388.5435519497,-1023.8740386876362,-580649.925043412,4345.912939859787,-598431.3404979293,20.128693140969915,1.0,0.0
2346.0951460415963,195.18955105066325,2750.096435546875,89.9515380859375,359.729248046875,-90.0,160394.6333610119,-1023.9407239574185,-580672.4842623052,4392.658700002357,-598431.2939831441,20.25038398254884,1.0,0.0
2369.5774569923524,196.34033306897672,2747.859375,89.94406127929688,359.7367858886719,-90.0,160400.7586309686,-1024.0078399888448,-580695.176807386,4439.743401185959,-598431.2445888105,20.37241694944362,1.0,0.0
2393.222855312284,197.49391974934406,2745.62255859375,89.94406127929688,359.74578857421875,-90.0,160406.91946063333,-1024.0753885421343,-580718.003000445,4487.168171377503,-598431.1918526737,20.494790795454662,1.0,0.0
2413.02383221488,198.45736511092645,2743.75830078125,89.93743896484375,359.7546081542969,-90.0,160412.0807260215,-1024.1320096005836,-580737.1271498367,4526.949258817942,-598431.1443383922,20.597027816967113,1.0,0.0
2436.912888269755,199.61601881041616,2741.521240234375,89.92340087890625,359.7671203613281,-90.0,160418.30702981658,-1024.2003520474884,-580760.1991865842,4574.999782278435,-598431.0819728996,20.720020366782364,1.0,0.0
2460.97650780587,200.77738378576555,2739.284423828125,89.91152954101562,359.7818603515625,-90.0,160424.5692212315,-1024.2691283168492,-580783.40575565,4623.392617076635,-598431.0110423199,20.843345861334285,1.0,0.0
2481.1153817540035,201.74722653309243,2737.420166015625,89.897216796875,359.796142578125,-90.0,160429.81522335918,-1024.3267742898206,-580802.847545123,4663.981826795964,-598430.9447794022,20.94636845818968,1.0,0.0
2505.4045923401136,202.91344041766354,2735.18310546875,89.87966918945312,108.96123504638672,19.257705688476562,160436.14356153688,-1024.3963494648622,-580826.3015220647,4713.003416084219,-598430.8546615391,21.0702932137562,1.0,0.0
2529.824420800549,204.08221917108045,2732.946044921875,89.86294555664062,106.1378402709961,16.4332275390625,160442.5082052372,-1024.4663594931662,-580849.89084519,4762.368303825147,-598430.7480201425,21.194537634996266,1.0,0.0
2554.4007485591574,205.25350524626532,2730.709228515625,89.84051513671875,103.7557601928711,14.049591064453125,160448.90933448565,-1024.5368031818352,-580873.615780819,4812.076642907225,-598430.6242648874,21.319096267345913,1.0,0.0
2574.9893414913677,206.23144960746828,2728.844970703125,89.8165283203125,102.08145904541016,12.373626708984375,160454.27161822154,-1024.595837469422,-580893.4903374554,4853.762697839411,-598430.5053040234,21.423131257397586,1.0,0.0
2599.8095726200845,207.4071755273822,2726.60791015625,89.78692626953125,100.40301513671875,10.694976806640625,160460.74015394849,-1024.667076615606,-580917.4645470803,4904.100884820218,-598430.3409183496,21.548251542974356,1.0,0.0
2624.7855709965806,208.58523511706267,2724.370849609375,89.756103515625,99.01071166992188,9.3009033203125,160467.2457801428,-1024.7387507062292,-580941.5750540034,4954.782627202105,-598430.1474122915,21.673670212312686,1.0,0.0
2645.6876517152414,209.5686964969978,2722.5068359375,89.72732543945312,98.04742431640625,8.33575439453125,160472.69565277768,-1024.7988112019773,-580961.7714147472,4997.279956260463,-598429.9635181209,21.77841017768941,1.0,0.0
2670.932459056028,210.7509063712703,2720.269775390625,89.6890869140625,97.04668426513672,7.334197998046875,160479.26991538325,-1024.8712806273254,-580986.1323640115,5048.59199466696,-598429.7246767156,21.904363268990267,1.0,0.0
2696.314967751503,211.93527887156094,2718.03271484375,89.64666748046875,96.1872329711914,6.47271728515625,160485.8819254931,-1024.9441824946637,-581010.6302248507,5100.2474329049,-598429.4521646791,22.030598658712734,1.0,0.0
2717.5473867942346,212.92383440533808,2716.168701171875,89.6103515625,95.58265686035156,5.867156982421875,160491.4210028015,-1025.0052643656588,-581031.1498185975,5143.555239922018,-598429.1924432546,22.13600363790482,1.0,0.0
2743.217506543151,214.11193397988188,2713.931640625,89.56390380859375,94.95909118652344,5.241485595703125,160498.10307496646,-1025.078958718048,-581055.8991182118,5195.83822125569,-598428.836008248,22.262734661252694,1.0,0.0
2768.9813838162227,215.30201476212895,2711.694580078125,89.51544189453125,94.45103454589844,4.73236083984375,160504.82388974034,-1025.1530830042188,-581080.7857731478,5248.463995775441,-598428.4294256988,22.38973170431899,1.0,0.0
2794.8956574344775,216.49407606862567,2709.45751953125,89.46881103515625,94.03382873535156,4.313446044921875,160511.583803014,-1025.2276358668355,-581105.809931661,5301.433653104003,-598427.9759043907,22.516995014973986,1.0,0.0
2816.5968476983253,217.4889910270419,2707.593505859375,89.42904663085938,93.7442855834961,4.023193359375,160517.24718556655,-1025.2900906846244,-581126.7685433284,5345.838934432133,-598427.5629353801,22.623253368534733,1.0,0.0
2842.8043442808557,218.6847467396398,2705.3564453125,89.38323974609375,93.44482421875,3.72210693359375,160524.07968597228,-1025.3654292112353,-581152.0451885373,5399.443422528682,-598427.0259403961,22.751012768532462,1.0,0.0
2869.124639517977,219.88256470842492,2703.119384765625,89.33856201171875,93.19622039794922,3.47186279296875,160530.952268755,-1025.441194430942,-581177.4597769951,5453.396892751916,-598426.4445764775,22.879048432956722,1.0,0.0
2895.6014332391787,221.0824921837469,2700.88232421875,89.294189453125,92.98137664794922,3.25567626953125,160537.86525333917,-1025.517384966443,-581203.0124812882,5507.701583210961,-598425.8232935958,23.007365565838995,1.0,0.0
2917.7706560253864,222.0840703771615,2699.018310546875,89.25823974609375,92.82560729980469,3.0987548828125,160543.65716137676,-1025.5812015103409,-581224.412036435,5553.225285495981,-598425.275520424,23.114514762845545,1.0,0.0
2944.491355268983,223.28795257810265,2696.78125,89.21591186523438,92.6579360961914,2.929718017578125,160550.64501743918,-1025.658170558192,-581250.218424231,5608.179053044179,-598424.5828706071,23.243358466384223,1.0,0.0
2971.373924678657,224.49402012300985,2694.544189453125,89.17434692382812,92.50870513916016,2.77899169921875,160557.67416054002,-1025.7355631941148,-581276.1634444101,5663.489301746129,-598423.8488090859,23.372493380767196,1.0,0.0
2998.406890582759,225.70229822605066,2692.307373046875,89.13204956054688,92.3736343383789,2.642547607421875,160564.74489550595,-1025.813377661641,-581302.2472862494,5719.157849413808,-598423.0773049291,23.501922444581737,1.0,0.0
3021.0265700317686,226.71089363593356,2690.443115234375,89.096923828125,92.27110290527344,2.5390625,160570.6691670431,-1025.8785449153816,-581324.0900034958,5765.823136165971,-598422.4043005852,23.61000612156539,1.0,0.0
3048.309790124069,227.92324438876358,2688.2060546875,89.05438232421875,92.15755462646484,2.424224853515625,160577.8169508482,-1025.957130270111,-581350.4288491886,5822.15237677854,-598421.5612622409,23.739978335698368,1.0,0.0
3071.173376254039,228.93522544198058,2686.342041015625,89.0184326171875,92.07125854492188,2.336578369140625,160583.80587766474,-1026.0229383370208,-581372.4843336123,5869.369878525147,-598420.8244482724,23.848514945041984,1.0,0.0
3098.7246736751404,230.15163593119038,2684.10498046875,88.97531127929688,91.97359466552734,2.23760986328125,160591.03180376906,-1026.1022917017947,-581399.0788086372,5926.363881551893,-598419.9027884167,23.97903154006036,1.0,0.0
3126.4324726384366,231.37026169167092,2681.867919921875,88.93173217773438,91.88436889648438,2.14715576171875,160598.30082669447,-1026.1820630671268,-581425.8129783176,5983.722353562713,-598418.9354209553,24.10984625546081,1.0,0.0
3154.2965277590556,232.5911123747758,2679.630859375,88.88775634765625,91.79952239990234,2.06109619140625,160605.61328909843,-1026.2622519515166,-581452.6870235921,6041.446791450609,-598417.9257820443,24.240960453303785,1.0,0.0
3177.6100843318272,233.61019071868387,2677.766845703125,88.85073852539062,91.73444366455078,1.994781494140625,160611.7404279182,-1026.3293935187125,-581475.1890461138,6089.831069977372,-598417.0514417308,24.35045189496958,1.0,0.0
3205.7244002565276,234.8351363966476,2675.52978515625,88.80514526367188,91.65763854980469,1.916778564453125,160619.13335272617,-1026.4103434179865,-581502.3200254148,6148.230104768183,-598415.9765704873,24.48211744645056,1.0,0.0
3234.0132885143394,236.06223500206485,2673.292724609375,88.75479125976562,91.58377075195312,1.84185791015625,160626.5705553501,-1026.4917069840892,-581529.5914322061,6206.997057334287,-598414.8559406725,24.614076920868115,1.0,0.0
3257.664276676951,237.08637259703457,2671.428466796875,88.7110595703125,91.52474975585938,1.781707763671875,160632.80234582155,-1026.5598259424467,-581552.4249802969,6256.249353692401,-598413.8782476999,24.724259437155354,1.0,0.0
3286.2034310123418,238.31713766112,2669.191650390625,88.65606689453125,91.4559326171875,1.711700439453125,160640.3218151272,-1026.6419472880164,-581579.9541995984,6315.687371482374,-598412.6456405064,24.85673207774255,1.0,0.0
3314.898356189835,239.54985948997586,2666.95458984375,88.60128784179688,91.39214324951172,1.64654541015625,160647.88681926948,-1026.7244799333455,-581607.6242071663,6375.4920938962605,-598411.3468194271,24.989481398806447,1.0,0.0
3343.7251235506264,240.78455698057743,2664.717529296875,88.54653930664062,91.3340072631836,1.58721923828125,160655.49780535686,-1026.807421832032,-581635.4351259926,6435.665140015306,-598409.9865503134,25.12250964408088,1.0,0.0
3372.7137615798274,242.0212763468938,2662.48046875,88.49325561523438,91.28245544433594,1.53448486328125,160663.15520817612,-1026.890771498698,-581663.3870842472,6496.208864535787,-598408.5667219277,25.25582218550818,1.0,0.0
3396.9721996684093,243.05345470057756,2660.616455078125,88.44970703125,91.24369049072266,1.49468994140625,160669.57213833267,-1026.9605401201318,-581686.7882213023,6546.946870804997,-598407.339748477,25.367137102554068,1.0,0.0
3426.2298892178806,244.29400586381934,2658.37939453125,88.3985595703125,91.20113372802734,1.450958251953125,160677.31572467348,-1027.044635621696,-581714.99911939,6608.176534079481,-598405.8150911264,25.500985402266622,1.0,0.0
3450.712210734724,245.3294476823437,2656.51513671875,88.357177734375,91.16909790039062,1.417877197265625,160683.80505751618,-1027.1150261520656,-581738.6162471611,6659.489732238348,-598404.5011966068,25.612755108783404,1.0,0.0
3480.2384598751087,246.5740147140561,2654.2783203125,88.30859375,91.13184356689453,1.37957763671875,160691.63620489405,-1027.1998684927141,-581767.0866000485,6721.414322545985,-598402.8776022851,25.747160371603968,1.0,0.0
3509.9219395177206,247.8208493102224,2652.041259765625,88.26089477539062,91.09993743896484,1.3465576171875,160699.51567202847,-1027.285115847222,-581795.6987139634,6783.721853031893,-598401.2002274698,25.881878533632516,1.0,0.0
3539.7418978393544,249.07000490218243,2649.80419921875,88.21414184570312,91.06880187988281,1.3143310546875,160707.4438293296,-1027.370768730549,-581824.4527723751,6846.415024955641,-598399.4755504879,26.016915380413423,1.0,0.0
3569.7432591496035,250.32151214773273,2647.567138671875,88.16751098632812,91.04096984863281,1.285247802734375,160715.42103960083,-1027.4568268900068,-581853.3489661382,6909.496062171296,-598397.7022457997,26.152274962602746,1.0,0.0
