obs_alt,obs_vel,obs_fuel,obs_pitch,obs_heading,obs_roll,obs_pos_x,obs_pos_y,obs_pos_z,obs_ap,obs_pe,obs_time_to_ap,act_throttle,act_stage
19.57964511855971,5.678423060175149,11817.0693359375,89.91842651367188,269.61859130859375,-90.0,159784.7223604391,-1016.3262812903749,-578427.4863074163,93.76826269424055,-598435.276161939,0.5820475920446029,1.0,0.0
20.219833321054466,6.858344008970991,11805.4150390625,89.9072265625,269.5142517089844,-90.0,159784.89178263288,-1016.3273285772784,-578428.1036714253,95.166581389145,-598435.2851042022,0.7029940630123974,1.0,0.0
21.14405539969448,8.277703373250691,11791.4306640625,89.90109252929688,269.4012145996094,-90.0,159785.13651362158,-1016.3289622306957,-578428.9949000572,97.19186736131087,-598435.3002857708,0.8484858883792867,1.0,0.0
22.2388302605832,9.700244444236068,11777.4453125,89.903076171875,269.304931640625,-90.0,159785.42641258895,-1016.3308977514289,-578430.0505921047,99.59738467948046,-598435.3370350619,0.994306392122553,1.0,0.0
23.504521986702457,11.125708554025476,11763.4609375,89.89532470703125,269.22772216796875,-90.0,159785.7614361423,-1016.3330609782033,-578431.2711355237,102.38459952443372,-598435.387104709,1.1404295213852151,1.0,0.0
24.690068827476352,12.315798119220894,11751.806640625,89.88986206054688,269.17510986328125,-90.0,159786.07513244415,-1016.3350349388684,-578432.4144315257,104.99999543488957,-598435.4293141752,1.2624272481788807,1.0,0.0
26.270005649421364,13.746554829443193,11737.822265625,89.88809204101562,269.12255859375,-90.0,159786.4930522267,-1016.3375971949326,-578433.9380892778,108.49114341265522,-598435.4812958548,1.4090996662700377,1.0,0.0
28.021840644767508,15.180206088391616,11723.837890625,89.88809204101562,269.0809020996094,-90.0,159786.95626771453,-1016.3403366393077,-578435.627570741,112.36857143731322,-598435.5403002579,1.5560731187266583,1.0,0.0
29.613264158950187,16.37712990207491,11712.18359375,89.8863525390625,269.05419921875,-90.0,159787.3769089538,-1016.342731560454,-578437.1623946568,115.89602172654122,-598435.5936780587,1.6787816360414922,1.0,0.0
31.68114722124301,17.8161001207724,11698.19921875,89.88296508789062,278.59930419921875,-80.41043090820312,159787.92328662347,-1016.3457312508153,-578439.1567893163,120.48590366553981,-598435.6590264185,1.8263095010571533,1.0,0.0
33.92191632674076,19.257979061360604,11684.21484375,89.88296508789062,278.8293151855469,-80.16378784179688,159788.51513599165,-1016.3488716472539,-578441.3179816101,125.46674322115723,-598435.7230739978,1.974141249202603,1.0,0.0
36.33591866667848,20.702771582066827,11670.2294921875,89.88296508789062,278.7624206542969,-80.21762084960938,159789.15253738573,-1016.352150902957,-578443.6463126922,130.84020500571933,-598435.7881621148,2.122277853575781,1.0,0.0
38.48017052002251,21.908995017424857,11658.576171875,89.87966918945312,278.61285400390625,-80.36251831054688,159789.7185548099,-1016.3549867559823,-578445.7145108823,135.61921719554812,-598435.8429942584,2.245958668723347,1.0,0.0
41.212674749665894,23.35914298149767,11644.5908203125,89.88296508789062,278.51678466796875,-80.45346069335938,159790.4396729565,-1016.3585183237346,-578448.3501492348,141.71683924191166,-598435.9072052533,2.3946569039356973,1.0,0.0
44.11941039690282,24.81221715351966,11630.6064453125,89.88131713867188,278.284423828125,-80.68621826171875,159791.20657793706,-1016.362202850044,-578451.1538928478,148.21183978090994,-598435.9711196074,2.5436627111452026,1.0,0.0
46.67503714701161,26.025353209652096,11618.953125,89.87966918945312,277.9449157714844,-81.02590942382812,159791.88070344823,-1016.3653969251218,-578453.6190037247,153.92912027763668,-598436.0234778312,2.668070115449325,1.0,0.0
49.9021096881479,27.483809804562796,11604.9677734375,89.87966918945312,277.64227294921875,-81.33258056640625,159792.73177991068,-1016.3693817824724,-578456.7318226673,161.15706435136963,-598436.0851313404,2.817642957070177,1.0,0.0
53.30439354327973,28.945208111040937,11590.9833984375,89.88131713867188,277.27423095703125,-81.70556640625,159793.62889345348,-1016.37353708303,-578460.0137118535,168.78721141256392,-598436.1457136534,2.967526418334785,1.0,0.0
56.88226927083451,30.40955594465931,11576.9990234375,89.8846435546875,269.0010681152344,-90.0,159794.57213594447,-1016.377876640171,-578463.4650126796,176.82128436828498,-598436.2052711983,3.117721821196426,1.0,0.0
59.9982097967295,31.632100014956357,11565.3447265625,89.8846435546875,269.0047607421875,-90.0,159795.39347604947,-1016.3816418395045,-578466.4707563568,183.82613799744286,-598436.253284907,3.243123446402649,1.0,0.0
63.89888467558194,33.10186252333904,11551.3603515625,89.8846435546875,269.009765625,-90.0,159796.4215262078,-1016.3863379330041,-578470.2335351437,192.6052089560544,-598436.3099656247,3.3938928618538284,1.0,0.0
67.97614998661447,34.57458660079685,11537.375,89.8863525390625,269.0147705078125,-90.0,159797.49595789815,-1016.3912349127831,-578474.1666937151,201.79310574871488,-598436.3668811729,3.5449769415149035,1.0,0.0
71.5090251135407,35.80412243532078,11525.7216796875,89.8863525390625,269.018798828125,-90.0,159798.42681022183,-1016.3954711825254,-578477.5747347503,209.76324288733304,-598436.4136579611,3.671121462010717,1.0,0.0
75.91096872545313,37.282288500248974,11511.736328125,89.88809204101562,269.02313232421875,-90.0,159799.58650438723,-1016.4007606402638,-578481.8211647398,219.7051914425101,-598436.468122366,3.8227851374044235,1.0,0.0
79.71488498919643,38.516367815294046,11500.0830078125,89.8846435546875,269.0265808105469,-90.0,159800.58853500968,-1016.4053450942638,-578485.4907429315,228.30617157102097,-598436.513523449,3.9494142805609727,1.0,0.0
84.44267429388128,39.99999552481233,11486.0986328125,89.8846435546875,269.0312805175781,-90.0,159801.83378106708,-1016.4110491023066,-578490.0516047229,239.0081025020918,-598436.5691109841,4.101661360928972,1.0,0.0
88.51864170504268,41.2386318597562,11474.4443359375,89.88809204101562,269.0350036621094,-90.0,159802.90721710617,-1016.4159705013635,-578493.983698125,248.2448764120927,-598436.6148120634,4.228778036276935,1.0,0.0
93.5734983648872,42.727731385700764,11460.4599609375,89.88809204101562,269.0385437011719,-90.0,159804.23829303763,-1016.42209033376,-578498.8601599797,259.7127260765992,-598436.6688729846,4.381611465732192,1.0,0.0
98.8072584560141,44.21982721331146,11446.474609375,89.89166259765625,269.041748046875,-90.0,159805.61631627814,-1016.4284405902627,-578503.9092572536,271.600900540594,-598436.7218560642,4.534766721718313,1.0,0.0
103.3056534716161,45.46553234470013,11434.8212890625,89.88809204101562,269.04486083984375,-90.0,159806.80059442276,-1016.4338986769917,-578508.2489653225,281.83009268098976,-598436.764790558,4.662642677087604,1.0,0.0
108.86834893655032,46.96313063339035,11420.8359375,89.89166259765625,269.0482177734375,-90.0,159808.26491567446,-1016.4406485230329,-578513.6154819306,294.4935309521388,-598436.8184272253,4.816390339545592,1.0,0.0
114.6109758107923,48.46373799561218,11406.8515625,89.88986206054688,269.0504150390625,-90.0,159809.7764201848,-1016.4476540879014,-578519.1556192891,307.58240202756133,-598436.8679612428,4.970462815364499,1.0,0.0
119.53418898954988,49.7165460107565,11395.1982421875,89.88986206054688,269.052490234375,-90.0,159811.07212428434,-1016.4536832690837,-578523.9052866981,318.8160950106103,-598436.9130109797,5.099105310610355,1.0,0.0
125.60760492901318,51.22268033464377,11381.212890625,89.88986206054688,269.055419921875,-90.0,159812.67035198386,-1016.4611273453238,-578529.7646668048,332.6896617115708,-598436.9692737927,5.253775617696419,1.0,0.0
131.8619979035575,52.731836605945006,11367.228515625,89.88986206054688,269.0579528808594,-90.0,159814.3159961112,-1016.4688175961974,-578535.7986803609,346.99384155881125,-598437.0219299692,5.408773717572842,1.0,0.0
138.29769460880198,54.24402022306245,11353.244140625,89.88809204101562,269.0599365234375,-90.0,159816.00914697364,-1016.476760034323,-578542.0076736552,361.7304779601982,-598437.0736380869,5.564100717972565,1.0,0.0
143.79952261643484,55.506488105031785,11341.58984375,89.88809204101562,269.0616455078125,-90.0,159817.4564640484,-1016.4835700140002,-578547.3157541805,374.34269190148916,-598437.1187838551,5.693791748386502,1.0,0.0
150.56857691460755,57.02423337387209,11327.60546875,89.89166259765625,269.0640869140625,-90.0,159819.23693974936,-1016.4919779047968,-578553.8464632554,389.87698131788056,-598437.1709318758,5.849724442827267,1.0,0.0
157.519975512987,58.54501992361471,11313.6201171875,89.88809204101562,269.0668029785156,-90.0,159821.0651577807,-1016.5006104604008,-578560.5531618237,405.8490053972928,-598437.2252414322,6.005989128131034,1.0,0.0
163.45235404686537,59.81466637902682,11301.966796875,89.88809204101562,269.0685729980469,-90.0,159822.62519935073,-1016.508009572387,-578566.2767699787,419.49473502195906,-598437.2727633181,6.136463848698384,1.0,0.0
170.73901612788904,61.341038463142226,11287.9814453125,89.89166259765625,269.0701904296875,-90.0,159824.54114417464,-1016.5171203062537,-578573.3070479201,436.27412524446845,-598437.3269323845,6.293339877816209,1.0,0.0
178.20905942108948,62.87046947022479,11273.9970703125,89.88986206054688,269.0733947753906,-90.0,159826.50508494183,-1016.5264536932709,-578580.5143152421,453.4966054360848,-598437.3798451575,6.450551538709419,1.0,0.0
185.86284758453257,64.40295964450418,11260.0126953125,89.8846435546875,269.0762023925781,-90.0,159828.51708423786,-1016.5360142335894,-578587.8989398766,471.16404930187855,-598437.4353457098,6.608099406358065,1.0,0.0
192.38163388811518,65.68237387785578,11248.3583984375,89.8863525390625,269.0777282714844,-90.0,159830.2305176998,-1016.5441777304413,-578594.1885318018,486.22818965802435,-598437.4825561141,6.739646828608841,1.0,0.0
200.3732328277547,67.22048289271682,11234.3740234375,89.88809204101562,269.0789794921875,-90.0,159832.33082706583,-1016.5542298600676,-578601.8992431333,504.71634192345664,-598437.5397453984,6.89781385923942,1.0,0.0
208.54965075012296,68.7616626322372,11220.3896484375,89.88809204101562,269.08245849609375,-90.0,159834.47945064533,-1016.5645155802968,-578609.788333144,523.6548724401509,-598437.5965376501,7.056320165183422,1.0,0.0
215.5047474532621,70.04833120006734,11208.7353515625,89.88131713867188,274.0431823730469,-85.03195190429688,159836.30688893446,-1016.5732679859402,-578616.4990850731,539.7824310573051,-598437.6456388773,7.1886690043832004,1.0,0.0
224.0209226674633,71.59515650655187,11194.7509765625,89.88809204101562,269.0872802734375,-90.0,159838.54426264504,-1016.5839951977732,-578624.7161271179,559.5517023472348,-598437.7004513361,7.3478006801709626,1.0,0.0
232.72292760654818,73.14507027389676,11180.765625,89.88986206054688,269.0882568359375,-90.0,159840.83018859033,-1016.5949753568175,-578633.112554653,579.7768776410958,-598437.7505863988,7.507275428380922,1.0,0.0
241.61115727259312,74.6980757589113,11166.78125,89.88809204101562,269.0902099609375,-90.0,159843.16478098306,-1016.6062129185202,-578641.6887089519,600.4598948713392,-598437.8028652779,7.667094084926248,1.0,0.0
250.68595299695153,76.25417836543446,11152.796875,89.88809204101562,269.09423828125,-90.0,159845.54806740937,-1016.6176941440108,-578650.4449884216,621.6027247888269,-598437.8634816874,7.82725771495052,1.0,0.0
259.9476787559688,77.81337898443407,11138.8115234375,89.88296508789062,274.1064758300781,-84.979736328125,159847.9801523782,-1016.6294719920161,-578659.3817461107,643.207323971903,-598437.9190156589,7.987767433604972,1.0,0.0
269.3967680806527,79.3756866111224,11124.8271484375,89.8846435546875,269.0999450683594,-90.0,159850.46110436303,-1016.641490612984,-578668.4993548035,665.2756889795419,-598437.9802365019,8.148624566692718,1.0,0.0
279.0335728903301,80.94111130246725,11110.8427734375,89.88809204101562,269.10345458984375,-90.0,159852.99098976565,-1016.6537444040778,-578677.7981658041,687.8098823918262,-598438.0382585225,8.309831077477327,1.0,0.0
287.2078807920916,82.24800707369609,11099.1884765625,89.8846435546875,269.10491943359375,-90.0,159855.13671900477,-1016.6641578719618,-578685.6858494029,706.9455770410132,-598438.0841483854,8.444436622259445,1.0,0.0
297.18976357695647,83.81914266932883,11085.2041015625,89.8863525390625,269.1084899902344,-90.0,159857.75664228384,-1016.6768538401129,-578695.3178159297,730.3388370254543,-598438.1376466115,8.606285065424913,1.0,0.0
307.3603776023956,85.39339893303884,11071.21875,89.8846435546875,269.11187744140625,-90.0,159860.42577025705,-1016.6897421226504,-578705.1319992075,754.2035111292498,-598438.1988625304,8.768484940884434,1.0,0.0
315.98030680429656,86.70766472000568,11059.5654296875,89.88296508789062,277.0464172363281,-82.05133056640625,159862.68770539187,-1016.7006383583548,-578713.4499526287,774.4523154303897,-598438.2401275088,8.903921106392318,1.0,0.0
326.4980172471842,88.28766028187334,11045.580078125,89.88809204101562,269.1162414550781,-90.0,159865.44731337437,-1016.7138969645503,-578723.5991782492,799.1865888641914,-598438.2973668216,9.066769515395777,1.0,0.0
337.20549143024255,89.87079640624388,11031.595703125,89.8846435546875,269.1187744140625,-90.0,159868.2563682154,-1016.7273307189944,-578733.9316703912,824.3981172634521,-598438.3527674587,9.229973719490545,1.0,0.0
348.10316681151744,91.45708053217975,11017.611328125,89.8846435546875,269.12152099609375,-90.0,159871.11501460275,-1016.7409394130709,-578744.4478053271,850.0889683014248,-598438.4059778118,9.393535228219548,1.0,0.0
359.1914626074722,93.04651420186914,11003.626953125,89.88809204101562,269.1224365234375,-90.0,159874.02331893815,-1016.7547824130061,-578755.1479343616,876.2611873068381,-598438.4561001245,9.557454970327,1.0,0.0
370.47068934561685,94.63909271606713,10989.642578125,89.88809204101562,269.12640380859375,-90.0,159876.9813711746,-1016.7688713119032,-578766.0324282071,902.9167606544215,-598438.5069687192,9.721733087113535,1.0,0.0
381.9412537147291,96.23483789597611,10975.6572265625,89.8846435546875,269.1300048828125,-90.0,159879.98927096912,-1016.783150230408,-578777.1016458,930.0579009464709,-598438.5661633599,9.886372320663668,1.0,0.0
393.60350911936257,97.8337502964223,10961.6728515625,89.88131713867188,278.85107421875,-80.26165771484375,159883.04702649993,-1016.7976128206255,-578788.3560090987,957.6866708302405,-598438.6306658569,10.051373572313082,1.0,0.0
403.46886331087444,99.16860416744322,10950.01953125,89.88131713867188,279.19708251953125,-79.91937255859375,159885.63332081586,-1016.8097658798697,-578797.8763295237,981.0847206491744,-598438.6793877183,10.18915277736886,1.0,0.0
415.4836319112219,100.77335634848572,10936.0341796875,89.8846435546875,269.1392822265625,-90.0,159888.7827574746,-1016.8244461760523,-578809.4709957908,1009.6131972839357,-598438.7316727516,10.354823871477834,1.0,0.0
427.6911848364398,102.38130100682885,10922.048828125,89.8846435546875,269.1388854980469,-90.0,159891.98236824834,-1016.8393390522006,-578821.2518610222,1038.635428812122,-598438.792353875,10.52086165191173,1.0,0.0
438.0116795292124,103.72371067988227,10910.3955078125,89.88131713867188,276.889404296875,-82.23486328125,159894.68707432627,-1016.851918850899,-578831.2117232204,1063.199495936744,-598438.8371385924,10.659509323337886,1.0,0.0
450.573730015778,105.33755941091543,10896.41015625,89.88131713867188,277.0291748046875,-82.09710693359375,159897.9789004938,-1016.8672518477442,-578843.3348343887,1093.1329529933864,-598438.8854568714,10.826227640053276,1.0,0.0
463.3296767093707,106.95464376544174,10882.42578125,89.88131713867188,278.09844970703125,-81.03033447265625,159901.3211761959,-1016.8827765331271,-578855.6452019238,1123.5665769338375,-598438.9446717083,10.993319217595456,1.0,0.0
476.2798922166694,108.57497897861415,10868.44140625,89.8780517578125,277.82354736328125,-81.30682373046875,159904.71385836514,-1016.8984784827235,-578868.1431660091,1154.5026620316785,-598439.0119760372,11.160786513278026,1.0,0.0
487.22037766932044,109.92774541927515,10856.787109375,89.8780517578125,277.4122619628906,-81.72024536132812,159907.579706579,-1016.9117472515109,-578878.7017156715,1180.6681894811336,-598439.0619549059,11.300631027153486,1.0,0.0
500.52773482969496,111.55406690613569,10842.802734375,89.87966918945312,277.29046630859375,-81.84341430664062,159911.0651700291,-1016.9278074250224,-578891.5446460678,1212.5314002415398,-598439.1176273233,11.468792942698371,1.0,0.0
514.0306311046006,113.183680873064,10828.818359375,89.87646484375,277.2820739746094,-81.85394287109375,159914.60135276438,-1016.9440743670466,-578904.5762810078,1244.9036764828488,-598439.1826799703,11.637337115157493,1.0,0.0
525.4324394796276,114.54420852535786,10817.1640625,89.8780517578125,276.9815368652344,-82.15609741210938,159917.58702702,-1016.957799528599,-578915.5803821259,1272.2710709775565,-598439.2335375878,11.778083688248103,1.0,0.0
539.2945478894981,116.17987247156572,10803.1796875,89.87646484375,276.5695495605469,-82.570556640625,159921.21640056826,-1016.9744800672534,-578928.9589817345,1305.582508734311,-598439.3080833685,11.94733251366165,1.0,0.0
553.3530526341638,117.81885454093234,10789.1953125,89.8748779296875,275.813232421875,-83.32888793945312,159924.8966440876,-1016.9913711891177,-578942.527398678,1339.4095428263536,-598439.3894638341,12.116968672230144,1.0,0.0
567.6085147660924,119.46116091734162,10775.2109375,89.87966918945312,276.8276062011719,-82.31863403320312,159928.6279237452,-1017.0083555326464,-578956.2860071576,1373.754548070021,-598439.4552737918,12.286994557250864,1.0,0.0
579.6388731565094,120.83229596023573,10763.556640625,89.88131713867188,276.0447998046875,-83.10214233398438,159931.77637401363,-1017.0226694092753,-578967.8970822509,1402.7727133119479,-598439.5101827817,12.428981365188235,1.0,0.0
594.2563850579318,122.48073869449925,10749.572265625,89.88809204101562,269.162109375,-90.0,159935.60162516625,-1017.0400622830393,-578982.0053550568,1438.073644254473,-598439.5423286142,12.599728566422755,1.0,0.0
609.0719873745693,124.13254722717656,10735.5869140625,89.8846435546875,269.1600341796875,-90.0,159939.47825438698,-1017.0577854261401,-578996.3048920655,1473.8993273776723,-598439.6053810312,12.770870326502916,1.0,0.0
621.5698751731543,125.51165382043735,10723.93359375,89.88131713867188,273.0586853027344,-86.09539794921875,159942.7481736194,-1017.0728017435076,-579008.3675387638,1504.1570566000883,-598439.6281063344,12.913795682188606,1.0,0.0
636.74966507731,127.16970489707468,10709.9482421875,89.8846435546875,269.16790771484375,-90.0,159946.71944576476,-1017.0910727128985,-579023.0187565552,1540.9518309695413,-598439.6753742016,13.085673561708688,1.0,0.0
652.1286590360105,128.83117975853924,10695.9638671875,89.88131713867188,275.0252380371094,-84.13372802734375,159950.74235613339,-1017.1096322879794,-579037.862362462,1578.2786458920455,-598439.7473653111,13.257954703354528,1.0,0.0
665.0969551233575,130.21836196251797,10684.310546875,89.8780517578125,274.3274230957031,-84.83395385742188,159954.1341771963,-1017.1253175482752,-579050.3792706104,1609.7925252841087,-598439.8042915899,13.401832426432293,1.0,0.0
680.842099233414,131.88614691774575,10670.3251953125,89.8846435546875,269.17181396484375,-90.0,159958.25189469758,-1017.1444132671359,-579065.5767093945,1648.1014388460899,-598439.8593845755,13.574861372366627,1.0,0.0
696.787761016516,133.55739971823186,10656.33984375,89.88131713867188,274.6045227050781,-84.56253051757812,159962.42146761817,-1017.1637035951617,-579080.9676643498,1686.9496271057287,-598439.9360376998,13.748300804584915,1.0,0.0
712.934236290399,135.23210944461968,10642.35546875,89.88131713867188,275.01324462890625,-84.156005859375,159966.64287916792,-1017.1831835255625,-579096.5526357202,1726.3394058800768,-598440.0118991017,13.922151519318959,1.0,0.0
726.5432533256244,136.63035791673389,10630.7021484375,89.88809204101562,269.183837890625,-90.0,159970.2004807826,-1017.1996129498484,-579109.6885635946,1759.5799561880995,-598440.062646749,14.067344208846748,1.0,0.0
743.058939995477,138.31145215225632,10616.716796875,89.88809204101562,269.18365478515625,-90.0,159974.517511985,-1017.2194508657458,-579125.6301728257,1799.9696748903953,-598440.1002848672,14.241957966606947,1.0,0.0
759.7765743032796,139.99606027144645,10602.732421875,89.89532470703125,269.1866760253906,-90.0,159978.88704386746,-1017.239495192528,-579141.7668185842,1840.9086308195256,-598440.1381033713,14.416991561990358,1.0,0.0
776.6966064160224,141.6841882221961,10588.748046875,89.89166259765625,269.18719482421875,-90.0,159983.30901253747,-1017.2597760901454,-579158.0989622979,1882.39932564029,-598440.1793632174,14.592446408818205,1.0,0.0
790.9514947481221,143.0936647600501,10577.09375,89.88986206054688,269.1854553222656,-90.0,159987.03417522335,-1017.2770064816477,-579171.8586593757,1917.3984365252545,-598440.194030459,14.738983860585847,1.0,0.0
808.2436803024029,144.78832220495497,10563.109375,89.88986206054688,269.1859130859375,-90.0,159991.55294328934,-1017.2980025157931,-579188.5502321948,1959.9082983873086,-598440.2193407384,14.915222535972532,1.0,0.0
825.7393447635695,146.48657023888143,10549.125,89.88809204101562,269.18701171875,-90.0,159996.12432237997,-1017.3194519624712,-579205.4384351682,2002.9778474966297,-598440.2803043243,15.091890937578455,1.0,0.0
840.4752834255341,147.90453256762976,10537.470703125,89.88131713867188,269.3039855957031,-89.887939453125,159999.97418143385,-1017.3375713572505,-579219.6624868831,2039.2988272012444,-598440.326915714,15.239446462212186,1.0,0.0
858.345649545663,149.6094064974451,10523.486328125,89.87646484375,269.1935119628906,-90.0,160004.6423647224,-1017.3597054228785,-579236.912416507,2083.401966675883,-598440.3949491747,15.416912601118497,1.0,0.0
876.420718295034,151.3179059602576,10509.501953125,89.8780517578125,269.39263916015625,-89.80148315429688,160009.3634551719,-1017.3821441874506,-579254.3602484829,2128.072667493252,-598440.4600758577,15.594816815623858,1.0,0.0
891.6401231145719,152.7444442056772,10497.84765625,89.88131713867188,269.4925231933594,-89.7034912109375,160013.3381870151,-1017.4011480555537,-579269.0516078863,2165.7339545011055,-598440.5215884963,15.743407201658556,1.0,0.0
910.0917905312963,154.45963137478594,10483.86328125,89.8780517578125,269.47735595703125,-89.7205810546875,160018.15657427823,-1017.4242481932642,-579286.8633519706,2211.45257744391,-598440.5846262969,15.922121286344122,1.0,0.0
928.7496743089287,156.1784763494983,10469.8779296875,89.8748779296875,270.90032958984375,-88.30145263671875,160023.02813714408,-1017.4476114258769,-579304.8742082373,2257.7466306263814,-598440.6424160519,16.101279841896144,1.0,0.0
947.6142718503252,157.90101097403002,10455.8935546875,89.88296508789062,271.0595703125,-88.14559936523438,160027.95315539237,-1017.4713328824046,-579323.084604968,2304.619301896426,-598440.6798385875,16.28088804283766,1.0,0.0
963.492335958872,159.33927837331893,10444.240234375,89.8846435546875,269.20904541015625,-90.0,160032.09816020253,-1017.4914433703425,-579338.412566327,2344.123644824256,-598440.7372169005,16.43090387707565,1.0,0.0
982.7367768957047,161.06861028519552,10430.2548828125,89.87332153320312,271.0043029785156,-88.20523071289062,160037.12117548074,-1017.5158791289332,-579356.9898644157,2392.0642634843243,-598440.8091699581,16.611338687852708,1.0,0.0
1002.1887058024295,162.8016545376006,10416.26953125,89.8748779296875,272.32879638671875,-86.88287353515625,160042.19784807297,-1017.5405069336894,-579375.7678975342,2440.591405921965,-598440.8638341107,16.792228360409354,1.0,0.0
1018.5577051067958,164.2487084182545,10404.6162109375,89.87646484375,273.0782470703125,-86.13583374023438,160046.46943903135,-1017.5612020239832,-579391.5699170346,2481.480836223229,-598440.9145574342,16.943318492439403,1.0,0.0
1038.3919288507896,165.98860264044436,10390.6318359375,89.88131713867188,271.16357421875,-88.05377197265625,160051.64459014806,-1017.5863259778025,-579410.7171464385,2531.0907179345377,-598441.0066495311,17.125045595666506,1.0,0.0
1058.4351165444823,167.73221532738415,10376.646484375,89.8748779296875,270.3751220703125,-88.84503173828125,160056.87348406337,-1017.6119090065959,-579430.0664467454,2581.2948065840174,-598441.1018443016,17.307230117238532,1.0,0.0
1078.6875986844534,169.4795598618885,10362.662109375,89.88131713867188,274.551513671875,-84.67355346679688,160062.15623984198,-1017.637628649235,-579449.6181533409,2632.0962703112746,-598441.1460335786,17.489877706166453,1.0,0.0
1099.1501164109213,171.23065993166793,10348.677734375,89.89913940429688,269.24114990234375,-90.0,160067.49337561,-1017.6636214003565,-579469.3726931976,2683.498056398006,-598441.1875869356,17.672989183262303,1.0,0.0
1116.3629728253,172.69278687314716,10337.0234375,89.89913940429688,269.2404479980469,-90.0,160071.98239930734,-1017.6855568633082,-579485.9900865087,2726.7935379617848,-598441.2271636721,17.825937684945472,1.0,0.0
1137.211686932831,174.4507749324514,10323.0390625,89.897216796875,269.2429504394531,-90.0,160077.41924568103,-1017.7119207129481,-579506.117606096,2779.3031690485077,-598441.2535685848,18.00990348827736,1.0,0.0
1154.7469401630806,175.91864497060683,10311.384765625,89.903076171875,269.2425537109375,-90.0,160081.99180894994,-1017.734126780987,-579523.0464086251,2823.5258546737023,-598441.2778079986,18.163566023352587,1.0,0.0
1175.9831148271915,177.68355296535964,10297.400390625,89.90512084960938,269.24749755859375,-90.0,160087.52885047498,-1017.7608909354212,-579543.5483354034,2877.153116555186,-598441.3181200041,18.348391606303494,1.0,0.0
1197.431385118165,179.4522726668042,10283.416015625,89.91152954101562,269.24713134765625,-90.0,160093.12086164433,-1017.7878609642985,-579564.255163145,2931.3948819446377,-598441.3213597878,18.53369441086369,1.0,0.0
1219.092287075473,181.22479639102002,10269.431640625,89.9072265625,269.2444152832031,-90.0,160098.76796152274,-1017.8150218472483,-579585.1672272355,2986.2535684664035,-598441.3438392571,18.71947137305756,1.0,0.0
1237.3057184495265,182.70482667608655,10257.77734375,89.903076171875,269.23883056640625,-90.0,160103.51583032546,-1017.8380794272425,-579602.7510940637,3032.4428071430884,-598441.3801760031,18.87465057938431,1.0,0.0
1259.3575097087305,184.48438322144958,10243.79296875,89.903076171875,269.2406921386719,-90.0,160109.26382273703,-1017.8661017165186,-579624.040749982,3088.4411202740157,-598441.4097808226,19.061307732038188,1.0,0.0
1281.6228690235876,186.2677778430926,10229.8076171875,89.9072265625,269.2449951171875,-90.0,160115.06706697366,-1017.8946729645731,-579645.5368839176,3145.0652076950064,-598441.4365931788,19.24844732435332,1.0,0.0
1304.1026338353986,188.05506673201035,10215.8232421875,89.9072265625,269.24639892578125,-90.0,160120.92562104206,-1017.9237291560175,-579667.2400972967,3202.318956640782,-598441.472935576,19.436075635342945,1.0,0.0
1322.9997236783383,189.54741674775485,10204.169921875,89.9072265625,269.24627685546875,-90.0,160125.8501155619,-1017.9482706532481,-579685.4846244354,3250.512920894893,-598441.519322371,19.59280283638219,1.0,0.0
1345.8738211666932,191.34177231538487,10190.1845703125,89.90109252929688,269.2518005371094,-90.0,160131.81025954525,-1017.9779617533686,-579707.5686142792,3308.927379834815,-598441.5634135102,19.781323338914888,1.0,0.0
1368.9631124599837,193.13999287773697,10176.19921875,89.91152954101562,269.2565612792969,-90.0,160137.82639198456,-1018.0078781590464,-579729.8608755148,3367.9798412983073,-598441.5215625736,19.97033933069696,1.0,0.0
1388.3695334995864,194.64150832320547,10164.5458984375,89.91842651367188,269.2576599121094,-90.0,160142.88255537304,-1018.0330180869105,-579748.5970944869,3417.6798781300895,-598441.5444654408,20.1282286920204,1.0,0.0
1411.8553427995648,196.44690446382188,10150.5615234375,89.90512084960938,269.25030517578125,-90.0,160149.00108632067,-1018.0637027964594,-579771.2722221317,3477.9101218860596,-598441.5715613333,20.318150740478075,1.0,0.0
1435.5580781184835,198.25621451455126,10136.576171875,89.89532470703125,269.25054931640625,-90.0,160155.1757771269,-1018.0949940428736,-579794.1569487549,3538.787497654208,-598441.561132656,20.508573847307048,1.0,0.0
1459.4784316074802,200.06947185307783,10122.591796875,89.89913940429688,269.26287841796875,-90.0,160161.4068493479,-1018.1266932234767,-579817.2517732913,3600.3153899559984,-598441.5789853256,20.69949832952875,1.0,0.0
1479.5783736516023,201.58357242983882,10110.9375,89.89913940429688,269.26739501953125,-90.0,160166.64219900483,-1018.1536619410517,-579836.6581179488,3652.0885096376296,-598441.6043646493,20.85899064753795,1.0,0.0
1503.898391787894,203.40416651898198,10096.953125,89.8846435546875,269.271240234375,-90.0,160172.97634487358,-1018.1866209254267,-579860.1392124697,3714.818972602603,-598441.6621297244,21.050848865841374,1.0,0.0
1528.4371869524475,205.22874588480448,10082.96875,89.8780517578125,262.83203125,-96.45741271972656,160179.3666056828,-1018.2199994072917,-579883.8316880057,3778.209627792123,-598441.6994512314,21.24321946651594,1.0,0.0
1549.0535915853688,206.75227567969233,10071.314453125,89.8748779296875,266.6036376953125,-92.69002532958984,160184.7349077603,-1018.2480940566065,-579903.7371884626,3831.5416413650382,-598441.7532284617,21.403918257197006,1.0,0.0
1573.9948253718903,208.5841645789415,10057.330078125,89.87966918945312,267.0662841796875,-92.23110961914062,160191.22862383816,-1018.2822384581568,-579927.8185420537,3896.1504819178954,-598441.8262104999,21.597226872370527,1.0,0.0
1599.156022906187,210.4200487164968,10043.345703125,89.8780517578125,266.1697692871094,-93.13066864013672,160197.77866507464,-1018.3169971451762,-579952.1125571439,3961.4284727631602,-598441.899784173,21.79105123416133,1.0,0.0
1620.292004826828,211.9529986898931,10031.69140625,89.8748779296875,269.75738525390625,-89.54629516601562,160203.2802344667,-1018.346228097439,-579972.5204782863,4016.3399577008095,-598441.9828200801,21.95296437231275,1.0,0.0
1645.8582889961544,213.7961509849977,10017.70703125,89.87179565429688,274.178955078125,-85.12820434570312,160209.93388536762,-1018.3814973578455,-579997.2058713418,4082.851489883382,-598442.0734540939,22.14773072290717,1.0,0.0
1671.6456552366726,215.64323550061752,10003.72265625,89.8846435546875,269.3211669921875,-90.0,160216.64429887055,-1018.4172913775446,-580022.1053145407,4150.039916709764,-598442.1364147571,22.343012211374912,1.0,0.0
1697.655345682986,217.4942528409616,9989.7373046875,89.897216796875,269.33056640625,-90.0,160223.41169653187,-1018.453007672787,-580047.2193068184,4217.908263650839,-598442.1854085623,22.53880931636678,1.0,0.0
1719.4996140600415,219.03976536470677,9978.083984375,89.903076171875,269.3388366699219,-90.0,160229.09496957608,-1018.4829413638117,-580068.3117660698,4274.986922260374,-598442.1910917297,22.702369685720328,1.0,0.0
1745.9170360498829,220.8979827280152,9964.099609375,89.90109252929688,269.3311462402344,-90.0,160235.96730623892,-1018.5192367777827,-580093.8201299221,4344.109332321212,-598442.260855923,22.89911123631947,1.0,0.0
1772.5578628168441,222.76008529768367,9950.1142578125,89.89913940429688,269.3390808105469,-90.0,160242.89704793002,-1018.5556981310847,-580119.5442596616,4413.919730019639,-598442.2850295228,23.09636987147678,1.0,0.0
1799.422523422516,224.62609514962782,9936.12890625,89.91152954101562,269.3482666015625,-90.0,160249.88470448882,-1018.5925087676051,-580145.4844963425,4484.421966981841,-598442.2426862752,23.29415105549083,1.0,0.0
1821.9808759160805,226.1841400700916,9924.4755859375,89.92086791992188,269.3531494140625,-90.0,160255.75214054575,-1018.6233808741572,-580167.2667630488,4543.705246170284,-598442.2301919827,23.459368717176176,1.0,0.0
1849.2563138307305,228.0574495518701,9910.4912109375,89.9072265625,269.362548828125,-90.0,160262.84615964795,-1018.6605756030085,-580193.6044425456,4615.486362851225,-598442.1848523031,23.65811689719675,1.0,0.0
1876.7576739264186,229.93475604290813,9896.505859375,89.89166259765625,269.3681945800781,-90.0,160269.9982650205,-1018.6978411421778,-580220.1595565702,4687.968833733699,-598442.2679301336,23.857385902050055,1.0,0.0
1899.8475803316105,231.50224542407327,9884.8525390625,89.89166259765625,269.3658752441406,-90.0,160276.00281161148,-1018.7289769396784,-580242.4553199708,4748.911524922703,-598442.1958462053,24.02386279666314,1.0,0.0
1927.762449305039,233.38700013919575,9870.8671875,89.89913940429688,269.37518310546875,-90.0,160283.26173877955,-1018.7664394125941,-580269.4103906772,4822.69358760328,-598442.2558013763,24.224123554243704,1.0,0.0
1955.903927589883,235.27584809608962,9856.8828125,89.8846435546875,269.3824768066406,-90.0,160290.57863533736,-1018.8039066538813,-580296.5843813783,4897.189778054599,-598442.3235173688,24.42492895982258,1.0,0.0
1979.528338139411,236.8529896182468,9845.228515625,89.88131713867188,290.5206298828125,-68.82131958007812,160296.7204355202,-1018.8351628527644,-580319.3969229327,4959.817380300257,-598442.3612922685,24.592683299464056,1.0,0.0
2008.0861360399285,238.74930903849184,9831.244140625,89.8846435546875,269.38995361328125,-90.0,160304.14413643323,-1018.8727195010188,-580346.973386799,5035.631286826683,-598442.386421826,24.794492441849172,1.0,0.0
2036.8719349583844,240.64975063011684,9817.259765625,89.88809204101562,269.39117431640625,-90.0,160311.62647140448,-1018.9102239356043,-580374.7702674649,5112.1694677402265,-598442.4310776764,24.996852708107667,1.0,0.0
2065.8857759584207,242.554317991118,9803.275390625,89.89166259765625,269.3946228027344,-90.0,160319.1671909666,-1018.9478625998499,-580402.7876757085,5189.435596130788,-598442.4778746391,25.19976747299387,1.0,0.0
2090.239294442814,244.14459262026037,9791.62109375,89.8846435546875,269.3992919921875,-90.0,160325.4960706072,-1018.9794385180476,-580426.3045287288,5254.382340438082,-598442.5037627239,25.369287338827064,1.0,0.0
2119.6733306088718,246.0567307172499,9777.63671875,89.88131713867188,290.85101318359375,-68.50820922851562,160333.1445357048,-1019.0173580393794,-580454.727874771,5332.992232277757,-598442.5499306509,25.573223923022454,1.0,0.0
2149.336684935726,247.97301766029568,9763.65234375,89.87966918945312,293.61749267578125,-65.74148559570312,160340.85197243036,-1019.0551209197047,-580483.3733394004,5412.340167456423,-598442.6319143235,25.777719072734385,1.0,0.0
2179.2306633975822,249.89341712986456,9749.6669921875,89.8846435546875,269.4036865234375,-90.0,160348.6179149958,-1019.0929310069087,-580512.2414878455,5492.429039213341,-598442.7150261181,25.98277352089991,1.0,0.0
2204.3185244589113,251.49686195617988,9738.013671875,89.89346313476562,269.3941650390625,-90.0,160355.13472020265,-1019.1250359759333,-580536.4687276531,5559.737777953385,-598442.7534723547,26.154080278319952,1.0,0.0
2234.636146348319,253.42473037206773,9724.029296875,89.89913940429688,269.4047546386719,-90.0,160363.00916107438,-1019.1635923132899,-580565.7461232673,5641.192743512336,-598442.7791826777,26.360162123818725,1.0,0.0
2265.185497614788,255.35671247580734,9710.0439453125,89.88809204101562,269.43096923828125,-90.0,160370.94309955332,-1019.2021569952967,-580595.2474945192,5723.398482091841,-598442.8151375067,26.56680731202374,1.0,0.0
2290.820003945031,256.96979122980144,9698.390625,89.89913940429688,269.4285583496094,-90.0,160377.60020868454,-1019.2347254500392,-580620.0033587005,5792.478365104762,-598442.8154104903,26.739441352377128,1.0,0.0
2321.7946798286866,258.90920538874906,9684.4052734375,89.89913940429688,269.4389343261719,-90.0,160385.64364247269,-1019.2738272891047,-580649.916222329,5876.06718135206,-598442.8104330198,26.94711741287699,1.0,0.0
2353.002967408276,260.8527260821891,9670.419921875,89.89166259765625,269.4560241699219,-90.0,160393.746878291,-1019.3126699671748,-580680.0544197104,5960.415963586187,-598442.8609423346,27.155356747167218,1.0,0.0
2384.4442156112054,262.80028864909934,9656.435546875,89.8846435546875,269.4725646972656,-90.0,160401.9097774501,-1019.3510191187861,-580710.4183110907,6045.526823444292,-598442.9289109714,27.36415756330814,1.0,0.0
2410.8242225180147,264.42634147467635,9644.7822265625,89.89166259765625,269.479248046875,-90.0,160408.75785200926,-1019.3825704798701,-580735.8945015089,6117.0380885887425,-598442.9283122808,27.53859448260488,1.0,0.0
2442.695402999292,266.38131216472016,9630.796875,89.91152954101562,269.46832275390625,-90.0,160417.03068872297,-1019.4200446352961,-580766.6735714551,6203.555663180654,-598443.0073223939,27.748430844953248,1.0,0.0
2474.80085782893,268.34029153811076,9616.8125,89.92086791992188,269.4723205566406,-90.0,160425.36400870877,-1019.4571525797846,-580797.6796437952,6290.846693545347,-598442.920269761,27.958847087966035,1.0,0.0
2501.735358782462,269.9758596784474,9605.158203125,89.92868041992188,269.4725341796875,-90.0,160432.3546463718,-1019.488117431164,-580823.6916983796,6364.1805378148565,-598442.9415784006,28.13462018869882,1.0,0.0
2534.2672023045598,271.9421182754579,9591.173828125,89.92086791992188,269.4823913574219,-90.0,160440.79906392543,-1019.5253670106476,-580855.1151302767,6452.8922690982,-598442.9172704606,28.3460627242859,1.0,0.0
2567.029032902443,273.9122123397616,9577.189453125,89.903076171875,269.49468994140625,-90.0,160449.30433862814,-1019.5623679269662,-580886.766795265,6542.38023991778,-598442.9106112387,28.5580547253536,1.0,0.0
2600.0603978272993,275.8860504202034,9563.205078125,89.8748779296875,44.25956726074219,44.84538269042969,160457.8704768913,-1019.5991383577795,-580918.6471943192,6632.645616999129,-598442.8919068247,28.77059104949359,1.0,0.0
2627.73290711781,277.53367988410446,9551.55078125,89.84677124023438,55.19878387451172,55.78096008300781,160465.0556477687,-1019.6295944285704,-580945.389187376,6708.4606398735195,-598442.8396653227,28.948114234454806,1.0,0.0
2661.1886139013804,279.5140354862733,9537.56640625,89.80020141601562,63.99141311645508,64.56895446777344,160473.73420992622,-1019.6658693738001,-580977.6898735033,6800.150353450677,-598442.7630229786,29.161619801014126,1.0,0.0
2694.870656571118,281.4977064918012,9523.58203125,89.74591064453125,69.6349105834961,70.20780944824219,160482.47456677185,-1019.7018609113406,-581010.2202845223,6892.615211416152,-598442.6043654364,29.375636071363772,1.0,0.0
2728.794896449079,283.4845573591602,9509.5966796875,89.67074584960938,74.15726470947266,74.7269287109375,160491.27755199888,-1019.7376104297925,-581042.9805914075,6985.854779413436,-598442.3298575327,29.590153861296756,1.0,0.0
2762.9452257958474,285.4745015975007,9495.6123046875,89.59121704101562,77.41461181640625,77.98030090332031,160500.14401809033,-1019.7731221377354,-581075.9709477506,7079.869704396231,-598441.9266722127,29.8051671959779,1.0,0.0
2797.364127202891,287.46747646784354,9481.626953125,89.51181030273438,79.49952697753906,80.06184387207031,160509.07494731864,-1019.8083836845366,-581109.1914626017,7174.6613585391315,-598441.3771122582,30.02067314527727,1.0,0.0
2832.007897064672,289.46349045042996,9467.642578125,89.43698120117188,80.86390686035156,81.42286682128906,160518.07135087642,-1019.843395785687,-581142.6422340381,7270.2328495902475,-598440.6908077219,30.236673656944504,1.0,0.0
2861.031807546853,291.12920972357824,9455.98828125,89.3775634765625,81.7170639038086,82.27297973632812,160525.61899544642,-1019.8723883649249,-581170.6938703207,7350.474949902971,-598440.0347611541,30.417056879581025,1.0,0.0
2896.101133335498,293.1309566203898,9442.00390625,89.31185913085938,82.5207290649414,83.07337951660156,160534.73755798006,-1019.9069567822646,-581204.5671937363,7447.488003213308,-598439.1605652461,30.633980071097426,1.0,0.0
2931.4209565530764,295.1358120952339,9428.01953125,89.25244140625,83.12852478027344,83.67755126953125,160543.92369221256,-1019.941278931315,-581238.6712920583,7545.2907287825365,-598438.2112202209,30.851404549838378,1.0,0.0
2967.01007654611,297.14363747915297,9414.03515625,89.19937133789062,83.57618713378906,84.12173461914062,160553.1778553894,-1019.9753585577655,-581273.0064184176,7643.881496316986,-598437.2094103488,31.069315093846626,1.0,0.0
3002.7981803689618,299.15416337275326,9400.05078125,89.1505126953125,83.93022918701172,84.47239685058594,160562.50041589036,-1020.0091984906161,-581307.5728218898,7743.254587875446,-598436.1661820927,31.287683652107148,1.0,0.0
3038.8377573487815,301.16698813570173,9386.0654296875,89.10256958007812,84.23835754394531,84.77684020996094,160571.89166405925,-1020.0427947537441,-581342.3707311931,7843.399870723137,-598435.0893045779,31.506468307685623,1.0,0.0
3069.0758246780606,302.84569685191747,9374.412109375,89.06246948242188,84.4767837524414,85.01226806640625,160579.77035811078,-1020.0706091005036,-581371.5459630324,7927.433076565736,-598434.1664534193,31.68906503265299,1.0,0.0
3105.565375688253,304.8611334770098,9360.4267578125,89.012451171875,84.73936462402344,85.27137756347656,160589.28819993368,-1020.1037656000259,-581406.7686973023,8028.948840468307,-598433.0184271425,31.908446619474716,1.0,0.0
3142.2807679844555,306.8769169495061,9346.4423828125,88.95883178710938,84.98133850097656,85.50962829589844,160598.875567352,-1020.1366811470001,-581442.2231763734,8131.180001046276,-598431.8118215064,32.12804285032428,1.0,0.0
3179.246909176465,308.89253876781106,9332.45703125,88.90408325195312,85.2054443359375,85.73007202148438,160608.53278688205,-1020.1693548644762,-581477.9093157032,8234.110845240182,-598430.5500491401,32.34780035274355,1.0,0.0
3210.2218398905825,310.57174563198436,9320.8037109375,88.85635375976562,85.37804412841797,85.89973449707031,160616.6340953118,-1020.1963961457329,-581507.824615665,8320.409941052785,-598429.4470973621,32.53101880243031,1.0,0.0
3247.6562747479184,312.58580038069863,9306.818359375,88.79617309570312,85.57427978515625,86.09199523925781,160626.42037686726,-1020.2286170644905,-581543.9350004214,8424.5833850106,-598428.0515510727,32.75094279689057,1.0,0.0
3285.2979971960885,314.59833055053775,9292.833984375,88.7314453125,85.76126098632812,86.27529907226562,160636.2777528255,-1020.2605846791507,-581580.2763871548,8529.412706776755,-598426.559670833,32.97089010037388,1.0,0.0
3316.8618318916997,316.2739855488718,9281.1796875,88.6773681640625,85.90321350097656,86.41407775878906,160644.54688572817,-1020.2870268636764,-581610.7370846153,8617.261269803275,-598425.2540639819,33.15416593133813,1.0,0.0
3354.972337983898,318.2826386779923,9267.1953125,88.61279296875,86.05518341064453,86.56219482421875,160654.5358511334,-1020.318514837683,-581647.5010227128,8723.254939853563,-598423.599342895,33.3740412706228,1.0,0.0
3393.2901316159405,320.2885738873495,9253.2109375,88.54681396484375,86.19393920898438,86.69694519042969,160664.59736139176,-1020.3497316673944,-581684.4948027923,8829.86226371536,-598421.8327663832,33.59381659617952,1.0,0.0
3431.877225993667,322.2914911402369,9239.2265625,88.480712890625,86.32059478759766,86.81968688964844,160674.73190744297,-1020.3806716868783,-581721.7179291588,8937.07104784809,-598419.9830489904,33.813457370745994,1.0,0.0
3464.2113737877226,323.95802522543914,9227.572265625,88.42703247070312,86.41255950927734,86.90823364257812,160683.2334630343,-1020.4062400978777,-581752.9120220677,9026.861169290962,-598418.3728595943,33.99636198591122,1.0,0.0
3503.224034246872,325.95449951169667,9213.587890625,88.36337280273438,86.51345825195312,87.00511169433594,160693.50302192927,-1020.43665960893,-581790.5542341544,9135.136932908907,-598416.3599540436,34.21566150731576,1.0,0.0
3542.493541904958,327.94699264871934,9199.603515625,88.29864501953125,86.6041259765625,87.09159851074219,160703.84685770297,-1020.4667851173176,-581828.4242019635,9243.975717817666,-598414.2465667423,34.43472697080131,1.0,0.0
3581.9813236587215,329.935273390872,9185.619140625,88.233642578125,86.6883316040039,87.17167663574219,160714.26540393688,-1020.4966086675854,-581866.5212918061,9353.3666715055,-598412.0500815087,34.653532096526135,1.0,0.0
3621.702034287853,331.91906121280937,9171.6337890625,88.17050170898438,86.76705169677734,87.24615478515625,160724.75902327595,-1020.5261278381276,-581904.844859675,9463.297372730682,-598409.7666309483,34.8720476446278,1.0,0.0
3661.6918039579177,333.89809665233116,9157.6484375,88.10720825195312,86.83780670166016,87.31266784667969,160735.3281007586,-1020.5553365111497,-581943.3942209997,9573.755811281502,-598407.395335266,35.090246222817086,1.0,0.0
3695.178121988196,335.54350519041196,9145.9951171875,88.05258178710938,86.89024353027344,87.36141967773438,160744.19357443496,-1020.5794331213002,-581975.6906577523,9666.199828093639,-598405.3531292325,35.27181945224305,1.0,0.0
3728.8460998433875,337.1854312665036,9134.341796875,87.99826049804688,86.94317626953125,87.41075134277344,160753.11181032218,-1020.6033051797776,-582008.1430124564,9758.998856679536,-598403.3007335479,35.4531473984714,1.0,0.0
3769.424568893737,339.15066309203735,9120.3564453125,87.93170166015625,87.00428771972656,87.46751403808594,160763.8832945722,-1020.6316554718277,-582047.2911294217,9870.807590638055,-598400.7585190985,35.67037303367738,1.0,0.0
3810.271598675521,341.10997650563866,9106.3720703125,87.8494873046875,87.07964324951172,87.53834533691406,160774.73139560068,-1020.6596710420318,-582086.6623225225,9983.091133654001,-598398.0745154665,35.8871633859693,1.0,0.0
3851.3515588651644,343.0632621211079,9092.38671875,87.76034545898438,87.1578598022461,87.61209106445312,160785.65670428998,-1020.687345125992,-582126.2556861993,10095.841497037909,-598395.2537789934,36.10350626820292,1.0,0.0
3892.65640509699,345.01035981900895,9078.40234375,87.67367553710938,87.22811126708984,87.67771911621094,160796.6599848653,-1020.7146667776009,-582166.0702456647,10209.049468753743,-598392.2654053647,36.31938830123852,1.0,0.0
3934.1875877419952,346.95133259224974,9064.41796875,87.58963012695312,87.29114532470703,87.73616027832031,160807.74210337974,-1020.7416201549642,-582206.1049929473,10322.713320073322,-598389.1078318304,36.53481671250461,1.0,0.0
3975.968047440634,348.8865218728742,9050.43359375,87.50723266601562,87.35001373291016,87.7904052734375,160818.90382168378,-1020.7682026042351,-582246.3589778164,10436.841211646446,-598385.8033466929,36.74982597229712,1.0,0.0
4017.983377094497,350.8164074362127,9036.44921875,87.42898559570312,87.40262603759766,87.83840942382812,160830.14577638105,-1020.7944029887462,-582286.8313377281,10551.446888516191,-598382.3697593368,36.96446611475574,1.0,0.0
4060.1976908040233,352.74154997481025,9022.4638671875,87.35498046875,87.44979095458984,87.88087463378906,160841.46854053467,-1020.8202113210236,-582327.5212950234,10666.54774529289,-598378.8182527126,37.178796842862596,1.0,0.0
4095.5698945700424,354.34267802155335,9010.810546875,87.29571533203125,87.48644256591797,87.91357421875,160850.96628387176,-1020.8414165449548,-582361.5953131097,10762.858626397676,-598375.7766931049,37.35721921624577,1.0,0.0
4138.242716070847,356.26084654320766,8996.8251953125,87.22625732421875,87.52999877929688,87.95240783691406,160862.438524721,-1020.8664958779473,-582402.6824805106,10878.924591686111,-598372.0296322498,37.57116799411193,1.0,0.0
4181.140637979028,358.1762942975472,8982.83984375,87.15737915039062,87.5734634399414,87.9912109375,160873.99305261511,-1020.8911726067463,-582443.9855214201,10995.555117301992,-598368.1781260837,37.78502660841116,1.0,0.0
4224.2456053539645,360.0899268117132,8968.85546875,87.09133911132812,87.6115493774414,88.02449035644531,160885.63030551578,-1020.9154398014273,-582485.504043451,11112.783105449053,-598364.2415758633,37.99889179883189,1.0,0.0
4267.601564715849,362.0025973985292,8954.87109375,87.02630615234375,87.65135955810547,88.05952453613281,160897.35075537348,-1020.9392975667538,-582527.2377509173,11230.640886047273,-598360.2150349866,38.21285793085417,1.0,0.0
4311.18214658869,363.91525155788344,8940.88671875,86.95965576171875,87.69183349609375,88.09523010253906,160909.1548913984,-1020.9627404183385,-582569.1864582936,11349.165058730054,-598356.100790916,38.42702873849805,1.0,0.0
4347.652794377296,365.50961405389216,8929.232421875,86.90191650390625,87.72708129882812,88.12654113769531,160919.05597441678,-1020.9819566029161,-582604.3078827548,11448.464202822535,-598352.6018114,38.60571623811103,1.0,0.0
4391.648938906612,367.42345990861406,8915.248046875,86.83071899414062,87.77002716064453,88.16459655761719,160931.01493985372,-1021.0046301326028,-582646.6505292801,11568.2604858767,-598348.3072490123,38.82040144381989,1.0,0.0
4435.895588197163,369.33791354228936,8901.263671875,86.7567138671875,87.8127670288086,88.20249938964844,160943.05933694137,-1021.0268772727402,-582689.2078927093,11688.751517999917,-598343.8824140856,39.03536891284051,1.0,0.0
4480.349290945916,371.2530973432574,8887.279296875,86.68270874023438,87.8548355102539,88.23965454101562,160955.18986221871,-1021.0486969317319,-582731.979867139,11809.94295311626,-598339.3458635146,39.250631140098676,1.0,0.0
4525.029090303811,373.169017127093,8873.2939453125,86.60916137695312,87.89665222167969,88.27656555175781,160967.40721196294,-1021.070086761927,-582774.9663504255,11931.836561736302,-598334.6892991534,39.46619141501827,1.0,0.0
4569.940353433136,375.0857351817403,8859.30859375,86.534912109375,87.93611145019531,88.31114196777344,160979.7120911497,-1021.0910421999764,-582818.167243933,12054.43615084549,-598329.9145157755,39.68205789234861,1.0,0.0
4615.1035879207775,377.0033291363476,8845.32421875,86.45889282226562,87.9769287109375,88.34698486328125,160992.1051956772,-1021.1115693370098,-582861.5824616884,12177.746242720867,-598325.0221495178,39.898240577427714,1.0,0.0
4660.473874173709,378.9218524066265,8831.33984375,86.3822021484375,88.01589965820312,88.38104248046875,161004.58723064655,-1021.1316684480946,-582905.2119200106,12301.770572451758,-598320.008398281,40.11474744757254,1.0,0.0
4706.095645107795,380.84134919464026,8817.35546875,86.30465698242188,88.0517349243164,88.41189575195312,161017.15893518119,-1021.1513348783691,-582949.0555344722,12426.5126060131,-598314.8679228763,40.331585711753746,1.0,0.0
4751.923979126266,382.76188830663267,8803.37109375,86.226318359375,88.08729553222656,88.44239807128906,161029.8210608968,-1021.170567653389,-582993.1132237056,12551.976777692907,-598309.5991483926,40.54876480053139,1.0,0.0
4790.296156686498,384.3631869055595,8791.716796875,86.16058349609375,88.11669158935547,88.46754455566406,161040.44245793138,-1021.1862629866963,-583029.9914383517,12657.085304948268,-598305.1085559004,40.73001504330165,1.0,0.0
4836.5576307402225,386.28584457438376,8777.732421875,86.08132934570312,88.15138244628906,88.49713134765625,161053.272352041,-1021.2046953424169,-583074.4414044869,12783.886398005532,-598299.5994818722,40.94784688728606,1.0,0.0
4883.051047793706,388.2097128678899,8763.7470703125,86.00094604492188,88.18518829345703,88.52584838867188,161066.19494909732,-1021.2226881611552,-583119.1052197577,12911.422232833691,-598293.9310571091,41.166047184365766,1.0,0.0
4929.778367356048,390.1351219965015,8749.7626953125,85.92214965820312,88.21759796142578,88.55308532714844,161079.2110663782,-1021.2402406297915,-583163.9828325165,13039.707476100302,-598288.1392559442,41.38464907303131,1.0,0.0
4976.713227556087,392.06219213129157,8735.77734375,85.84616088867188,88.24755096435547,88.577880859375,161092.32145258665,-1021.2573506296944,-583209.0742372584,13168.74941235804,-598282.2177716607,41.603668480634724,1.0,0.0
5031.7927665605675,394.31277091404746,8719.462890625,85.75775146484375,88.28214263916016,88.60630798339844,161107.73703990062,-1021.2767551947968,-583261.9511044411,13320.26710810978,-598275.155563516,41.85974534786368,1.0,0.0
5079.254027105169,396.2440329398106,8705.4775390625,85.68072509765625,88.31084442138672,88.6297607421875,161121.05417172168,-1021.2929114307049,-583307.5058151451,13450.980582290562,-598268.9794491086,42.07973749482886,1.0,0.0
5118.984709936893,397.8550575928484,8693.82421875,85.6168212890625,88.33409881591797,88.6485595703125,161132.22541299352,-1021.3060413081319,-583345.6315133953,13560.507127910387,-598263.7571287687,42.26342532846712,1.0,0.0
5166.860089303809,399.7900686075122,8679.83984375,85.53646850585938,88.36137390136719,88.67051696777344,161145.7199063515,-1021.3213939806423,-583391.5785180116,13692.652725122869,-598257.3593552174,42.484270892158804,1.0,0.0
5214.969363401178,401.72697065362735,8665.8544921875,85.45059204101562,88.38955688476562,88.69334411621094,161159.31238132482,-1021.3363051254238,-583437.7395003001,13825.577778761974,-598250.7913558034,42.70557485523949,1.0,0.0
5255.251848461805,403.3426790809889,8654.201171875,85.37857055664062,88.41361999511719,88.71293640136719,161170.71495045527,-1021.3483938692,-583476.3704411238,13936.95302859717,-598245.2076646656,42.89036342488146,1.0,0.0
5303.7757262460655,405.28347244860583,8640.2158203125,85.2950439453125,88.44093322753906,88.73484802246094,161184.4894189261,-1021.3624941354589,-583522.9237308627,14071.331079468713,-598238.3593565099,43.11255554048597,1.0,0.0
5352.557426221436,407.22643034730504,8626.2314453125,85.211669921875,88.46599578857422,88.75448608398438,161198.36453112453,-1021.3761503989682,-583569.69100186,14206.50802138017,-598231.3314658176,43.335243620286974,1.0,0.0
5401.5642266552895,409.1719957874255,8612.24609375,85.12863159179688,88.4913330078125,88.77432250976562,161212.34123086746,-1021.3893660497648,-583616.6722926842,14342.504896445782,-598224.163821034,43.558473095081865,1.0,0.0
5450.787358679925,411.12037862228567,8598.26171875,85.04916381835938,88.51406860351562,88.79153442382812,161226.4203046009,-1021.4021386867391,-583663.8677286862,14479.333980101743,-598216.8585187811,43.782269142331586,1.0,0.0
5500.260019490146,413.07175875312856,8584.27734375,84.970947265625,88.53511810302734,88.80715942382812,161240.6025583895,-1021.4144634696123,-583711.2774502116,14617.00643253245,-598209.4179571186,44.00665365637116,1.0,0.0
5549.982693617349,415.02632651877207,8570.29296875,84.89151000976562,88.55760192871094,88.82417297363281,161254.88876791362,-1021.4263460208524,-583758.9016303755,14755.53398808837,-598201.8476365767,44.23164930075052,1.0,0.0
5591.586566273356,416.6576548868309,8558.638671875,84.8240966796875,88.57662963867188,88.83863830566406,161266.87390664255,-1021.4359119292419,-583798.7524090507,14871.633325235569,-598195.438682207,44.419624079574874,1.0,0.0
5641.732661793125,418.6187436691217,8544.654296875,84.7447509765625,88.59737396240234,88.85386657714844,161281.3524752183,-1021.4469871501706,-583846.770356675,15011.76562158321,-598187.720618715,44.64580818850135,1.0,0.0
5692.111760426662,420.58271930732013,8530.669921875,84.66070556640625,88.6170425415039,88.86799621582031,161295.93652327603,-1021.457624080249,-583895.0035485745,15152.750192853855,-598179.8612448995,44.872578648923195,1.0,0.0
5734.249940120149,422.22118947960945,8519.015625,84.57406616210938,88.63720703125,88.88351440429688,161308.1713145256,-1021.4661505915852,-583935.362283525,15270.87486664881,-598173.1571249494,45.061968294286146,1.0,0.0
5785.069494665135,424.189338583347,8505.03125,84.45956420898438,88.66535186767578,88.90603637695312,161322.9518010199,-1021.4759803184799,-583983.9900196155,15413.383890296216,-598164.8921925515,45.289717627130244,1.0,0.0
5836.097103967913,426.1594501967556,8491.0458984375,84.34677124023438,88.69261169433594,88.92768859863281,161337.8414700328,-1021.4853664759462,-584032.8327681809,15556.715999209322,-598156.3478723424,45.51797824147269,1.0,0.0
5887.381581234629,428.1317147312086,8477.0615234375,84.2418212890625,88.7154769897461,88.94480895996094,161352.84187217365,-1021.4943062747282,-584081.8903556867,15700.882430927828,-598147.5345699966,45.74677228035051,1.0,0.0
5938.900425531203,430.1066753521869,8463.076171875,84.14285278320312,88.73640441894531,88.95999145507812,161367.9544170087,-1021.5027995749815,-584131.1626953827,15845.910212056362,-598138.4881151643,45.976157378288804,1.0,0.0
5982.012793540838,431.7550600947803,8451.4228515625,84.0648193359375,88.75259399414062,88.97128295898438,161380.6347093778,-1021.5095353158079,-584172.3870706961,15967.450565004488,-598130.8031791693,46.167818680605535,1.0,0.0
6033.9549467988545,433.7367143811898,8437.4375,83.97705078125,88.77173614501953,88.98452758789062,161395.955725102,-1021.5172108357729,-584222.0533962671,16114.145640088129,-598121.4197971954,46.39847582095064,1.0,0.0
6086.171000513132,435.72280335258455,8423.453125,83.89382934570312,88.7900390625,88.99688720703125,161411.39187890512,-1021.524443730099,-584271.9349398981,16261.792389263981,-598111.8721460946,46.629915366395494,1.0,0.0
6129.8258190546185,437.3817469458373,8411.798828125,83.82901000976562,88.80318450927734,89.0050048828125,161424.34384742114,-1021.5301328225887,-584313.6675775897,16385.58358546486,-598103.8212842267,46.82343056463992,1.0,0.0
6182.43885620893,439.3773620364225,8397.814453125,83.75442504882812,88.81806182861328,89.013916015625,161439.99303401957,-1021.53655813487,-584363.944758108,16535.05174602731,-598094.0462726904,47.056457112008275,1.0,0.0
6236.004035027698,441.37845295235303,8383.830078125,83.67807006835938,88.83346557617188,89.02339172363281,161455.75951990354,-1021.5425504876367,-584414.4383767958,16685.53504233726,-598084.1327381345,47.29038746380371,1.0,0.0
6281.16229186242,443.0504842398637,8372.17578125,83.614013671875,88.8462905883789,89.03126525878906,161468.98835223354,-1021.5472127567931,-584456.6821056877,16811.729693045956,-598075.7886570619,47.48604915993434,1.0,0.0
6335.55907983717,445.06220094361174,8358.19140625,83.5364990234375,88.86038970947266,89.03950500488281,161484.97167342974,-1021.5524099878123,-584507.5738912667,16964.116085491725,-598065.6604905738,47.72170479119171,1.0,0.0
6390.25667106593,447.07937121636303,8344.20703125,83.45361328125,88.87545776367188,89.04864501953125,161501.0744663654,-1021.5571770471137,-584558.6835209103,17117.534618017613,-598055.3540002401,47.95827771119957,1.0,0.0
6445.005569940899,449.1022462676371,8330.22265625,83.36663818359375,88.89163970947266,89.05888366699219,161517.297639104,-1021.5615167601427,-584610.011440812,17272.00219120027,-598044.9030986006,48.195794215466776,1.0,0.0
6490.014545370825,450.7921526208647,8318.568359375,83.29302978515625,88.90459442138672,89.06694030761719,161530.90957481714,-1021.5648051966119,-584652.9517732736,17401.522952342057,-598036.0582055559,48.39443177735416,1.0,0.0
6544.26549319562,452.8249267073161,8304.583984375,83.20114135742188,88.92002868652344,89.07650756835938,161547.35595867402,-1021.5683590486013,-584704.6809787753,17557.90465877659,-598025.2664113669,48.63363674504279,1.0,0.0
6598.731794276624,454.86280919971875,8290.599609375,83.10391235351562,88.93670654296875,89.08729553222656,161563.92573055145,-1021.5714912342429,-584756.629542524,17715.326160856872,-598014.2394668071,48.87374300914382,1.0,0.0
6644.326774504036,456.56515791369975,8278.9453125,83.02151489257812,88.9501724243164,89.09580993652344,161577.82904076835,-1021.5737784320493,-584800.0877938697,17847.319013499306,-598004.8880926161,49.07454363823405,1.0,0.0
6699.259011345101,458.613663598853,8264.9609375,82.92840576171875,88.9652328491211,89.10496520996094,161594.62795269256,-1021.576135107373,-584852.4394536582,18006.71883602813,-597993.585132245,49.316428214004304,1.0,0.0
6754.430130947148,460.66732074804906,8250.9755859375,82.83367919921875,88.97940826416016,89.11318969726562,161611.55286389863,-1021.5780764295858,-584905.0117318798,18167.17660494824,-597982.0739904006,49.559224945794426,1.0,0.0
6809.880031075561,462.7257668596866,8236.9912109375,82.7178955078125,88.99613189697266,89.12391662597656,161628.6052269371,-1021.5795994238439,-584957.8048121196,18328.681700339657,-597970.3050765448,49.80290477791664,1.0,0.0
6856.251066881465,464.44478133218166,8225.3369140625,82.61483764648438,89.01085662841797,89.13359069824219,161642.91387761178,-1021.5805495901709,-585001.9678769688,18464.07313589356,-597960.2860880609,50.00664926883178,1.0,0.0
