obs_alt,obs_vel,obs_fuel,obs_pitch,obs_heading,obs_roll,obs_pos_x,obs_pos_y,obs_pos_z,obs_ap,obs_pe,obs_time_to_ap,act_throttle,act_stage
11.356031522387639,1.6637676460052446,2868.996826171875,89.96044921875,271.2987060546875,-90.0,159783.31291115703,-1018.0112460566313,-578419.2921175018,83.98677700187545,-598435.2789887228,0.17053362645708603,1.0,0.0
11.58638022642117,2.0786357236321997,2866.5517578125,89.96044921875,271.685791015625,-90.0,159783.37351339092,-1018.0116674689205,-578419.5143483137,84.29669220501091,-598435.3012165171,0.21305715168324468,1.0,0.0
11.86657737114001,2.494488734088318,2864.1064453125,89.95574951171875,272.103515625,-90.0,159783.44722121334,-1018.0122243849189,-578419.7846813698,84.67435597348958,-598435.325884611,0.2556817554366262,1.0,0.0
12.19674870185554,2.911328317643154,2861.6611328125,89.9515380859375,272.5361022949219,-90.0,159783.5340576117,-1018.012917527333,-578420.10323307,85.12001330824569,-598435.349693442,0.29840763484639865,1.0,0.0
12.577018281095661,3.3291568913028096,2859.21630859375,89.94766235351562,272.97296142578125,-90.0,159783.63405343718,-1018.0137421575935,-578420.4701174762,85.63391036412213,-598435.3737779537,0.34123506380223034,1.0,0.0
13.00749253318645,3.747976222524228,2856.77099609375,89.95574951171875,273.4075622558594,-90.0,159783.747234647,-1018.0146917638929,-578420.8854502789,86.2162937822286,-598435.3980144269,0.3841642507575216,1.0,0.0
13.488304519909434,4.16778767994006,2854.32568359375,89.9515380859375,273.8358459472656,-90.0,159783.87363167302,-1018.0157684845478,-578421.3493476305,86.86741056595929,-598435.4218364403,0.42719536424783655,1.0,0.0
14.01955735636875,4.588593841935109,2851.880615234375,89.94766235351562,274.25555419921875,-90.0,159784.01327210382,-1018.0169752476365,-578421.8619246789,87.58750998636242,-598435.4460644624,0.4703286952354233,1.0,0.0
14.601383345085196,5.010396371819782,2849.435546875,89.9515380859375,274.66619873046875,-90.0,159784.1661807249,-1018.0183070910723,-578422.4232986193,88.37684068421368,-598435.4711327817,0.5135644412699207,1.0,0.0
15.233895162935369,5.433196476025632,2846.990234375,89.9515380859375,275.06756591796875,-90.0,159784.332379645,-1018.0197636311502,-578423.0335869807,89.2356524906354,-598435.496950907,0.5569027540918796,1.0,0.0
15.917221767129377,5.856997030135171,2844.545166015625,89.9515380859375,275.46026611328125,-90.0,159784.5118959071,-1018.0213452813775,-578423.6929087158,90.16419750673231,-598435.5227451946,0.6003439581834868,1.0,0.0
16.65147474175319,6.281799227747092,2842.10009765625,89.94406127929688,275.84503173828125,-90.0,159784.70476140792,-1018.023050305769,-578424.4013780963,91.16272745968308,-598435.5476400797,0.6438882065189091,1.0,0.0
17.43677567236591,6.707605100497784,2839.65478515625,89.9515380859375,276.2228698730469,-90.0,159784.91100896292,-1018.0248787900061,-578425.1591113177,92.2314950331347,-598435.5720904416,0.6875357357370717,1.0,0.0
18.273240098613314,7.134416505500834,2837.209716796875,89.94766235351562,276.5947265625,-90.0,159785.1306627719,-1018.0268334125728,-578425.9662263279,93.37075382622425,-598435.5984483109,0.7312867598999446,1.0,0.0
19.1610026108101,7.562234907768648,2834.7646484375,89.94406127929688,276.9615173339844,-90.0,159785.363743186,-1018.0289161143453,-578426.8228429132,94.5807579527609,-598435.6248530204,0.775141462701697,1.0,0.0
20.10017293342389,7.991062558778198,2832.3193359375,89.94406127929688,277.3241271972656,-90.0,159785.61028184916,-1018.0311280725152,-578427.7290787743,95.86176307150163,-598435.6510033471,0.8191001054856315,1.0,0.0
21.090873700217344,8.420900949202574,2829.874267578125,89.94406127929688,277.6832275390625,-90.0,159785.87030547115,-1018.0334700395913,-578428.6850501874,97.21402542619035,-598435.6778700504,0.8631628684065618,1.0,0.0
22.13322907302063,8.851752046650002,2827.42919921875,89.94406127929688,278.0396423339844,-90.0,159786.14384142827,-1018.0359447611124,-578429.6908787824,98.63780221482739,-598435.7043895143,0.907329986385605,1.0,0.0
23.04140475858003,9.211569394034207,2825.3916015625,89.940673828125,278.33502197265625,-90.0,159786.38213140017,-1018.038108849302,-578430.5672368184,99.87909826170653,-598435.7267920689,0.9442157740439825,1.0,0.0
24.178779667476192,9.644281441351179,2822.9462890625,89.94766235351562,278.6878356933594,-90.0,159786.68051548046,-1018.0408252676577,-578431.6647737809,101.4346560316626,-598435.753525533,0.9885747295459737,1.0,0.0
25.368147001601756,10.07801116203159,2820.5009765625,89.94406127929688,279.03955078125,-90.0,159786.9924922829,-1018.0436736432464,-578432.8125024514,103.06246099353302,-598435.7810553043,1.0330386327107703,1.0,0.0
26.609639628208242,10.512760005486747,2818.055908203125,89.94406127929688,279.3901062011719,-90.0,159787.3180842495,-1018.0466558871419,-578434.0105430353,104.76277375943027,-598435.8091841497,1.0776076637813503,1.0,0.0
27.903372965636663,10.948530218216204,2815.61083984375,89.940673828125,279.7398986816406,-90.0,159787.65732151928,-1018.0497714200617,-578435.2590120618,106.53585590876173,-598435.8365841915,1.1222820893207768,1.0,0.0
29.249477157951333,11.385322993819862,2813.16552734375,89.940673828125,280.08941650390625,-90.0,159788.0102384936,-1018.0530212776364,-578436.5580330037,108.38196910603438,-598435.863727988,1.1670620620609498,1.0,0.0
30.64806776342448,11.82314032566726,2810.720458984375,89.94766235351562,280.4386291503906,-90.0,159788.3768602105,-1018.0564078608156,-578437.9077196277,110.30137659364846,-598435.8916055075,1.2119478145630183,1.0,0.0
32.09927032061387,12.261984515832896,2808.275390625,89.94406127929688,280.7877197265625,-90.0,159788.757215718,-1018.0599351388962,-578439.3081960735,112.29434297292028,-598435.9193238798,1.2569396185853066,1.0,0.0
33.348883650498465,12.628473171506768,2806.23779296875,89.94406127929688,281.07867431640625,-90.0,159789.08469035936,-1018.0629811951519,-578440.5141419736,114.01152911526151,-598435.942240107,1.2945139018631835,1.0,0.0
34.89686169754714,13.069203780714131,2803.79248046875,89.940673828125,281.42803955078125,-90.0,159789.49030184347,-1018.0667655992881,-578442.0080414929,116.14004016050603,-598435.9699204704,1.3397006121002164,1.0,0.0
36.497810251661576,13.510965103486674,2801.34716796875,89.93743896484375,281.777587890625,-90.0,159789.90972758585,-1018.0706898983196,-578443.553071466,118.34286246984266,-598435.9988580708,1.38499385602438,1.0,0.0
37.87246894661803,13.879889441057912,2799.3095703125,89.94406127929688,282.0690612792969,-90.0,159790.26981265508,-1018.0740676181019,-578444.8797426405,120.23550642468035,-598436.0231408464,1.4228198949207354,1.0,0.0
39.57083179114852,14.32354634658565,2796.864501953125,89.93743896484375,282.4191589355469,-90.0,159790.71463225014,-1018.0782474209416,-578446.51882274,122.57525919540785,-598436.0506984903,1.4683091633990557,1.0,0.0
41.32250939158257,14.768239232517049,2794.41943359375,89.93743896484375,282.76953125,-90.0,159791.1733549347,-1018.0825753862598,-578448.2093756022,124.99008206790313,-598436.0787408808,1.5139056044257586,1.0,0.0
43.1276208931813,15.21397055336234,2791.97412109375,89.94406127929688,283.1201171875,-90.0,159791.64599269643,-1018.0870505416394,-578449.9515193368,127.48024613095913,-598436.1084608109,1.5596094975788901,1.0,0.0
44.9862984319916,15.66074152646733,2789.529052734375,89.93438720703125,283.4710388183594,-90.0,159792.13258328004,-1018.0916788972543,-578451.745382437,130.04602242051624,-598436.1377137613,1.6054210127284705,1.0,0.0
46.8986525418004,16.10855428727431,2787.083984375,89.94406127929688,283.8223876953125,-90.0,159792.63315440033,-1018.0964544577153,-578453.591078336,132.68767965957522,-598436.1664876828,1.651340403966742,1.0,0.0
48.864830234088004,16.557409895677388,2784.638671875,89.940673828125,284.17431640625,-90.0,159793.14773928697,-1018.1013801520319,-578455.488732012,135.40549057081807,-598436.1951991463,1.6973678129984933,1.0,0.0
50.5445168314036,16.93225511332038,2782.60107421875,89.93145751953125,284.4679260253906,-90.0,159793.5872799464,-1018.1055974283815,-578457.1098875996,137.7287056723144,-598436.2198763379,1.735806753233419,1.0,0.0
52.60967754921876,17.38302839678258,2780.156005859375,89.93438720703125,284.8207702636719,-90.0,159794.12762230067,-1018.1107967583091,-578459.1031145445,140.5868460740894,-598436.2493188612,1.7820328754339698,1.0,0.0
54.728990484261885,17.834849760760985,2777.7109375,89.93743896484375,285.1737976074219,-90.0,159794.6820438285,-1018.1161422220619,-578461.1486499284,143.52191931789275,-598436.281406477,1.828367636430471,1.0,0.0
56.902623399626464,18.287721030262738,2775.265625,89.93743896484375,285.5268249511719,-90.0,159795.25057291132,-1018.1216373381765,-578463.2466125379,146.5341989712324,-598436.3131435155,1.8748112768594751,1.0,0.0
59.130665372125804,18.7416440932225,2772.8203125,89.93743896484375,285.88037109375,-90.0,159795.83325114215,-1018.1272830715031,-578465.3971290279,149.62396515137516,-598436.3416758291,1.921364045529117,1.0,0.0
61.413266776595265,19.196619715540518,2770.37548828125,89.93743896484375,286.2341003417969,-90.0,159796.43011225585,-1018.1330822420866,-578467.6003175183,152.79149154317565,-598436.3718295011,1.9680260275044361,1.0,0.0
63.75051981245633,19.652649749589482,2767.93017578125,89.93743896484375,286.5883483886719,-90.0,159797.041176937,-1018.139033631757,-578469.8563004723,156.0370558705181,-598436.4027192268,2.0147974550688446,1.0,0.0
66.14257330261171,20.109735516133068,2765.48486328125,89.93438720703125,286.9434509277344,-90.0,159797.66647724353,-1018.1451418337972,-578472.165204373,159.36093871702906,-598436.4330701707,2.061678509487024,1.0,0.0
68.58956842822954,20.567878417434514,2763.039794921875,89.93743896484375,287.2988586425781,-90.0,159798.3060445667,-1018.1514104840905,-578474.5271503502,162.76342134026345,-598436.463050091,2.108669371515873,1.0,0.0
71.09160734631587,21.027081027869972,2760.5947265625,89.93145751953125,287.6545104980469,-90.0,159798.95990260114,-1018.1578332272918,-578476.9422632107,166.2447814239422,-598436.4950876391,2.1557703256200966,1.0,0.0
73.64884266920853,21.487343569027974,2758.1494140625,89.93743896484375,288.0107421875,-90.0,159799.62808340474,-1018.164418340996,-578479.4106694373,169.80530254368205,-598436.5252699825,2.2029814609729783,1.0,0.0
76.26137125026435,21.94866790614043,2755.704345703125,89.93438720703125,288.3674621582031,-90.0,159800.310604652,-1018.1711640072615,-578481.93248915,173.44526509288698,-598436.559161712,2.2503029664737255,1.0,0.0
78.92934331775177,22.41105618604097,2753.25927734375,89.940673828125,288.7247314453125,-90.0,159801.00749371396,-1018.1780679238589,-578484.5078548517,177.1649541700026,-598436.5924733826,2.297735132289347,1.0,0.0
81.65286721580196,22.874510371468727,2750.81396484375,89.93438720703125,289.0826721191406,-90.0,159801.71878666888,-1018.1851235864312,-578487.1368816525,180.96465397975408,-598436.6235973155,2.3452782119208564,1.0,0.0
84.43210034631193,23.339031903099972,2748.368896484375,89.93145751953125,289.44097900390625,-90.0,159802.4445323017,-1018.1923362401874,-578489.8196993896,184.84465018869378,-598436.6536903867,2.392932384267965,1.0,0.0
86.79075096582528,23.726949738339524,2746.331298828125,89.92868041992188,289.73992919921875,-90.0,159803.0603729783,-1018.1984751609714,-578492.0965535158,188.13952508603688,-598436.6788050738,2.4327292054451846,1.0,0.0
89.67239067365881,24.193432635533664,2743.88623046875,89.93145751953125,290.0989990234375,-90.0,159803.81267174674,-1018.2059898016603,-578494.8783003184,192.16747715615202,-598436.7120392115,2.4805875798282955,1.0,0.0
92.61012831062544,24.66098674512815,2741.44091796875,89.93743896484375,290.4582824707031,-90.0,159804.579476883,-1018.2136477021129,-578497.7142037692,196.27653931081295,-598436.748227073,2.5285575236978843,1.0,0.0
95.60402802657336,25.129615239297625,2738.99560546875,89.92868041992188,290.817626953125,-90.0,159805.36082078874,-1018.221442737952,-578500.6043712811,200.467002940597,-598436.7794999226,2.5766394695421013,1.0,0.0
98.14196621079464,25.520960061703292,2736.9580078125,89.93145751953125,291.1171875,-90.0,159806.02308284672,-1018.2280507025869,-578503.054386296,204.02144168352243,-598436.8055950102,2.616793350630303,1.0,0.0
101.23918338108342,25.99156000713317,2734.512939453125,89.92868041992188,291.4783935546875,-90.0,159806.83118823345,-1018.2361360428483,-578506.0443702565,208.36188526975457,-598436.8407095025,2.6650808105763986,1.0,0.0
104.39298459351994,26.463237970460323,2732.06787109375,89.92868041992188,291.838623046875,-90.0,159807.6539088266,-1018.2443983940036,-578509.0889920308,212.78455069102347,-598436.8767122622,2.713480712564376,1.0,0.0
107.06443547189701,26.857127157308287,2730.0302734375,89.92868041992188,292.1397399902344,-90.0,159808.3506880717,-1018.2514076618106,-578511.6679948024,216.53312318306416,-598436.9074692492,2.7538999618263915,1.0,0.0
110.322241812828,27.330785622955567,2727.5849609375,89.93145751953125,292.5013427734375,-90.0,159809.20027187033,-1018.2599775729329,-578514.8130971978,221.10728470084723,-598436.943706347,2.802506552995908,1.0,0.0
113.63695283094421,27.80552605570849,2725.139892578125,89.92599487304688,292.8636474609375,-90.0,159810.06456238328,-1018.2687273112685,-578518.0131793829,225.7644997809548,-598436.976324424,2.851226153469156,1.0,0.0
117.00871501478832,28.281349711588387,2722.69482421875,89.92599487304688,293.2268371582031,-90.0,159810.94361374903,-1018.277642228976,-578521.268370528,230.50505632231943,-598437.0111231435,2.9000588803227743,1.0,0.0
119.86220157262869,28.67869856935385,2720.6572265625,89.92599487304688,293.5295104980469,-90.0,159811.68742668393,-1018.2851967898757,-578524.023225104,234.51939979812596,-598437.0413752306,2.9408394427942994,1.0,0.0
123.33887374587357,29.156512632580373,2718.2119140625,89.93145751953125,293.8934326171875,-90.0,159812.59355562046,-1018.2944198337943,-578527.3797889401,239.41352007794194,-598437.0771181767,2.9898801706261793,1.0,0.0
126.8730044180993,29.635415777012557,2715.7666015625,89.93145751953125,294.2575378417969,-90.0,159813.51451816998,-1018.303821199909,-578530.791827792,244.39183050219435,-598437.1093059804,3.0390348057105143,1.0,0.0
130.46465038089082,30.115408167316335,2713.321533203125,89.92340087890625,294.62310791015625,-90.0,159814.45036580472,-1018.3133898613603,-578534.2594494165,249.4546207851963,-598437.1383578226,3.0883034067121002,1.0,0.0
134.11395815387368,30.5964924521486,2710.87646484375,89.92599487304688,294.9886169433594,-90.0,159815.40114195598,-1018.3231352356822,-578537.7827843173,254.6021955201868,-598437.1698928943,3.1376862324854073,1.0,0.0
137.8211150629213,31.078669264489765,2708.43115234375,89.92868041992188,295.3546142578125,-90.0,159816.3668378539,-1018.3330626574905,-578541.3619803705,259.8348539242288,-598437.2046183157,3.187183384799482,1.0,0.0
141.5861912878463,31.56194121195683,2705.986083984375,89.92340087890625,295.72113037109375,-90.0,159817.34748957658,-1018.3431487468631,-578544.9971526859,265.15289417654276,-598437.2403640156,3.236795197643005,1.0,0.0
144.76810996280983,31.965504730740566,2703.948486328125,89.92340087890625,296.0265197753906,-90.0,159818.17613421622,-1018.3516797212512,-578548.0693118453,269.6500308641698,-598437.2688005726,3.2782260532706573,1.0,0.0
148.63974904234055,32.45078637473045,2701.50341796875,89.92599487304688,296.39312744140625,-90.0,159819.18427895103,-1018.3620762316139,-578551.8074469337,275.1253859489225,-598437.3015758937,3.328048449322125,1.0,0.0
152.5697240519803,32.93716679338871,2699.05810546875,89.92599487304688,296.7604064941406,-90.0,159820.2074676648,-1018.3726391283424,-578555.601916987,280.6869792782236,-598437.338106178,3.3779859789837587,1.0,0.0
156.55811263457872,33.42464581382839,2696.613037109375,89.92599487304688,297.12725830078125,-90.0,159821.24570229446,-1018.3833581892402,-578559.4528685482,286.3351085210452,-598437.374920589,3.4280387093652394,1.0,0.0
160.60511933080852,33.91322783232091,2694.16796875,89.92599487304688,297.4948425292969,-90.0,159822.29905705905,-1018.394232371226,-578563.3604174148,292.07009190763347,-598437.4088209372,3.4782071750527734,1.0,0.0
164.71080523484852,34.4029136084562,2691.72265625,89.92599487304688,297.86285400390625,-90.0,159823.36752052236,-1018.4052696017177,-578567.324690049,297.89222550811246,-598437.4468900574,3.5284914199464765,1.0,0.0
168.87533467588946,34.8937014273822,2689.27734375,89.92599487304688,298.2326354980469,-90.0,159824.45109930818,-1018.416457482949,-578571.3458269741,303.8018080238253,-598437.488009164,3.5788913269844898,1.0,0.0
173.09884837607387,35.38559575716685,2686.83251953125,89.92599487304688,298.6029052734375,-90.0,159825.54985959484,-1018.4278016773612,-578575.4239667344,309.7991653822828,-598437.5246442495,3.629407492144537,1.0,0.0
177.38147015322465,35.87859740524161,2684.38720703125,89.92086791992188,298.97357177734375,-90.0,159826.66385754134,-1018.439310559407,-578579.5592110663,315.88459774805233,-598437.5570791406,3.6800400453191173,1.0,0.0
181.72332836105488,36.372709010219246,2681.94189453125,89.92599487304688,299.34429931640625,-90.0,159827.79313791232,-1018.4509791222961,-578583.7517011806,322.0584175635595,-598437.5871776338,3.7307892852080045,1.0,0.0
186.1245421845233,36.8679311601321,2679.496826171875,89.92086791992188,299.7156066894531,-90.0,159828.93773076602,-1018.4628013459594,-578588.0015475,328.32093152671587,-598437.621007843,3.7816552459797776,1.0,0.0
190.58528177801054,37.36426422891108,2677.0517578125,89.92340087890625,300.0868225097656,-90.0,159830.09762397863,-1018.4747655776889,-578592.3089146279,334.67244574520737,-598437.6606285789,3.8326379873306564,1.0,0.0
195.10564646765124,37.86171258131843,2674.6064453125,89.92086791992188,300.45849609375,-90.0,159831.27284760846,-1018.4868682114036,-578596.6739129869,341.1132838234771,-598437.696592745,3.88373812652668,1.0,0.0
199.68581032706425,38.36027673052939,2672.161376953125,89.92086791992188,300.8299255371094,-90.0,159832.46345110686,-1018.4991320160777,-578601.096677768,347.64376214845106,-598437.7320169101,3.9349557273216647,1.0,0.0
204.3258592155762,38.859957422101225,2669.71630859375,89.92086791992188,301.201171875,-90.0,159833.66947188534,-1018.5115911749751,-578605.5773347876,354.2641869788058,-598437.7678186627,3.986290905194437,1.0,0.0
209.02597442734987,39.360756155807415,2667.27099609375,89.91842651367188,301.573486328125,-90.0,159834.8909165677,-1018.5242478040607,-578610.1160245688,360.9748739968054,-598437.806059235,4.037743837022447,1.0,0.0
213.78627193474676,39.86267436341589,2664.825927734375,89.91842651367188,301.9467468261719,-90.0,159836.1278272522,-1018.5370516864211,-578614.7128669084,367.77613900066353,-598437.8404382698,4.0893148057139115,1.0,0.0
218.6068571760552,40.36571475337841,2662.380859375,89.91152954101562,302.3225402832031,-90.0,159837.38025807723,-1018.5500180808456,-578619.3679909769,374.6682995141018,-598437.8746685775,4.1410040921006726,1.0,0.0
223.48789475578815,40.86987867352883,2659.935546875,89.91607666015625,302.69708251953125,-90.0,159838.6482156666,-1018.5631618884952,-578624.0815372973,381.6516753186006,-598437.918824742,4.19281174496939,1.0,0.0
228.42947571713012,41.375165093763144,2657.490478515625,89.91607666015625,303.0729675292969,-90.0,159839.93166381636,-1018.5764517871291,-578628.8536517252,388.72657619439997,-598437.964454642,4.244737826695655,1.0,0.0
233.43185032950714,41.8815800296216,2655.04541015625,89.91375732421875,303.44891357421875,-90.0,159841.23066135187,-1018.5898824421317,-578633.6844574113,395.89334474597126,-598438.0046186552,4.296783105882184,1.0,0.0
238.49503753101453,42.38911999479622,2652.60009765625,89.90936279296875,303.82525634765625,-90.0,159842.54529117834,-1018.6034756986053,-578638.5740962534,403.1522850844776,-598438.0440219786,4.348947212473149,1.0,0.0
243.61922629689798,42.897789414969,2650.15478515625,89.91152954101562,304.1997985839844,-90.0,159843.8755237996,-1018.6172614780814,-578643.5226806531,410.5037093658466,-598438.0865923995,4.4012305973164985,1.0,0.0
248.80453277158085,43.40758613261697,2647.7099609375,89.91152954101562,304.576171875,-90.0,159845.22143008074,-1018.6312275616081,-578648.530343135,417.94794475717936,-598438.126420484,4.453633179348799,1.0,0.0
254.05105145194102,43.918514347124095,2645.2646484375,89.90936279296875,304.9522399902344,-90.0,159846.58301664572,-1018.6453883735091,-578653.5972242219,425.4853128658142,-598438.1735493417,4.506155293921438,1.0,0.0
259.3589955973439,44.430574724999616,2642.8193359375,89.9072265625,305.32904052734375,-90.0,159847.96029011827,-1018.6597526756675,-578658.7234644371,433.11613862554077,-598438.2180547317,4.558797212162915,1.0,0.0
264.72852131025866,44.9437666550267,2640.374267578125,89.9072265625,305.7079772949219,-90.0,159849.35332136365,-1018.6742821422965,-578663.9091963046,440.840752193355,-598438.2587670614,4.611558945677075,1.0,0.0
270.15964962157886,45.458096318692974,2637.92919921875,89.91152954101562,306.08795166015625,-90.0,159850.76213575332,-1018.6889389840514,-578669.1545362675,448.65948592475615,-598438.3014864265,4.664441096300607,1.0,0.0
275.6525423064595,45.973561915165625,2635.48388671875,89.9072265625,306.4678649902344,-90.0,159852.18673991098,-1018.703753956929,-578674.4596248488,456.57264963176567,-598438.3442335733,4.717443565677456,1.0,0.0
281.20749601512216,46.490162781464875,2633.038818359375,89.90936279296875,306.84796142578125,-90.0,159853.6272261158,-1018.718733438626,-578679.8245919065,464.5805733500747,-598438.3847240432,4.770566377650823,1.0,0.0
286.82441235438455,47.00790194788796,2630.59375,89.903076171875,307.2276306152344,-90.0,159855.08357957777,-1018.7338718263061,-578685.2495806301,472.68358558556065,-598438.4282276777,4.823809817877589,1.0,0.0
292.50359383714385,47.52678490151435,2628.1484375,89.903076171875,307.6077880859375,-90.0,159856.55584708203,-1018.7491600600631,-578690.7347047961,480.88203426031396,-598438.4678799463,4.877174615896422,1.0,0.0
297.2838954854524,47.960060361676675,2626.11083984375,89.90109252929688,307.9241943359375,-90.0,159857.7949375141,-1018.7620157090576,-578695.3516733069,487.7872078778455,-598438.5004699982,4.921737912758147,1.0,0.0
303.07749075372703,48.48103852853889,2623.665771484375,89.903076171875,308.303466796875,-90.0,159859.29646021652,-1018.777619489804,-578700.9474073822,496.1614504738245,-598438.5479519571,4.975324931715818,1.0,0.0
308.9336378503358,49.00316104166501,2621.220703125,89.89532470703125,308.7474670410156,-90.0,159861.06842626524,-1018.7960752335937,-578707.5522778907,504.63205566757824,-598438.5974796264,5.029033432034396,1.0,0.0
315.8451680523576,49.61375360520675,2618.367919921875,89.89913940429688,309.12896728515625,-90.0,159862.6045781137,-1018.8120909420402,-578713.2793397672,514.636671640561,-598438.6525701042,5.0918473950644625,1.0,0.0
321.8374783771578,50.13836119523169,2615.9228515625,89.897216796875,309.5114440917969,-90.0,159864.15679623262,-1018.8282980410011,-578719.0672357439,523.3172133227345,-598438.6951700642,5.145820081731756,1.0,0.0
327.8927686016541,50.664118027022,2613.4775390625,89.89346313476562,309.8929138183594,-90.0,159865.72511270098,-1018.8447293130309,-578724.9160488097,532.0951682078885,-598438.7389037133,5.1999149574669445,1.0,0.0
334.0112787876278,51.191023075029726,2611.0322265625,89.89166259765625,310.27484130859375,-90.0,159867.30950868747,-1018.8613488761337,-578730.8259770221,540.9708632761613,-598438.7926434022,5.254131820516818,1.0,0.0
341.2295508569805,51.80720123328444,2608.1796875,89.89166259765625,310.721923828125,-90.0,159869.17838107792,-1018.8809134451301,-578737.7982786866,551.4498407974606,-598438.8457576305,5.317539923315394,1.0,0.0
347.4854176741792,52.33660399937702,2605.734375,89.88986206054688,311.1041564941406,-90.0,159870.79778823958,-1018.897856661454,-578743.8410310859,560.5385124234017,-598438.8914147996,5.372022838184989,1.0,0.0
352.74721997999586,52.77865616763256,2603.69677734375,89.89166259765625,311.42236328125,-90.0,159872.159680394,-1018.9121025291831,-578748.923639839,568.1878789338516,-598438.9334989545,5.41751928240933,1.0,0.0
359.1197858862579,53.31017592530662,2601.251708984375,89.89166259765625,311.80596923828125,-90.0,159873.80877794084,-1018.9293456760795,-578755.0792747643,577.4579804480309,-598438.9877272862,5.472227630869099,1.0,0.0
365.55621554353274,53.84285313821376,2598.806640625,89.88809204101562,312.19091796875,-90.0,159875.47413535538,-1018.9467104164512,-578761.2966873733,586.8275293881306,-598439.0372299758,5.527059480747823,1.0,0.0
372.0567078482127,54.37668764685753,2596.361328125,89.88986206054688,312.57830810546875,-90.0,159877.15580208902,-1018.96423000969,-578767.5760128568,596.2968658952741,-598439.0861425081,5.582014804527489,1.0,0.0
377.52273060544394,54.8224353805995,2594.32373046875,89.8863525390625,312.9014587402344,-90.0,159878.56961427678,-1018.9789909807594,-578772.8561653427,604.2644493507687,-598439.13301988,5.627905315385419,1.0,0.0
384.140885965433,55.35839316950388,2591.878662109375,89.8863525390625,313.28924560546875,-90.0,159880.28110341757,-1018.9968354193122,-578779.2493463485,613.9175988123752,-598439.1940671103,5.68308708410774,1.0,0.0
390.823482389329,55.89551150696315,2589.43359375,89.88809204101562,313.67852783203125,-90.0,159882.0089926978,-1019.0148227301986,-578785.7048203452,623.6715047457255,-598439.2354035777,5.738393202247153,1.0,0.0
396.4415896415012,56.34399879959506,2587.39599609375,89.88809204101562,314.002197265625,-90.0,159883.4614600446,-1019.0299608794601,-578791.1320434718,631.8769715512171,-598439.2766989031,5.784576475740209,1.0,0.0
403.24253999534994,56.88325154458644,2584.95068359375,89.8846435546875,314.3917236328125,-90.0,159885.21946181697,-1019.0482673136146,-578797.7020436107,641.8165011955425,-598439.3318262376,5.840110480979831,1.0,0.0
408.9595817270456,57.333518210618855,2582.9130859375,89.87966918945312,260.1885681152344,-144.62542724609375,159886.69699736833,-1019.0636214701087,-578803.2249367002,650.177125147311,-598439.3832688578,5.88648384364177,1.0,0.0
415.8793881579768,57.87490791285406,2580.4677734375,89.88131713867188,260.11566162109375,-145.09054565429688,159888.48511808916,-1019.0821695414932,-578809.9099514585,660.3034320001025,-598439.4340026062,5.9422465631120645,1.0,0.0
422.8642949840287,58.417466938223384,2578.022705078125,89.88131713867188,259.9303894042969,-145.66778564453125,159890.28978584512,-1019.1008520213516,-578816.6579150377,670.5321237250464,-598439.4895342801,5.998134368848298,1.0,0.0
429.9144965353189,58.961191536598484,2575.57763671875,89.88131713867188,259.8096923828125,-146.18154907226562,159892.11094035234,-1019.1196833936126,-578823.4689545461,680.8635086537106,-598439.5484419179,6.054146968725263,1.0,0.0
435.8394965445623,59.41518880761245,2573.5400390625,89.8780517578125,259.4979553222656,-146.81875610351562,159893.641211862,-1019.1354962674529,-578829.1930626752,689.5517246171366,-598439.5968811553,6.100919891605656,1.0,0.0
443.009497658466,59.96105785479796,2571.0947265625,89.88131713867188,259.5986633300781,-147.1073455810547,159895.492727075,-1019.1546237555892,-578836.1200978816,700.0723367600003,-598439.6517924867,6.157162435722967,1.0,0.0
450.2450999066932,60.50809900409875,2568.649658203125,89.88131713867188,259.5674743652344,-147.5311279296875,159897.36088143487,-1019.1739361373336,-578843.1105597211,710.6966730479617,-598439.7010271832,6.213530821292011,1.0,0.0
457.54642495152075,61.05631524670844,2566.20458984375,89.8748779296875,259.45855712890625,-148.03240966796875,159899.245757847,-1019.1933862058074,-578850.1645900916,721.4250902400818,-598439.7529897543,6.270025250676952,1.0,0.0
464.91360706300475,61.605705258758505,2563.75927734375,89.8780517578125,259.6893310546875,-148.19593811035156,159901.14729198613,-1019.213016518727,-578857.2823709688,732.2579293289455,-598439.8018761168,6.326645779647322,1.0,0.0
472.3468119773315,62.156274219202786,2561.31396484375,89.87646484375,259.6708679199219,-148.60862731933594,159903.06562300026,-1019.232861885205,-578864.4639720106,743.1955355475657,-598439.8594816127,6.383392756836827,1.0,0.0
479.8461229548557,62.70801660152171,2558.869140625,89.87646484375,260.14849853515625,-148.52597045898438,159905.00060624152,-1019.2528617469222,-578871.7096286854,754.2382567569148,-598439.9329732473,6.440265528095665,1.0,0.0
486.14623214292806,63.16870201567807,2556.831298828125,89.8748779296875,259.85919189453125,-149.1459503173828,159906.62582298822,-1019.2696046916396,-578877.7966824353,763.5210949357133,-598439.9866216308,6.48775645004531,1.0,0.0
493.7673620088026,63.72260400230294,2554.38623046875,89.87332153320312,259.6719970703125,-149.7297821044922,159908.59153279933,-1019.2898042289169,-578885.160050665,774.7574853919214,-598440.0414303008,6.544861902400783,1.0,0.0
501.4548428399721,64.27768292335352,2551.94091796875,89.87332153320312,259.42724609375,-150.37022399902344,159910.57406598073,-1019.3101248828323,-578892.5878011513,786.0999993737787,-598440.0907910891,6.602094170931309,1.0,0.0
509.20912149280775,64.83394271810006,2549.495849609375,89.87179565429688,259.00787353515625,-151.18812561035156,159912.57357234546,-1019.3306301919372,-578900.0800892076,797.5490016958211,-598440.1402249513,6.659453610779394,1.0,0.0
517.0302641302114,65.39138473395623,2547.05078125,89.8780517578125,258.64764404296875,-151.9456787109375,159914.58997690328,-1019.3513105002792,-578907.6370111541,809.1048524584621,-598440.1901701528,6.716940424109168,1.0,0.0
524.9183263719315,65.95001554551591,2544.60546875,89.87179565429688,258.5008544921875,-152.49127197265625,159916.6233866396,-1019.3721555558593,-578915.2587276365,820.7679406659445,-598440.2404792876,6.774555361296905,1.0,0.0
532.8735271331389,66.50983370989098,2542.160400390625,89.87026977539062,258.3994445800781,-152.99493408203125,159918.67379880446,-1019.3931517688186,-578922.945391218,832.538630170864,-598440.3009855621,6.832298122613793,1.0,0.0
540.8959514732705,67.0708383510268,2539.71533203125,89.87026977539062,258.0728454589844,-153.72412109375,159920.7411249925,-1019.4142932979018,-578930.6971651264,844.4172579346923,-598440.3626575042,6.890168894270687,1.0,0.0
548.9858562359586,67.63303349447892,2537.27001953125,89.87179565429688,257.86749267578125,-154.33209228515625,159922.82552843192,-1019.435598620549,-578938.5141377675,856.4042282864684,-598440.4138837707,6.948168430194812,1.0,0.0
555.7789415197913,68.102437563151,2535.232421875,89.8687744140625,257.6042785644531,-154.92935180664062,159924.57559701946,-1019.4535201875121,-578945.0782322539,866.47637250775,-598440.4563922028,6.996599482707211,1.0,0.0
563.9928704920458,68.66681891033716,2532.787109375,89.8687744140625,257.5933532714844,-155.34326171875,159926.69135227407,-1019.4752123443038,-578953.015143656,878.6628815343138,-598440.5151477756,7.054835040637386,1.0,0.0
572.2744875195203,69.2323937432532,2530.34228515625,89.8658447265625,257.6950988769531,-155.6419677734375,159928.8242568529,-1019.4970686522872,-578961.0176579873,890.9587625527056,-598440.5714588247,7.113199699352322,1.0,0.0
579.2277289531194,69.70461952435737,2528.304443359375,89.8673095703125,257.5611572265625,-156.10940551757812,159930.6147955489,-1019.5154014912994,-578967.7366757032,901.2891432581237,-598440.6199936493,7.161935684282184,1.0,0.0
587.6340646116296,70.27238452227309,2525.859375,89.8687744140625,257.3730163574219,-156.7012176513672,159932.7791479284,-1019.5375599948318,-578975.8598996936,913.7864735603798,-598440.6797848418,7.220537254543274,1.0,0.0
596.1086194559466,70.84134595862963,2523.4140625,89.8687744140625,257.41754150390625,-157.06161499023438,159934.96074045252,-1019.5599148360641,-578984.0491067297,926.3942060723202,-598440.7406057745,7.279268360487492,1.0,0.0
604.6515700520249,71.41150660736234,2520.968994140625,89.8673095703125,257.5024108886719,-157.3791961669922,159937.15955695623,-1019.5824617234618,-578992.3045162823,939.1127260245848,-598440.7952926815,7.33812954133009,1.0,0.0
611.8229514289415,71.88756087817244,2518.931396484375,89.8673095703125,257.58197021484375,-157.63519287109375,159939.00518760865,-1019.6013834563644,-578999.2345892391,949.7964132894995,-598440.8277885875,7.387280597028678,1.0,0.0
620.4915806724457,72.4599279184694,2516.486328125,89.86151123046875,257.32220458984375,-158.30020141601562,159941.23584494225,-1019.6242026177795,-579007.6115945843,962.7190294135362,-598440.8888514548,7.4463808283667845,1.0,0.0
629.2289776406251,73.03350197741662,2514.041015625,89.860107421875,257.1311340332031,-158.89817810058594,159943.48383582334,-1019.6471719828994,-579016.0551584824,975.7535341125913,-598440.9473615686,7.50561207214929,1.0,0.0
638.0352713254979,73.60828261686785,2511.595703125,89.85873413085938,256.7900390625,-159.64456176757812,159945.74920032968,-1019.6703456727416,-579024.565428164,988.9002703822916,-598441.0111853097,7.5649741648897475,1.0,0.0
646.9106987991836,74.18426903167344,2509.15087890625,89.85873413085938,256.3772277832031,-160.46456909179688,159948.0318875511,-1019.6936737386138,-579033.142518697,1002.1596005506581,-598441.0766102868,7.624467196335843,1.0,0.0
655.855217738892,74.761461001004,2506.70556640625,89.85736083984375,255.91795349121094,-161.33245849609375,159950.33202855306,-1019.7171721545608,-579041.7866094746,1015.5319099606713,-598441.1438060784,7.684091215980402,1.0,0.0
664.8692177537596,75.3398508339672,2504.26025390625,89.85736083984375,255.3685302734375,-162.293212890625,159952.64954026282,-1019.7408734647186,-579050.4979065526,1029.0174835645594,-598441.2273149904,7.743845138644815,1.0,0.0
673.9526268738555,75.91944894730472,2501.815185546875,89.85736083984375,254.8548583984375,-163.21722412109375,159954.98450833568,-1019.7647950736434,-579059.276399266,1042.6167861592257,-598441.2735381536,7.803731499366904,1.0,0.0
683.1056959306588,76.50024582375423,2499.3701171875,89.860107421875,254.73883056640625,-163.74057006835938,159957.3370691698,-1019.7889957515151,-579068.1223098356,1056.3301100431709,-598441.3402474392,7.863747909613608,1.0,0.0
692.3285412971163,77.0822600816358,2496.9248046875,89.85873413085938,254.61172485351562,-164.2781982421875,159959.70731908543,-1019.8134210196883,-579077.0357132519,1070.1580080826534,-598441.3586571388,7.923898171559813,1.0,0.0
700.0676423842087,77.56820068532267,2494.88720703125,89.85873413085938,255.14111328125,-164.09234619140625,159961.69609856833,-1019.8338979569824,-579084.515202146,1081.7689920512494,-598441.3926319301,7.97412411803964,1.0,0.0
709.418785617454,78.15245307947106,2492.442138671875,89.85598754882812,254.92855834960938,-164.7184295654297,159964.0988759669,-1019.8586195794494,-579093.5527471025,1095.8078546640463,-598441.4501367642,8.034517284081687,1.0,0.0
718.8400645074435,78.73792966603177,2489.9970703125,89.85064697265625,254.89138793945312,-165.17037963867188,159966.5193582772,-1019.8835322944076,-579102.6582613424,1109.962370091118,-598441.5150270804,8.095043767614811,1.0,0.0
728.3318633818999,79.32463868397491,2487.5517578125,89.84933471679688,254.7666015625,-165.70895385742188,159968.95747050893,-1019.9086473075301,-579111.8318411862,1124.232990960707,-598441.5718104996,8.155704919684013,1.0,0.0
737.894022876746,79.91256855252817,2485.106689453125,89.84677124023438,254.75057983398438,-166.13851928710938,159971.41330089996,-1019.9339770165832,-579121.0736713593,1138.619981503347,-598441.6557698986,8.216498671040938,1.0,0.0
747.5268667136552,80.50172724302149,2482.66162109375,89.84933471679688,255.14483642578125,-166.1593017578125,159973.88678512507,-1019.9595356074722,-579130.383933838,1153.1238170403522,-598441.7151723949,8.277427337758638,1.0,0.0
757.2305367527297,81.09211961245505,2480.21630859375,89.84423828125,254.8631134033203,-166.85328674316406,159976.3781426551,-1019.9852628795059,-579139.7626447869,1167.7449177069357,-598441.7545281511,8.338491395974586,1.0,0.0
767.0050815886352,81.68374678770162,2477.77099609375,89.83685302734375,255.3050537109375,-166.8258056640625,159978.88744298043,-1020.0112316695602,-579149.2100130119,1182.4836283429759,-598441.8214537002,8.399689727030477,1.0,0.0
776.8507143149618,82.27661152543915,2475.326171875,89.83807373046875,255.55560302734375,-166.99276733398438,159981.41453612037,-1020.0375118342788,-579158.7262311538,1197.340399011271,-598441.8987091555,8.461023173359763,1.0,0.0
786.7676167521859,82.87071303750176,2472.880859375,89.835693359375,255.6106719970703,-167.35787963867188,159983.9593952449,-1020.0640088406951,-579168.3114330283,1212.315597333829,-598441.9768554317,8.522492002415731,1.0,0.0
798.4275975255296,83.56539189640932,2470.0283203125,89.835693359375,256.3182373046875,-167.1385498046875,159986.95096848672,-1020.0951807586105,-579179.5815707261,1229.9368130518124,-598442.0635916162,8.59437673966255,1.0,0.0
808.4993507206673,84.1621579652523,2467.5830078125,89.83447265625,256.4856262207031,-167.39320373535156,159989.53448272188,-1020.1221158591659,-579189.3167245679,1245.1697989561362,-598442.1531476108,8.656137369775934,1.0,0.0
818.642745370511,84.76015690684366,2465.1376953125,89.83807373046875,256.29864501953125,-168.00137329101562,159992.1359313349,-1020.149170645848,-579199.1213413291,1260.5224183051614,-598442.2217515098,8.718033889082335,1.0,0.0
828.8580027301796,85.35937923388684,2462.692626953125,89.83331298828125,255.77915954589844,-168.94110107421875,159994.75539189854,-1020.1763351050765,-579208.9955200797,1275.9949437922332,-598442.2929298406,8.780064735455596,1.0,0.0
839.1452637703624,85.9598298949119,2460.24755859375,89.83685302734375,255.02589416503906,-170.11317443847656,159997.39292323808,-1020.2037026969344,-579218.9393839708,1291.5878522414714,-598442.3414133523,8.84223125259905,1.0,0.0
849.5046703120461,86.56151764156857,2457.80224609375,89.8321533203125,255.33132934570312,-170.2288818359375,160000.04866983413,-1020.2313783255966,-579228.9530454875,1307.3015594178578,-598442.3897626982,8.904533776083554,1.0,0.0
859.9364466047846,87.16444745039226,2455.357177734375,89.83099365234375,255.29098510742188,-170.68572998046875,160002.72251111863,-1020.2593331424148,-579239.0367588459,1323.1364917875035,-598442.4630980823,8.966972164195283,1.0,0.0
868.6849715017015,87.66784983542603,2453.319580078125,89.83099365234375,255.85247802734375,-170.47096252441406,160004.96464474557,-1020.2828142730148,-579247.4933601692,1336.4253225252032,-598442.4982065072,9.019110591586127,1.0,0.0
879.2495135180652,88.2730853932013,2450.87451171875,89.829833984375,256.5318603515625,-170.20751953125,160007.67198829007,-1020.3112225619705,-579257.7057255555,1352.4838455669815,-598442.5612145937,9.081802916921674,1.0,0.0
889.8869080075528,88.87958878497959,2448.42919921875,89.82196044921875,257.7412109375,-169.41619873046875,160010.39748793075,-1020.3398664084823,-579267.988461325,1368.6649679424008,-598442.6232581495,9.144634795649097,1.0,0.0
900.5971048744395,89.48735747097774,2445.984130859375,89.81869506835938,258.07440185546875,-169.50347900390625,160013.14126131835,-1020.3686609355361,-579278.3418137783,1384.9690380026586,-598442.7119168375,9.2076052122556,1.0,0.0
911.380407411838,90.09638265061821,2443.5390625,89.81869506835938,258.4599609375,-169.5418701171875,160015.90314780708,-1020.3975660888107,-579288.765889901,1401.3964074816322,-598442.8063453805,9.270713982694133,1.0,0.0
922.236915186746,90.7066708892677,2441.09375,89.81442260742188,258.8419494628906,-169.5876007080078,160018.68320622228,-1020.4266536322982,-579299.2608128435,1417.9475752619328,-598442.8774321943,9.33396278071615,1.0,0.0
933.1666046036407,91.31822297782429,2438.648681640625,89.811279296875,259.15362548828125,-169.70257568359375,160021.48159170954,-1020.4559240428359,-579309.8267807466,1434.6228920867434,-598442.9500204707,9.39735102068039,1.0,0.0
942.3308632887201,91.82880690655095,2436.61083984375,89.811279296875,258.7151184082031,-170.50070190429688,160023.8275804667,-1020.4804263202102,-579318.6861004406,1448.6140314965742,-598443.0310395942,9.450279679551727,1.0,0.0
953.3955476783449,92.44264696872969,2434.165771484375,89.811279296875,258.60931396484375,-171.036376953125,160026.6594940392,-1020.5099308577926,-579329.3826742795,1465.5177475489909,-598443.1309865232,9.513920027917777,1.0,0.0
964.5338144729612,93.05772937849994,2431.720703125,89.81549072265625,257.99493408203125,-172.08392333984375,160029.50961669843,-1020.539540776387,-579340.1507426859,1482.546564264223,-598443.2183795659,9.577698311242159,1.0,0.0
973.8722283293027,93.57124437021723,2429.68310546875,89.81338500976562,257.5219421386719,-172.9193115234375,160031.89879900418,-1020.5644004432113,-579349.1788247814,1496.8331010338152,-598443.2796387153,9.630952109934867,1.0,0.0
985.1460916253272,94.18860655762433,2427.23779296875,89.81442260742188,256.697998046875,-174.17239379882812,160034.78279203505,-1020.5944864837081,-579360.0781523712,1514.0923820432508,-598443.3399785085,9.694983899933675,1.0,0.0
996.4942964330548,94.80723103509949,2424.792724609375,89.81442260742188,256.448974609375,-174.84815979003906,160037.68543825945,-1020.6246600238235,-579371.0493976402,1531.4781056503998,-598443.389060548,9.759155941052768,1.0,0.0
1007.9167581377551,95.42711422194827,2422.34765625,89.81231689453125,255.9638214111328,-175.76190185546875,160040.60677517246,-1020.6550412265212,-579382.0925124278,1548.9906321832677,-598443.4528064226,9.823467124580134,1.0,0.0
1019.4135971127544,96.04825184014453,2419.90234375,89.81442260742188,255.321044921875,-176.83462524414062,160043.54666345858,-1020.6857383338363,-579393.2077750305,1566.630252424744,-598443.5469391332,9.887916581324134,1.0,0.0
1030.9850313147763,96.67065335545186,2417.457275390625,89.81442260742188,255.09007263183594,-177.49842834472656,160046.50490497708,-1020.7166540709884,-579404.3953405938,1584.3975161936833,-598443.6394394661,9.952506431176687,1.0,0.0
1042.6315385610797,97.29430868128776,2415.011962890625,89.81338500976562,255.16244506835938,-177.85768127441406,160049.48183684927,-1020.7478001204879,-579415.6554715837,1602.2928298420738,-598443.7111263876,10.01723637559536,1.0,0.0
1054.3527534122113,97.91922610320111,2412.56689453125,89.81549072265625,254.6895294189453,-178.7644805908203,160052.4774859053,-1020.7792697039993,-579426.9880341848,1620.3166052076267,-598443.7750080681,10.082106947415696,1.0,0.0
1066.1492493575206,98.54540599385162,2410.12158203125,89.8165283203125,254.45416259765625,-179.43328857421875,160055.49189480537,-1020.8109989253433,-579438.3933710181,1638.4692425013054,-598443.848717995,10.147117698065244,1.0,0.0
1078.0208054688992,99.17284844211893,2407.676513671875,89.817626953125,254.4202117919922,-179.8980712890625,160058.52507421444,-1020.8428609458358,-579449.8715677394,1656.751145946444,-598443.9216882313,10.212269090578104,1.0,0.0
1089.9677025575656,99.8015454072534,2405.2314453125,89.817626953125,253.702880859375,178.9541015625,160061.57703479778,-1020.8748633948715,-579461.4227100036,1675.1626776128542,-598443.983175489,10.277560770809316,1.0,0.0
1101.9901623838814,100.43150825602133,2402.7861328125,89.82086181640625,253.27764892578125,178.0970458984375,160064.64797986095,-1020.9071068850906,-579473.047033447,1693.7043483834714,-598444.0442619945,10.342993638084522,1.0,0.0
1114.0883791542146,101.06274019562409,2400.341064453125,89.81976318359375,252.88174438476562,177.26730346679688,160067.7378344139,-1020.9396972743423,-579484.7446343898,1712.376643835567,-598444.099537058,10.408568321291852,1.0,0.0
1126.2625615388388,101.69525257732697,2397.89599609375,89.82086181640625,252.97463989257812,176.9263458251953,160070.8467910973,-1020.9725761500747,-579496.5156628126,1731.1800300095929,-598444.1620253286,10.474285642805455,1.0,0.0
1138.5125121580204,102.32904615856327,2395.45068359375,89.82196044921875,253.16856384277344,176.68399047851562,160073.97461427527,-1021.0057387439163,-579508.3603220212,1750.1149793720106,-598444.2271319282,10.540145949576413,1.0,0.0
1150.8386470814003,102.96411741033513,2393.005615234375,89.82305908203125,253.3585205078125,176.43797302246094,160077.12148592356,-1021.0391228286178,-579520.2786763408,1769.1818501793314,-598444.2944258205,10.606148995130582,1.0,0.0
1163.2412097108318,103.60047094079147,2390.560546875,89.82528686523438,253.74502563476562,176.39002990722656,160080.28740054215,-1021.0727830020339,-579532.2710308977,1788.3811393181095,-598444.367660007,10.672295228640678,1.0,0.0
1175.7201506494312,104.23810188567654,2388.115234375,89.82867431640625,253.60671997070312,175.81930541992188,160083.47239562613,-1021.1066792098434,-579544.3373375318,1807.7132059198339,-598444.426658107,10.738584973143134,1.0,0.0
1188.2756185880862,104.87702451167286,2385.670166015625,89.829833984375,254.0345458984375,175.81341552734375,160086.67662632125,-1021.1408331481368,-579556.4777943838,1827.1786500326125,-598444.4679908437,10.805019945183119,1.0,0.0
1200.9078091447009,105.51724589148408,2383.22509765625,89.829833984375,254.26390075683594,175.60670471191406,160089.90019961295,-1021.1751825896652,-579568.6925620992,1846.7779560692143,-598444.5044590122,10.871600534221898,1.0,0.0
1213.6171239992836,106.15877514976573,2380.77978515625,89.829833984375,254.73138427734375,175.63650512695312,160093.14313683126,-1021.2096529094131,-579580.9818119886,1866.5116078165593,-598444.5552730671,10.938327097844365,1.0,0.0
1226.4034519977868,106.80161305437309,2378.334716796875,89.82754516601562,254.47744750976562,174.9437255859375,160096.40541114614,-1021.2442157355697,-579593.345677868,1886.3801183863543,-598444.6032288288,11.005200448039034,1.0,0.0
1239.26699087827,107.44577496951973,2375.889404296875,89.826416015625,254.22203063964844,174.24639892578125,160099.68712954308,-1021.2789380637557,-579605.7843203826,1906.384080129792,-598444.6376990202,11.072222678933258,1.0,0.0
1252.2077890606597,108.09126185544748,2373.4443359375,89.82415771484375,254.05479431152344,173.63583374023438,160102.98830268704,-1021.3139150229842,-579618.2978251878,1926.523897489882,-598444.6852090878,11.139393028977906,1.0,0.0
1263.0512239830568,108.63019044140324,2371.40673828125,89.81869506835938,254.09140014648438,173.3025665283203,160105.75411567924,-1021.343223342076,-579628.7831270387,1943.4113041129895,-598444.7333762967,11.195482702673928,1.0,0.0
1276.1345268287696,109.27813804024063,2368.96142578125,89.8165283203125,253.79322814941406,172.5631103515625,160109.09093327782,-1021.3785405246169,-579641.4344548285,1963.801728656399,-598444.7929150005,11.262928591256014,1.0,0.0
1289.295392708853,109.92742505311271,2366.516357421875,89.81338500976562,253.3429412841797,171.6717071533203,160112.44713579823,-1021.4141087619216,-579654.1611320106,1984.3294529598206,-598444.8563797364,11.330524742889168,1.0,0.0
1302.5347141209058,110.57806248477334,2364.0712890625,89.80618286132812,253.45083618164062,171.3499755859375,160115.822840891,-1021.4499287692458,-579666.9634048864,2004.9950183612527,-598444.9164052382,11.39827268790458,1.0,0.0
1315.8520976447035,111.23003289602723,2361.6259765625,89.80718994140625,253.00146484375,170.47525024414062,160119.21798423087,-1021.4859967318923,-579679.8414554314,2025.7987322486006,-598445.0057919783,11.466169496152872,1.0,0.0
1329.2475436870009,111.88333410174636,2359.180908203125,89.80416870117188,252.23928833007812,169.3023681640625,160122.63262464307,-1021.5223188487441,-579692.7954067964,2046.740995419328,-598445.0858800428,11.534216517796096,1.0,0.0
1342.7217010420281,112.53797258698317,2356.73583984375,89.80517578125,252.09878540039062,168.76351928710938,160126.06668713735,-1021.5589180079849,-579705.8253553015,2067.822404312319,-598445.1429318576,11.60241508600177,1.0,0.0
1354.01029997773,113.08452942291302,2354.6982421875,89.80218505859375,251.697509765625,168.03733825683594,160128.94350941194,-1021.5896911708267,-579716.7418416006,2085.4968103849096,-598445.1906511313,11.659362726747645,1.0,0.0
1367.628805966815,113.74162773284824,2352.2529296875,89.80218505859375,252.14553833007812,168.10629272460938,160132.4135473124,-1021.6269743529708,-579729.9115724978,2106.8344097449444,-598445.2566382268,11.727838315324277,1.0,0.0
1381.3259164137999,114.40012071135261,2349.807861328125,89.79922485351562,253.0471649169922,168.64486694335938,160135.90362271247,-1021.6646030036361,-579743.1577023166,2128.313174037379,-598445.2674053647,11.796473004525353,1.0,0.0
1395.1024116849294,115.06001732922171,2347.362548828125,89.79632568359375,254.14529418945312,169.38607788085938,160139.41362312666,-1021.702584752217,-579756.4803755379,2149.9334841105156,-598445.306433046,11.865264590259528,1.0,0.0
1408.9582417677157,115.72133763656326,2344.91748046875,89.7906494140625,255.72384643554688,170.6240234375,160142.9433610793,-1021.7409095851333,-579769.8798329623,2171.6960491847713,-598445.3807477242,11.934214975181249,1.0,0.0
1422.8935979580274,116.38406533049007,2342.47216796875,89.7860107421875,257.3543701171875,171.92391967773438,160146.49274541507,-1021.7794668761642,-579783.3563903815,2193.6011578210164,-598445.4921345147,12.003322499242984,1.0,0.0
1436.9084706314607,117.04821034183253,2340.027099609375,89.78329467773438,258.2274169921875,172.48080444335938,160150.06187245433,-1021.8182873813064,-579796.9101227853,2215.6495636850595,-598445.5742651423,12.072590955166788,1.0,0.0
1451.0032376135932,117.71377020785299,2337.58203125,89.781494140625,259.6752624511719,173.62957763671875,160153.6506672068,-1021.857187518254,-579810.5411264944,2237.841634812532,-598445.6424105574,12.142019620930455,1.0,0.0
1465.1778135010973,118.38072928166892,2335.13671875,89.77883911132812,259.96875,173.63052368164062,160157.25938113854,-1021.8961365310104,-579824.2496746399,2260.177691391902,-598445.7207722215,12.211606031392364,1.0,0.0
1479.4326143735088,119.04908863591663,2332.691650390625,89.77532958984375,260.4482727050781,173.83837890625,160160.88797675437,-1021.9352877227218,-579838.0358153817,2282.658147754264,-598445.8059250986,12.281350556002735,1.0,0.0
1493.767845521681,119.7188282675363,2330.24658203125,89.7718505859375,261.0565185546875,174.18698120117188,160164.5362665786,-1021.974610098973,-579851.899789521,2305.2832214874215,-598445.9147069234,12.351250558281492,1.0,0.0
1508.1834348388948,120.3899806978753,2327.80126953125,89.7718505859375,261.12506103515625,174.0048828125,160168.2045770676,-1022.0140054313094,-579865.8417738685,2328.0539616014576,-598445.9857305541,12.421312051981772,1.0,0.0
1520.2579223732464,120.95033197714918,2325.763671875,89.77099609375,260.7743835449219,173.45050048828125,160171.2767275125,-1022.0468807307632,-579877.5197898656,2347.140837828396,-598446.0531322917,12.479816329721245,1.0,0.0
1534.821289272979,121.62401688940193,2323.318603515625,89.76846313476562,260.8155517578125,173.25839233398438,160174.98159515543,-1022.0865030375869,-579891.6051809596,2370.178949370398,-598446.1370713442,12.550164897329239,1.0,0.0
1549.4659917150857,122.29909852561467,2320.87353515625,89.77099609375,260.3408508300781,172.55429077148438,160178.70652612325,-1022.126271256581,-579905.768924883,2393.363771218923,-598446.2160080959,12.620672323882559,1.0,0.0
1564.191492605023,122.97556857675059,2318.42822265625,89.76678466796875,259.89593505859375,171.8912353515625,160182.45156307623,-1022.1661753741653,-579920.0113642573,2416.695658179582,-598446.2977835285,12.691337553418464,1.0,0.0
1578.998352782568,123.65340834133262,2315.983154296875,89.76678466796875,260.14215087890625,171.93150329589844,160186.2166310241,-1022.2064228145034,-579934.3325954028,2440.1748412237503,-598446.4040746139,12.76215786217523,1.0,0.0
1593.887012471212,124.3326704159045,2313.537841796875,89.76760864257812,260.1108093261719,171.70323181152344,160190.0018262872,-1022.2468729106338,-579948.7326933099,2463.8025904882234,-598446.4678724499,12.833141671716476,1.0,0.0
1608.8566770933103,125.01330714953134,2311.0927734375,89.76760864257812,259.2991943359375,170.7008514404297,160193.80717019568,-1022.2873430339248,-579963.2118292891,2487.578643255867,-598446.5658522825,12.904280923623503,1.0,0.0
1621.394297597115,125.58157984995296,2309.05517578125,89.76846313476562,258.87005615234375,170.13162231445312,160196.99375292874,-1022.3211636630447,-579975.338391608,2507.5060847504064,-598446.621709486,12.963687314125877,1.0,0.0
1636.5142432218418,126.26478363544697,2306.60986328125,89.76678466796875,258.4029541015625,169.5115966796875,160200.83634889423,-1022.3620185939224,-579989.963022392,2531.5560288169654,-598446.7004771426,13.035120240857623,1.0,0.0
1651.71644024516,126.94938007286999,2304.164794921875,89.77099609375,258.84368896484375,169.82415771484375,160204.69919499045,-1022.4032859889419,-580004.66715702,2555.7558781971456,-598446.796594104,13.106711558444374,1.0,0.0
1667.0005605784245,127.63541433286535,2301.7197265625,89.7642822265625,259.3300476074219,170.21517944335938,160208.58258017874,-1022.4448933688552,-580019.4510204629,2580.107017706032,-598446.8181325673,13.178470104620317,1.0,0.0
1682.3675325515214,128.322883683875,2299.2744140625,89.7642822265625,259.9398498535156,170.75721740722656,160212.4865632843,-1022.4866871920974,-580034.3147358713,2604.60953108198,-598446.8897562085,13.250390295411307,1.0,0.0
1697.8170352452435,129.01177967176633,2296.829345703125,89.76177978515625,260.6642150878906,171.44229125976562,160216.41093550125,-1022.5286383716018,-580049.2583727352,2629.2638433243847,-598446.9877118137,13.32247240764707,1.0,0.0
1713.3490191992605,129.70213343284982,2294.38427734375,89.75689697265625,260.68206787109375,171.44317626953125,160220.35562700446,-1022.5706896869094,-580064.2824181569,2654.0711190423463,-598447.0636997853,13.394721954037266,1.0,0.0
1728.9640354624717,130.3939135077918,2291.93896484375,89.75689697265625,260.52569580078125,171.2862548828125,160224.32084659964,-1022.6128144351394,-580079.3868026459,2679.0312071739463,-598447.1745245502,13.467133274967239,1.0,0.0
1744.6621304798173,131.0871503570218,2289.493896484375,89.7545166015625,260.36083984375,171.126708984375,160228.30644430636,-1022.6550788966567,-580094.571718843,2704.1451237379806,-598447.2543703608,13.539712611734842,1.0,0.0
1760.4438680292806,131.78180791589566,2287.048583984375,89.75689697265625,259.81744384765625,170.60061645507812,160232.31270908564,-1022.6974930850417,-580109.8373917192,2729.412810690468,-598447.3690748159,13.612453410837475,1.0,0.0
1776.3087084719446,132.47791838854212,2284.603515625,89.7545166015625,259.25543212890625,170.0447998046875,160236.33922332598,-1022.7401056376846,-580125.1839602548,2754.8353885464603,-598447.4495836239,13.68536228266504,1.0,0.0
1792.2573134346167,133.1753835750451,2282.158203125,89.76510620117188,259.095947265625,169.88397216796875,160240.3863723089,-1022.7829990474136,-580140.6117244114,2780.4117483068258,-598447.5902933832,13.758424883985413,1.0,0.0
1808.2895571512636,133.87425598388484,2279.713134765625,89.7718505859375,258.2523193359375,169.03436279296875,160244.4539847237,-1022.8261828509719,-580156.1207055186,2806.1434907332296,-598447.6683943542,13.831652414243536,1.0,0.0
1824.4056909055216,134.57452946617596,2277.26806640625,89.77532958984375,258.2547607421875,169.0288543701172,160248.54269215293,-1022.869609841481,-580171.7110858874,2832.0310018290766,-598447.6927913043,13.905044012966869,1.0,0.0
1840.6064948679414,135.2762244049326,2274.82275390625,89.7779541015625,258.4344482421875,169.1989288330078,160252.65239827617,-1022.9132332888992,-580187.3827905273,2858.0748241554247,-598447.7206631994,13.978599326169444,1.0,0.0
1856.8914555438096,135.97935601549287,2272.377685546875,89.78421020507812,258.3792724609375,169.13551330566406,160256.7833170644,-1022.9570775119216,-580203.1361407298,2884.275665636291,-598447.7771217541,14.052318897237,1.0,0.0
1873.2605482259532,136.6839516262142,2269.9326171875,89.77972412109375,257.99169921875,168.7386932373047,160260.93529853693,-1023.0010991183669,-580218.9713291355,2910.6345297170337,-598447.8192413362,14.1262077126961,1.0,0.0
1889.7147005453007,137.39004422417094,2267.4873046875,89.7779541015625,258.6833190917969,169.41917419433594,160265.1082890337,-1023.0452809420974,-580234.8886233754,2937.152395514422,-598447.8646451291,14.200268531955032,1.0,0.0
1906.2532287368085,138.09765673105017,2265.042236328125,89.77532958984375,258.51934814453125,169.2461395263672,160269.302631176,-1023.0895667163284,-580250.8879807895,2963.830094395904,-598447.9048529213,14.274504277082997,1.0,0.0
1922.8770360852359,138.80679813327694,2262.59716796875,89.76510620117188,258.877685546875,169.5980224609375,160273.51809999294,-1023.1340131846816,-580266.9696903389,2990.668309381581,-598447.9584038587,14.348915165874814,1.0,0.0
1939.586317130481,139.51743844130513,2260.15185546875,89.76260375976562,258.9097900390625,169.6240997314453,160277.75464182434,-1023.178725251332,-580283.1340196547,3017.666929924977,-598448.0741166755,14.423495881770464,1.0,0.0
1956.380652572494,140.22958235187565,2257.706787109375,89.76260375976562,258.672119140625,169.37799072265625,160282.01201036936,-1023.2236976710708,-580299.3810863872,3044.826818832895,-598448.1764159269,14.498250669696233,1.0,0.0
1973.2605098091299,140.94319542950828,2255.26171875,89.76678466796875,258.896728515625,169.58901977539062,160286.29041959875,-1023.2690110293777,-580315.7112118279,3072.1480481956387,-598448.278207891,14.573175499887157,1.0,0.0
1990.22632831987,141.6583054573194,2252.81640625,89.76593017578125,258.3492126464844,169.0338134765625,160290.58986951262,-1023.3145737735183,-580332.1243959768,3099.6315893688006,-598448.3387684096,14.648275393485278,1.0,0.0
2007.2778163406765,142.37488401759097,2250.371337890625,89.7701416015625,258.9706115722656,169.64126586914062,160294.91072406236,-1023.3602695552261,-580348.6207674842,3127.2774476596387,-598448.3998477578,14.723545544394824,1.0,0.0
2024.4156578597613,143.09296263569001,2247.926025390625,89.769287109375,258.5975341796875,169.25430297851562,160299.25319721887,-1023.4061122027786,-580365.2006476412,3155.0868045768,-598448.4394983872,14.79899046721988,1.0,0.0
2041.6397796391975,143.8125623448601,2245.48095703125,89.76593017578125,258.22308349609375,168.874267578125,160303.61702135115,-1023.4520201770217,-580381.863982788,3183.0603125736816,-598448.4825420773,14.874611300262586,1.0,0.0
2058.9500092209782,144.53364442469265,2243.03564453125,89.76846313476562,258.1524658203125,168.792724609375,160308.00233543973,-1023.49817562975,-580398.6111905363,3211.197806730517,-598448.5900546036,14.950401139471978,1.0,0.0
2076.3471033420647,145.25625403353533,2240.590576171875,89.76846313476562,258.5010986328125,169.13290405273438,160312.40889318363,-1023.5446772662551,-580415.4423885362,3239.5008711112896,-598448.6522892651,15.026370279142782,1.0,0.0
2093.83108700742,145.98036838754084,2238.1455078125,89.7718505859375,259.01531982421875,169.63800048828125,160316.83696221397,-1023.5914936152847,-580432.3576304481,3267.969504580018,-598448.722236483,15.10251388703358,1.0,0.0
2111.402279322967,146.7059891563771,2235.7001953125,89.7718505859375,259.9951171875,170.60647583007812,160321.28675650165,-1023.6385583964736,-580449.3572375632,3296.604443466058,-598448.7704420754,15.178833779366812,1.0,0.0
2129.0866312386934,147.43312349061287,2233.255126953125,89.76846313476562,260.14752197265625,170.74484252929688,160325.75820105636,-1023.6857075778396,-580466.441306202,3325.406215493451,-598448.8146623556,15.255329984497905,1.0,0.0
2146.862998443772,148.16177249679896,2230.81005859375,89.772705078125,260.20880126953125,170.79876708984375,160330.2513172082,-1023.7328734485061,-580483.6100076749,3354.3752614897676,-598448.90125265,15.332000423692477,1.0,0.0
