obs_alt,obs_vel,obs_fuel,obs_pitch,obs_heading,obs_roll,obs_pos_x,obs_pos_y,obs_pos_z,obs_ap,obs_pe,obs_time_to_ap,act_throttle,act_stage
14.261070811888203,4.591442709774122,8236.0419921875,89.94406127929688,274.25299072265625,-90.0,159783.7814592876,-1018.1054701252357,-578422.1788584811,87.83276938262861,-598435.3003475135,0.47062131438781307,1.0,0.0
14.888486798736267,5.659360696060818,8226.2734375,89.94766235351562,276.10198974609375,-90.0,159783.94734888343,-1018.1066460969374,-578422.7839415927,89.02121794619597,-598435.3465530196,0.5800843860890836,1.0,0.0
15.644198045833036,6.729417113800012,8216.5048828125,89.9515380859375,278.288818359375,-90.0,159784.1470521172,-1018.1079776460753,-578423.5127893899,90.45634199900087,-598435.393371757,0.6897678164516492,1.0,0.0
16.52849036292173,7.801971443883779,8206.736328125,89.94406127929688,280.73193359375,-90.0,159784.3806331914,-1018.1094647130445,-578424.3656750848,92.13941654120572,-598435.4403363443,0.7997086848692447,1.0,0.0
17.54165711766109,8.876771273356756,8196.96875,89.94406127929688,283.34027099609375,-90.0,159784.6481614163,-1018.1111084973887,-578425.342880436,94.0713277773466,-598435.487159443,0.9098813531624046,1.0,0.0
18.68394595826976,9.95360374396162,8187.2001953125,89.940673828125,286.0426940917969,-90.0,159784.94969164408,-1018.1129142312781,-578426.4446507229,96.25285605236422,-598435.5350479118,1.020264234128092,1.0,0.0
19.955589595832862,11.032364549934549,8177.431640625,89.94406127929688,288.7921142578125,-90.0,159785.28527882817,-1018.1148815421835,-578427.6712183952,98.68479718104936,-598435.5819563577,1.13084687921031,1.0,0.0
21.35682387975976,12.11302034166868,8167.6630859375,89.9515380859375,291.55877685546875,-90.0,159785.65498059674,-1018.1170072561578,-578429.022800257,101.36798193468712,-598435.6275564793,1.2416261106577622,1.0,0.0
22.887871908489615,13.195567827318518,8157.89453125,89.94406127929688,294.3346252441406,-90.0,159786.0588575139,-1018.1192954784707,-578430.4996183811,104.30326687684283,-598435.6723569457,1.3526018300839269,1.0,0.0
24.838467412046157,14.460934386665338,8146.498046875,89.940673828125,297.5845031738281,-90.0,159786.5733154054,-1018.1221770724729,-578432.3811490602,108.04754922434222,-598435.7240518023,1.4823225325491762,1.0,0.0
26.65155631280504,15.547586936447635,8136.7294921875,89.94406127929688,300.38226318359375,-90.0,159787.05142864076,-1018.1248227252141,-578434.1300673628,111.53202418936417,-598435.767649694,1.5937254631624,1.0,0.0
28.59518782654777,16.636133645530567,8126.96142578125,89.94406127929688,303.1979064941406,-90.0,159787.56388862128,-1018.1276310725585,-578436.0049189747,115.27134162094444,-598435.8116929815,1.7053259015082176,1.0,0.0
30.669568516896106,17.726571654969113,8117.19287109375,89.94406127929688,306.04168701171875,-90.0,159788.1107392199,-1018.1305999128596,-578438.005930091,119.2663647965528,-598435.8576663777,1.8171237924588013,1.0,0.0
32.87494313297793,18.81889871509486,8107.42431640625,89.940673828125,308.92333984375,-90.0,159788.69203138846,-1018.1337247981206,-578440.1333191646,123.51795747876167,-598435.9020238793,1.9291191752870986,1.0,0.0
35.613742887740955,20.095695334042755,8096.02783203125,89.940673828125,312.7975769042969,-90.0,159789.52075537288,-1018.1381260311679,-578443.166812061,128.80364424583968,-598435.9544494724,2.0600332010005786,1.0,0.0
38.53150010923855,21.375066719078546,8084.63134765625,89.94406127929688,316.18115234375,-90.0,159790.29630755718,-1018.142199133195,-578446.0061576855,134.44113756355364,-598436.0046891024,2.191217146462918,1.0,0.0
41.62858407048043,22.657007588798333,8073.23486328125,89.940673828125,319.0521545410156,-90.0,159790.99857606165,-1018.145853914924,-578448.5776158568,140.43181105982512,-598436.057010969,2.322670845233688,1.0,0.0
44.42623133875895,23.757857990068796,8063.46630859375,89.93743896484375,321.8816223144531,-90.0,159791.73552062715,-1018.1496497324184,-578451.2764533538,145.8488265783526,-598436.1012844096,2.435560352660275,1.0,0.0
47.35610292351339,24.860599849319513,8053.6982421875,89.94406127929688,324.65814208984375,-90.0,159792.50720608124,-1018.1535744524077,-578454.1028819336,151.52722700382583,-598436.1429328051,2.5486490155183787,1.0,0.0
50.41844266944099,25.965235979671956,8043.9296875,89.93743896484375,327.3734130859375,-90.0,159793.31369491876,-1018.157619901605,-578457.0571215576,157.46790018421598,-598436.1833602001,2.661937373993453,1.0,0.0
53.61347870610189,27.071772040625262,8034.1611328125,89.94406127929688,330.02032470703125,-90.0,159794.15504295798,-1018.1617728850321,-578460.1393938365,163.67174338002224,-598436.2246845675,2.7754262531456106,1.0,0.0
56.94143384345807,28.18021071066515,8024.392578125,89.94406127929688,332.59405517578125,-90.0,159795.03129547942,-1018.166045249112,-578463.3499262518,170.13965224672575,-598436.2663691154,2.8891161968198276,1.0,0.0
60.40254117164295,29.290557725886938,8014.62451171875,89.940673828125,335.0892639160156,-90.0,159795.9425013838,-1018.1704262650088,-578466.6889366737,176.87253407470416,-598436.3088395233,3.003008055604255,1.0,0.0
63.99701071518939,30.40281259165876,8004.85595703125,89.940673828125,337.5018005371094,-90.0,159796.88870056235,-1018.174920097597,-578470.1566528252,183.87128075945657,-598436.3519322223,3.1171020484399037,1.0,0.0
68.3594701658003,31.702860723320722,7993.45947265625,89.93743896484375,340.20660400390625,-90.0,159798.03691299734,-1018.1803227445558,-578474.365286795,192.37372463929933,-598436.4002545073,3.2504682017910795,1.0,0.0
72.24371875368524,32.81926039515389,7983.69091796875,89.94406127929688,342.426513671875,-90.0,159799.05914999,-1018.1851024261192,-578478.1126273364,199.95162674039602,-598436.4393731619,3.365002282895091,1.0,0.0
76.26208487956319,33.937575970899864,7973.92236328125,89.940673828125,344.5508117675781,-90.0,159800.11657634683,-1018.1899982026295,-578481.9893749587,207.7982677851105,-598436.4794024888,3.479740186648087,1.0,0.0
81.11997675872408,35.24470415989809,7962.52587890625,89.940673828125,346.90240478515625,-90.0,159801.3947776458,-1018.1958708992676,-578486.6761009778,217.2935618008487,-598436.5237253648,3.6138596270936887,1.0,0.0
85.42969709460158,36.36717689990775,7952.7578125,89.94406127929688,348.8048400878906,-90.0,159802.52860463297,-1018.2010472571925,-578490.8340039107,225.72559952980373,-598436.5697804707,3.729040666392052,1.0,0.0
90.6281069999095,37.67914987164693,7941.361328125,89.93438720703125,350.8863525390625,-90.0,159803.89604526418,-1018.2072387865261,-578495.8493670712,235.90632708999328,-598436.6178660423,3.8636773661411326,1.0,0.0
95.23026835580822,38.80577379302441,7931.5927734375,89.94406127929688,352.8092346191406,-90.0,159805.31171761622,-1018.2136121919826,-578501.042187851,244.92800936475396,-598436.6508626855,3.979302486792676,1.0,0.0
99.96772852295544,39.934312019937906,7921.82421875,89.94766235351562,354.3240661621094,-90.0,159806.56359685463,-1018.2192032864765,-578505.6346891813,254.22326890775003,-598436.689911678,4.095132698774478,1.0,0.0
105.66613334044814,41.25335750155308,7910.427734375,89.94406127929688,355.92657470703125,-90.0,159808.0690348776,-1018.2258750578836,-578511.1580136183,265.41472885292023,-598436.7331344784,4.230527476996883,1.0,0.0
111.54944769910071,42.57499730826603,7899.03125,89.94406127929688,357.33978271484375,-90.0,159809.6229737413,-1018.2326881221012,-578516.8598015686,276.981208005338,-598436.7716495865,4.366201280087637,1.0,0.0
117.61797040328383,43.899214179442986,7887.634765625,89.94406127929688,358.5487365722656,-90.0,159811.225448346,-1018.2396300217584,-578522.7404105837,288.92407512443606,-598436.8137789334,4.5021526820823965,1.0,0.0
123.8720985451946,45.22582578582382,7876.23828125,89.940673828125,359.39825439453125,-90.0,159812.63772130752,-1018.2456923952774,-578527.9235173227,301.2439243121771,-598436.8516554239,4.638363557818593,1.0,0.0
129.3806948697893,46.36445762294577,7866.4697265625,89.93743896484375,0.028793079778552055,-90.0,159814.0857790542,-1018.2518510899023,-578533.2384156857,312.1030745957978,-598436.884877914,4.755284598216804,1.0,0.0
135.02609912725165,47.505149992095724,7856.70166015625,89.940673828125,0.4140224754810333,-90.0,159815.569660995,-1018.2580962857679,-578538.6853226172,323.2423751048045,-598436.9196389714,4.87242773696795,1.0,0.0
140.80851526907645,48.64812469861116,7846.93310546875,89.94406127929688,0.5748946666717529,-90.0,159817.0894161905,-1018.2644528827146,-578544.2644897308,334.6639476799173,-598436.9554620777,4.98981604648128,1.0,0.0
146.72826623125002,49.793310276669324,7837.16455078125,89.93743896484375,0.5436691641807556,-90.0,159818.64510029645,-1018.2708946248964,-578549.9761953463,346.36852682591416,-598436.9955979533,5.1074424453377105,1.0,0.0
152.78562841576058,50.94066776202635,7827.39599609375,89.93438720703125,0.35218319296836853,-90.0,159820.23674644632,-1018.2773862561659,-578555.8206971904,358.35697472293396,-598437.0343444633,5.225303339482764,1.0,0.0
158.98078624648042,52.09016093208669,7817.6279296875,89.93743896484375,0.03317902237176895,-90.0,159821.86443040665,-1018.2839302948192,-578561.7982402816,370.6301504197763,-598437.0739657077,5.343395284616861,1.0,0.0
165.314029133413,53.24171928237479,7807.859375,89.94766235351562,359.61688232421875,-90.0,159823.5282012379,-1018.2905306449608,-578567.9090762339,383.1886980551062,-598437.114777964,5.461711350008784,1.0,0.0
171.7856337238336,54.39529432471937,7798.0908203125,89.94766235351562,359.1285095214844,-90.0,159825.2281229631,-1018.2972043833212,-578574.1534289904,396.03335536294617,-598437.1498431758,5.5802470007522516,1.0,0.0
178.39578153623734,55.550885034827544,7788.322265625,89.94406127929688,358.6053771972656,-90.0,159826.96430883335,-1018.3040273121075,-578580.5315364922,409.16510601423215,-598437.1765513893,5.699002503797146,1.0,0.0
185.144772181171,56.708309790251484,7778.55419921875,89.940673828125,358.11383056640625,-90.0,159828.73683831622,-1018.3109323313907,-578587.0436057908,422.583865197259,-598437.2029377273,5.817959383996595,1.0,0.0
192.0327483031433,57.86743048544292,7768.78564453125,89.94406127929688,357.67852783203125,-90.0,159830.8507783136,-1018.3189900448994,-578594.8106153642,436.2897054743953,-598437.2289503348,5.937103778374535,1.0,0.0
200.24468507349957,59.2220570677883,7757.38916015625,89.94766235351562,357.4461975097656,-90.0,159833.01425475458,-1018.3271003893093,-578602.7605863742,452.6448745117523,-598437.2726559481,6.076360743457542,1.0,0.0
208.64649157156236,60.57929641083312,7745.99267578125,89.94406127929688,357.4323425292969,-90.0,159835.22734871137,-1018.3353168001846,-578610.8938824062,469.39526335988194,-598437.3104625695,6.215905230966882,1.0,0.0
215.99943784903735,61.7447853242016,7736.22412109375,89.94406127929688,357.5932312011719,-90.0,159837.16383557915,-1018.3423703244404,-578618.011450691,484.0688233844703,-598437.3420586754,6.335750252849039,1.0,0.0
223.49239216768183,62.91229746359384,7726.45556640625,89.94406127929688,357.9031982421875,-90.0,159839.1369530307,-1018.3494323125557,-578625.264204576,499.0355106490897,-598437.3666919463,6.455817932799334,1.0,0.0
232.41147210053168,64.27701004078025,7715.05908203125,89.94406127929688,358.4298095703125,-90.0,159841.48523698538,-1018.3577099374012,-578633.8969093958,516.8688345199917,-598437.4026558175,6.596184361762141,1.0,0.0
240.2086266176775,65.44902594112953,7705.291015625,89.94406127929688,358.9893798828125,-90.0,159843.53787662296,-1018.364847593613,-578641.443374767,532.4748897760874,-598437.42548096,6.7167476718650505,1.0,0.0
249.48326925060246,66.81901774433048,7693.89404296875,89.94406127929688,359.6883544921875,-90.0,159845.9791674093,-1018.3732316723541,-578650.419398677,551.057150454144,-598437.4479360774,6.8576960666757145,1.0,0.0
257.5857638741145,67.99538979962446,7684.1259765625,89.94766235351562,0.2429618388414383,-90.0,159848.1116914982,-1018.3804389765934,-578658.2606717637,567.3063977780985,-598437.4661545651,6.978741504034133,1.0,0.0
265.8295865736436,69.17370858327418,7674.357421875,89.94766235351562,0.7292248606681824,-90.0,159850.28118751835,-1018.3875940969662,-578666.2383626212,583.8536186115816,-598437.4859359405,7.100003360982555,1.0,0.0
275.62625977688003,70.55080675234775,7662.9609375,89.94766235351562,1.1890875101089478,-90.0,159852.8589770719,-1018.3959464064316,-578675.7184241237,603.5361308803549,-598437.518376792,7.241742392602021,1.0,0.0
285.61592477106024,71.93021990971273,7651.564453125,89.9515380859375,1.4695507287979126,-90.0,159855.4871401807,-1018.4044005206302,-578685.3848279272,623.6245908442652,-598437.54826423,7.383742707041904,1.0,0.0
295.79889846092556,73.312032787868,7640.16796875,89.94406127929688,1.516486644744873,-90.0,159857.78001642594,-1018.4117447665409,-578693.8188548603,644.1210028345231,-598437.5777830491,7.526013500515205,1.0,0.0
304.68129243142903,74.4986033356283,7630.3994140625,89.94766235351562,1.3776278495788574,-90.0,159860.11004765422,-1018.4190962246136,-578702.3902526076,662.0170606990578,-598437.5971851062,7.648201380904936,1.0,0.0
313.7062400688883,75.68730646963738,7620.630859375,89.9515380859375,1.0686148405075073,-90.0,159862.47731944613,-1018.4264240494446,-578711.0992441478,680.2177803330123,-598437.6156041466,7.770626744682772,1.0,0.0
322.8739936888451,76.87827692553182,7610.86279296875,89.95574951171875,0.6361217498779297,-90.0,159864.88188649272,-1018.4337541690544,-578719.9460862429,698.7253089105943,-598437.6301031008,7.893303882976852,1.0,0.0
332.18483322288375,78.07140127351363,7601.09423828125,89.94766235351562,0.15176281332969666,-90.0,159867.3238260075,-1018.4411668112949,-578728.9310562479,717.5398811611813,-598437.6534706183,8.016221162090176,1.0,0.0
341.63894236215856,79.26650504159485,7591.32568359375,89.95574951171875,359.66790771484375,-90.0,159869.80306140654,-1018.4487204185203,-578738.0543735976,736.6611236578319,-598437.6883192447,8.139360925015296,1.0,0.0
351.2366518616909,80.4635724025328,7581.5576171875,89.9515380859375,359.2008361816406,-90.0,159872.31969049622,-1018.4563466242031,-578747.3162931247,756.0899544478161,-598437.7140570272,8.262722458112307,1.0,0.0
360.97810978256166,81.66257513283539,7571.7890625,89.94766235351562,358.76837158203125,-90.0,159874.87384197238,-1018.4639715781883,-578756.7170358786,775.8271410014713,-598437.7301641427,8.386303248015565,1.0,0.0
370.8635993191274,82.86329018428557,7562.0205078125,89.96044921875,358.4247741699219,-90.0,159877.46555637097,-1018.4715777269081,-578766.2567836519,795.8717574832262,-598437.7421723587,8.510080573420566,1.0,0.0
380.8932810567785,84.06570644780895,7552.251953125,89.95574951171875,358.23028564453125,-90.0,159880.094950162,-1018.4791986575798,-578775.9357256399,816.2245924461167,-598437.749320808,8.634053676717542,1.0,0.0
391.06740745762363,85.27003831078571,7542.48388671875,89.9515380859375,358.2130432128906,-90.0,159882.7620452179,-1018.4869010678009,-578785.754109273,836.8884274089942,-598437.7655272012,8.758244577815788,1.0,0.0
401.38622253667563,86.47637974146008,7532.71533203125,89.96572875976562,358.3732604980469,-90.0,159885.46690459698,-1018.4946336975769,-578795.7121369365,857.8650926208356,-598437.7736103396,8.882663812820965,1.0,0.0
411.8499329229817,87.68481433182897,7522.94677734375,89.96044921875,358.695556640625,-90.0,159888.20963640208,-1018.502357744284,-578805.8100522023,879.156400446198,-598437.7661168452,9.007320595415592,1.0,0.0
424.24107219069265,89.09744414478487,7511.55029296875,89.96044921875,359.23193359375,-90.0,159891.4574455712,-1018.511375509806,-578817.7680687171,904.3966708860826,-598437.7763226483,9.153067914161909,1.0,0.0
435.019654381671,90.31063683011917,7501.78173828125,89.95574951171875,359.74041748046875,-90.0,159894.75685951635,-1018.5204103520588,-578829.9172542148,926.3754682550207,-598437.7971822856,9.278261775702333,1.0,0.0
445.94393576541916,91.52581344711109,7492.013671875,89.96044921875,0.2427416741847992,-90.0,159897.14518646235,-1018.5269129803852,-578838.7125275314,948.6713521167403,-598437.8254817396,9.403682455277021,1.0,0.0
458.8734613802517,92.94601385897656,7480.61669921875,89.95574951171875,0.8655654788017273,-90.0,159901.0212987328,-1018.5375164082722,-578852.988597542,975.0852757949615,-598437.8542966652,9.55029284157132,1.0,0.0
472.0020299155731,94.36880859973516,7469.22021484375,89.9515380859375,1.3226770162582397,-90.0,159904.46846969632,-1018.5470568171219,-578865.686084466,1001.9328824407421,-598437.8642489873,9.697203101880632,1.0,0.0
485.3299645294901,95.79395562804218,7457.82373046875,89.9515380859375,1.598743200302124,-90.0,159907.96769521115,-1018.5566723874286,-578878.5761026964,1029.213320357725,-598437.8649044483,9.844388641021453,1.0,0.0
498.85761478648055,97.2216135560684,7446.42724609375,89.94406127929688,1.642344355583191,-90.0,159911.0084402329,-1018.5650196901039,-578889.7781988597,1056.9295949763618,-598437.8842333397,9.991865488559256,1.0,0.0
510.61196158919483,98.44748526187136,7436.6591796875,89.94766235351562,1.4996953010559082,-90.0,159914.08743986877,-1018.5733733108715,-578901.1222067968,1081.036204547272,-598437.8967054982,10.11852430687901,1.0,0.0
522.513613404124,99.6754757800459,7426.890625,89.94406127929688,1.1845439672470093,-90.0,159917.20477326144,-1018.5815103879646,-578912.608446978,1105.4680603718152,-598437.912917697,10.24542655901513,1.0,0.0
534.5628157948377,100.90571707628412,7417.1220703125,89.94406127929688,0.7383967638015747,-90.0,159920.36042753523,-1018.5894975295738,-578924.2371143864,1130.2276542227482,-598437.9323516943,10.372586263219603,1.0,0.0
546.7597338173073,102.13815493742393,7407.353515625,89.9515380859375,0.2305719554424286,-90.0,159923.554545541,-1018.5974742403702,-578936.0085050408,1155.3156205445994,-598437.9497585607,10.49999842813196,1.0,0.0
559.1047165114433,103.3726452560479,7397.58544921875,89.94766235351562,359.7200012207031,-90.0,159926.78718004064,-1018.6054691305832,-578947.9228325879,1180.7316104014171,-598437.9405280856,10.627649494520597,1.0,0.0
571.5980330514722,104.60915696195175,7387.81689453125,89.94766235351562,359.2306823730469,-90.0,159930.05857684978,-1018.6134106150345,-578959.980280435,1206.4763619072037,-598437.9167109815,10.75553627496123,1.0,0.0
584.2397483886452,105.84766824305575,7378.04833984375,89.94766235351562,358.782958984375,-90.0,159933.3687906596,-1018.6212644806579,-578972.1811053441,1232.5506463723723,-598437.9184270094,10.883655498774374,1.0,0.0
597.0302545255981,107.08796053109823,7368.27978515625,89.94766235351562,358.43499755859375,-90.0,159936.717701771,-1018.6290316811279,-578984.5255286793,1258.9531495947158,-598437.9246317602,11.01198578753963,1.0,0.0
609.9699090063805,108.33005633367611,7358.51171875,89.9515380859375,358.249755859375,-90.0,159940.1053442821,-1018.6368146768287,-578997.0138297249,1285.685084785102,-598437.9380342431,11.140529765208328,1.0,0.0
623.0585919044679,109.5741530816234,7348.7431640625,89.9515380859375,358.25982666015625,-90.0,159943.53176902555,-1018.6446409455017,-579009.6461790127,1312.7497087323572,-598437.9292519209,11.269309299031875,1.0,0.0
636.2967862954829,110.82035778671307,7338.974609375,89.9515380859375,358.46221923828125,-90.0,159946.99728938367,-1018.6523771515564,-579022.4228217286,1340.1493395398138,-598437.9064196285,11.398335568859466,1.0,0.0
651.9304623603821,112.2770508691167,7327.578125,89.94406127929688,358.91082763671875,-90.0,159951.08974233564,-1018.6611212125496,-579037.5115094485,1372.5418689018115,-598437.8928152715,11.54919020927207,1.0,0.0
665.4933199965162,113.52824494098336,7317.8095703125,89.9515380859375,359.4234924316406,-90.0,159954.6399887122,-1018.6685583224968,-579050.6016115117,1400.6761716040783,-598437.8693784013,11.6787950055691,1.0,0.0
679.2064808660652,114.7816889760776,7308.04150390625,89.9515380859375,359.9697570800781,-90.0,159958.22945166178,-1018.6759317746834,-579063.8367792185,1429.1508885638323,-598437.8433769247,11.808662164057353,1.0,0.0
693.0702914125286,116.03726932389849,7298.27294921875,89.95574951171875,0.5880009531974792,-90.0,159962.46676939898,-1018.6843893757538,-579079.4615097386,1457.965833176626,-598437.841240329,11.938779354131952,1.0,0.0
709.4351905487711,117.50478243105134,7286.87646484375,89.95574951171875,1.1615954637527466,-90.0,159966.7573526098,-1018.6928290954307,-579095.284592791,1492.0144256734056,-598437.8689485017,12.090896138822245,1.0,0.0
726.005894395872,118.97495877560966,7275.47998046875,89.9720458984375,1.6004798412322998,-90.0,159971.1014303755,-1018.7011621823982,-579111.3063205356,1526.5266726299888,-598437.8563423022,12.24333219434726,1.0,0.0
742.7826030041324,120.4476949215765,7264.08349609375,89.96044921875,1.8005154132843018,-90.0,159975.499297415,-1018.709345542498,-579127.5270037961,1561.5029617628315,-598437.8173060879,12.396077030686968,1.0,0.0
757.326864559669,121.71231322042877,7254.31494140625,89.96572875976562,1.7510592937469482,-90.0,159979.31176869452,-1018.7163197627739,-579141.5891145769,1591.8561139175436,-598437.7990583108,12.52727032474877,1.0,0.0
772.0231327844085,122.9791313257992,7244.54638671875,89.9720458984375,1.5002821683883667,-90.0,159983.16366113606,-1018.7235311499313,-579155.7979667074,1622.5564462273614,-598437.8170279565,12.65872208567697,1.0,0.0
786.8715380787617,124.24825506517318,7234.7783203125,89.96572875976562,1.0731242895126343,-90.0,159987.05477266875,-1018.7309684982971,-579170.1538716406,1653.6065413230099,-598437.8701156729,12.790443711378714,1.0,0.0
804.3872216651216,125.73195720885363,7223.3818359375,89.9720458984375,0.4319271147251129,-90.0,159991.64403298512,-1018.739764117308,-579187.0887309583,1690.2774197247345,-598437.924164121,12.94447769134689,1.0,0.0
822.1110147011932,127.2188456197469,7211.9853515625,89.9720458984375,359.8525390625,-90.0,159995.62047268698,-1018.7475735774711,-579201.7643109193,1727.4289812202333,-598437.9634868022,13.098888001873945,1.0,0.0
837.4688173751347,128.49569497672422,7202.216796875,89.9720458984375,359.29351806640625,-90.0,159999.63651498806,-1018.7555312743858,-579216.5877905531,1759.6551848839736,-598437.9563642102,13.231524312587737,1.0,0.0
852.9617470167577,129.4775589764641,7193.681640625,89.980224609375,358.7737121582031,-90.0,160003.68769312726,-1018.763667427607,-579231.5418947067,1788.2463248121785,-598437.9334744754,13.33370138600253,1.0,1.0
1014.9549984084442,139.97532905944226,7110.7958984375,89.94766235351562,1.5031002759933472,-90.0,160046.0304034832,-1018.8441853752807,-579387.9048313734,2096.6053726101527,-598437.6761609346,14.42719187063068,1.0,0.0
1031.8282857771264,141.03688878039276,7102.50732421875,89.94766235351562,1.9496077299118042,-90.0,160050.43893031793,-1018.8517331710533,-579404.1923672627,2128.927215685253,-598437.6457871958,14.537916998305548,1.0,0.0
1048.8292397167534,142.10026954308537,7094.21875,89.93743896484375,2.2007830142974854,-90.0,160054.88052882176,-1018.8592987886146,-579420.6030165644,2161.522601658595,-598437.5997721257,14.648861317760748,1.0,0.0
1065.9578664809233,143.16560347884752,7085.93017578125,89.93438720703125,2.2268688678741455,-90.0,160059.35525561505,-1018.8668726912216,-579437.1370791557,2194.3943002736196,-598437.5543347622,14.760038067420794,1.0,0.0
1083.2147573146503,144.2329670146566,7077.6416015625,89.92868041992188,2.0272111892700195,-90.0,160063.86324969004,-1018.8743373385147,-579453.7947648249,2227.5444411258213,-598437.5095916619,14.871455498444675,1.0,0.0
1100.599673390505,145.30243463647002,7069.35302734375,89.93145751953125,1.6156086921691895,-90.0,160068.4045187641,-1018.8816332450584,-579470.576246033,2260.9751996570267,-598437.4405948671,14.9831229217275,1.0,0.0
1118.1129478719085,146.3741495423559,7061.064453125,89.92868041992188,1.0186560153961182,-90.0,160072.97933310436,-1018.8886332741455,-579487.4817698951,2294.6896337042563,-598437.3837282076,15.095053725588343,1.0,0.0
1135.7551475453656,147.44830963565676,7052.77587890625,89.92868041992188,0.31181177496910095,-90.0,160077.58740826818,-1018.8953042259888,-579504.5117379539,2328.691755601205,-598437.3735654872,15.207267027368175,1.0,0.0
1153.526421652059,148.52466884368823,7044.4873046875,89.92599487304688,359.5903625488281,-90.0,160082.22862841518,-1018.9016113510803,-579521.6664578037,2362.9790618486004,-598437.3781101895,15.319739273476443,1.0,0.0
1171.4269939473597,149.6030898267116,7036.19873046875,89.93743896484375,358.8913269042969,-90.0,160086.9031325375,-1018.9075861802772,-579538.9461392327,2397.5506471878616,-598437.3605272099,15.432458466743867,1.0,0.0
1189.4573326162063,150.68337609220674,7027.91015625,89.93145751953125,358.2789611816406,-90.0,160091.61122822968,-1018.913429998465,-579556.3508980814,2432.404566029203,-598437.2800204515,15.54540672597716,1.0,0.0
1207.6171678092796,151.7654706088996,7019.62158203125,89.94406127929688,357.83563232421875,-90.0,160096.35322694504,-1018.9191537132934,-579573.8809364209,2467.5405685801525,-598437.2151903432,15.658574460181,1.0,0.0
1225.9069893299602,152.8494788768641,7011.3330078125,89.940673828125,357.6160888671875,-90.0,160101.12884038212,-1018.9247641792969,-579591.5365695626,2502.9611377652036,-598437.1878824476,15.77197179863822,1.0,0.0
1244.3270524495747,153.9355252379402,7003.04443359375,89.94406127929688,357.6391906738281,-90.0,160105.93824871915,-1018.9306383362488,-579609.3179622506,2538.6696061583934,-598437.0998623787,15.885617154320926,1.0,0.0
1262.8774869388435,155.02380169375448,6994.755859375,89.9515380859375,357.8961181640625,-90.0,160110.78167717878,-1018.9365350237564,-579627.2253204142,2574.669735829928,-598437.039892876,15.99952616232622,1.0,0.0
1281.5590034897905,156.11434106728532,6986.46728515625,89.95574951171875,358.37420654296875,-90.0,160115.6591000097,-1018.9421610465721,-579645.2590340197,2610.9632157390006,-598436.9841953152,16.113703849891237,1.0,0.0
1300.3714832003461,157.20728981221004,6978.1787109375,89.94766235351562,359.0443115234375,-90.0,160120.57026237925,-1018.9477360478119,-579663.4192008735,2647.5534947902197,-598436.9376888417,16.228165542868283,1.0,0.0
1319.3150339591084,158.3028039537719,6969.89013671875,89.95574951171875,359.8211669921875,-90.0,160125.51535990002,-1018.9533194533066,-579681.7063306413,2684.44415837212,-598436.9551619503,16.342924842954744,1.0,0.0
1338.3902291811537,159.40065820267085,6961.6015625,89.9515380859375,0.6093031764030457,-90.0,160130.49393180982,-1018.9588306179718,-579700.1207463519,2721.632850511931,-598436.9991442333,16.45796074510656,1.0,0.0
1357.5976711944677,160.50070143176941,6953.31298828125,89.95574951171875,1.3743356466293335,-90.0,160135.5064208368,-1018.9641801348404,-579718.6626874036,2759.1188453203067,-598436.9437828074,16.573264870677292,1.0,0.0
1376.9370511766756,161.6027188870981,6945.0244140625,89.9515380859375,2.025541067123413,-90.0,160140.55308953102,-1018.9695126643852,-579737.332228451,2796.899000417441,-598436.9187820624,16.68880820521548,1.0,0.0
1396.409031978459,162.70667330645324,6936.73583984375,89.940673828125,2.4603185653686523,-90.0,160145.63369849423,-1018.9747377267555,-579756.1298122223,2834.973530625575,-598436.9706435807,16.804584619191417,1.0,0.0
1416.0134329549037,163.81269216988653,6928.447265625,89.94406127929688,2.6500802040100098,-90.0,160150.74795170777,-1018.9799729815201,-579775.0555815684,2873.346149669378,-598436.9579030923,16.92061562638935,1.0,0.0
1435.7506480404409,164.92089693679864,6920.15869140625,89.940673828125,2.5772292613983154,-90.0,160155.896381989,-1018.9853854408935,-579794.1098582592,2912.019538710825,-598436.9775936499,17.036908808201076,1.0,0.0
1455.6208966625854,166.03129931030873,6911.8701171875,89.940673828125,2.2496330738067627,-90.0,160161.07843848655,-1018.9908976784424,-579813.292882952,2950.9948667875724,-598437.0718937468,17.15346334361044,1.0,0.0
1475.6251413262216,167.1439959838418,6903.58154296875,89.93743896484375,1.687037706375122,-90.0,160166.29435799897,-1018.9963032832817,-579832.6051202677,2990.275572311366,-598437.0972333429,17.270297854768614,1.0,0.0
1495.762375769089,168.25908081655956,6895.29296875,89.940673828125,0.925574541091919,-90.0,160171.54426408405,-1019.0015453925804,-579852.0464350728,3029.864081715583,-598437.1202266426,17.387418745637376,1.0,0.0
1516.034114005044,169.37672785120068,6887.00439453125,89.93743896484375,0.05099377781152725,-90.0,160176.8286149045,-1019.0069115987495,-579871.6174116873,3069.765000328305,-598437.0975080346,17.504847075619637,1.0,0.0
1536.4397300874116,170.4967260981199,6878.7158203125,89.93743896484375,359.1601257324219,-90.0,160182.1475005494,-1019.0122595062927,-579891.3181324828,3109.9755209278082,-598437.081066413,17.622558328664297,1.0,0.0
1556.980087580625,171.6189020720822,6870.42724609375,89.93438720703125,358.32452392578125,-90.0,160187.50072280655,-1019.017656885691,-579911.1489951431,3150.4935553328833,-598437.1303202647,17.740531365223603,1.0,0.0
1577.6551673500799,172.74293665512533,6862.138671875,89.940673828125,357.6478271484375,-90.0,160192.88807574636,-1019.023159705706,-579931.110224891,3191.3149215668673,-598437.1422639729,17.858739429768207,1.0,0.0
1598.465506969951,173.86893709111962,6853.85009765625,89.93438720703125,357.19744873046875,-90.0,160198.3100432829,-1019.0285951724724,-579951.20201608,3232.442320317845,-598437.1607347273,17.97719150232922,1.0,0.0
1615.9106805183692,174.80886453841038,6846.943359375,89.93145751953125,357.0334777832031,-90.0,160202.85480231146,-1019.0331325760559,-579968.0450761503,3266.9515767417615,-598437.1363954016,18.076100523569494,1.0,0.0
1636.9692162772408,175.93881883849684,6838.65478515625,89.92599487304688,357.0892333984375,-90.0,160208.34042684094,-1019.0387616387085,-579988.3767683904,3308.6493946033297,-598437.1184325955,18.195040373792438,1.0,0.0
1658.1634152538609,177.07106285378214,6830.3662109375,89.92086791992188,357.4184875488281,-90.0,160213.86091048308,-1019.0441221824364,-580008.8396591535,3350.6623829788296,-598437.0860644311,18.314260441581666,1.0,0.0
1679.493697323138,178.20570300599024,6822.07763671875,89.91375732421875,357.99951171875,-90.0,160219.41648231933,-1019.0492977729515,-580029.4340405995,3392.9935571403475,-598437.0473162102,18.433771773113676,1.0,0.0
1700.9603180224076,179.34284730695106,6813.7890625,89.90512084960938,358.8011169433594,-90.0,160225.0070187918,-1019.054151975222,-580050.1600478622,3435.6461586001096,-598437.0209412058,18.553584929512795,1.0,0.0
1722.5634306605207,180.48262500118008,6805.50048828125,89.89532470703125,359.73529052734375,-90.0,160230.6326331415,-1019.05847217948,-580071.0182806961,3478.6238644776167,-598437.0112664772,18.673713556045755,1.0,0.0
1744.3033780317055,181.6248969457884,6797.2119140625,89.903076171875,0.7018513083457947,-90.0,160236.29316062477,-1019.0621856680588,-580092.0089192793,3521.92529965227,-598437.0393135642,18.794142283729173,1.0,0.0
1766.1808871497633,182.76940681667534,6788.92333984375,89.90109252929688,1.6154600381851196,-90.0,160241.98848540118,-1019.065662824221,-580113.1322712065,3565.5469758957624,-598437.0793976174,18.914846414106364,1.0,0.0
1788.195596011239,183.91590673369524,6780.634765625,89.903076171875,2.375271797180176,-90.0,160247.71879536612,-1019.0684503546432,-580134.3886736822,3609.485598229454,-598437.093924483,19.035802912434917,1.0,0.0
1810.3482235856354,185.06438767281963,6772.34619140625,89.903076171875,2.894469738006592,-90.0,160253.4842217946,-1019.0709462991432,-580155.7781640335,3653.7418435991276,-598437.1124012374,19.15700941605428,1.0,0.0
1832.6388995231828,186.21493301527534,6764.0576171875,89.91152954101562,3.132507562637329,-90.0,160259.28461537763,-1019.0735527506546,-580177.3012673607,3698.317984720459,-598437.2027047,19.278470698385263,1.0,0.0
1855.0673895019572,187.36757779521508,6755.76904296875,89.903076171875,3.0835354328155518,-90.0,160265.11968009648,-1019.0761539569572,-580198.9581265145,3743.2164795617573,-598437.2492108658,19.40019824120867,1.0,0.0
1877.6349675932433,188.52241632330774,6747.48046875,89.897216796875,2.74930739402771,-90.0,160270.99027825575,-1019.0782243838981,-580220.7487029085,3788.440829153289,-598437.1547626853,19.522208699736154,1.0,0.0
1900.340894720517,189.6796026657477,6739.19189453125,89.897216796875,2.148958921432495,-90.0,160276.89711513356,-1019.079801165171,-580242.6733105957,3833.994712231215,-598437.0304214436,19.644511540022677,1.0,0.0
1923.1857778973645,190.8393048955348,6730.9033203125,89.89532470703125,1.3060503005981445,-90.0,160282.8401984472,-1019.080761455603,-580264.7321220366,3879.8824485864025,-598436.9208926834,19.767121881499918,1.0,0.0
1946.1700208578259,192.00172427062563,6722.61474609375,89.903076171875,0.30900251865386963,-90.0,160288.81937117036,-1019.0815303555206,-580286.9254898708,3926.1090395434294,-598436.8590560134,19.890059039098162,1.0,0.0
1969.2941250520526,193.1667355141081,6714.326171875,89.89532470703125,359.2861633300781,-90.0,160294.8345663658,-1019.0818706980423,-580309.2538491088,3972.6739937504753,-598436.7652351673,20.01331568190915,1.0,0.0
1992.5580168950837,194.33409506833294,6706.03759765625,89.90512084960938,358.3131103515625,-90.0,160300.8863091334,-1019.0821732512192,-580331.71734906,4019.5738526018104,-598436.62903774,20.136867601533424,1.0,0.0
2015.9623997911112,195.50354937275006,6697.7490234375,89.903076171875,357.5073547363281,-90.0,160306.97469727963,-1019.0826014509872,-580354.3162445569,4066.8042670235736,-598436.5183312476,20.260684241646345,1.0,0.0
2039.5070924650645,196.67514734214654,6689.46044921875,89.89532470703125,356.9612731933594,-90.0,160313.09957377805,-1019.0831272831634,-580377.0508882386,4114.367627275875,-598436.3905367283,20.384774050499118,1.0,0.0
2063.192716457648,197.84917696781758,6681.171875,89.89166259765625,356.7012939453125,-90.0,160319.26111108967,-1019.0832618704513,-580399.921272388,4162.270423232811,-598436.3352392598,20.50916152129122,1.0,0.0
2087.0192745093955,199.02564344011117,6672.88330078125,89.87966918945312,1.1951264142990112,-85.54705810546875,160325.45847777886,-1019.0832760563568,-580422.9281254349,4210.514123381348,-598436.3505663224,20.633847749604058,1.0,0.0
2110.987155179493,200.20449614777036,6664.5947265625,89.8673095703125,358.3624572753906,-88.73907470703125,160331.69168928033,-1019.0829823246673,-580446.0717923014,4259.099414695753,-598436.3667021923,20.758832676834572,1.0,0.0
2135.0970863900147,201.38581760112635,6656.30615234375,89.860107421875,355.88519287109375,-91.85232543945312,160337.96101586128,-1019.0819311371521,-580469.3525201026,4308.029460780672,-598436.364358883,20.884126779262147,1.0,0.0
2159.348400527844,202.56972530157046,6648.017578125,89.84933471679688,354.4167175292969,-94.19474029541016,160344.26662998262,-1019.0800265899376,-580492.7703011215,4357.308100128779,-598436.3417543846,21.00974302383497,1.0,0.0
2183.7422272000695,203.75644257469114,6639.72900390625,89.84298706054688,353.0918884277344,-96.55767822265625,160350.6086448853,-1019.0774208536819,-580516.3257351128,4406.941486019292,-598436.3031663576,21.135705054377638,1.0,0.0
2208.278669419582,204.94585383004815,6631.4404296875,89.84548950195312,351.1493835449219,-99.5859375,160356.98715837562,-1019.0739997854904,-580540.0190769087,4456.928094474482,-598436.318438067,21.261996383824055,1.0,0.0
2232.9575630389154,206.13764911435027,6623.15185546875,89.84173583984375,348.9122314453125,-102.84761047363281,160363.4015784164,-1019.0698463550285,-580563.8506122115,4507.262794459239,-598436.3819636366,21.38858541922758,1.0,0.0
2253.6329853163334,207.13239874765873,6616.24462890625,89.84933471679688,351.1845397949219,-101.30654907226562,160368.77464788823,-1019.0657179585174,-580583.8160668449,4549.470767370076,-598436.3861775519,21.494285599985915,1.0,0.0
2278.5749717209255,208.32800215279886,6607.9560546875,89.85195922851562,352.19097900390625,-100.93579864501953,160375.25599355515,-1019.0599045983032,-580607.9016566507,4600.436104648514,-598436.3508083082,21.621376160251316,1.0,0.0
2303.660664378898,209.52590246243193,6599.66748046875,89.8687744140625,350.71209716796875,-102.74916076660156,160381.77413894612,-1019.0533395639137,-580632.1260912206,4651.7513819455635,-598436.3254158729,21.74875949057224,1.0,0.0
2328.88979742385,210.72623208350188,6591.37890625,89.87646484375,351.4144287109375,-102.06552124023438,160388.32892703477,-1019.0461485615448,-580656.4897231936,4703.420850815484,-598436.3129725509,21.87644978414437,1.0,0.0
2354.264105399023,211.9290478967132,6583.09033203125,89.8863525390625,3.169692277908325,-90.0,160394.92020079473,-1019.0386950603203,-580680.9929052088,4755.446387227974,-598436.4013167121,22.004447086033622,1.0,0.0
2379.7821015433874,213.13431898663111,6574.8017578125,89.88809204101562,2.5938241481781006,-90.0,160401.5475483669,-1019.0310187569336,-580705.6360877117,4807.829241535626,-598436.513466093,22.132754236656638,1.0,0.0
2405.444812617032,214.34208821311054,6566.51318359375,89.90109252929688,1.7814308404922485,-90.0,160408.2112323013,-1019.0232522717193,-580730.4193453568,4860.572734812158,-598436.5250377364,22.26138547397983,1.0,0.0
2431.2532761520706,215.5524560362104,6558.224609375,89.88296508789062,31.475984573364258,-59.23736572265625,160414.912040248,-1019.0152642360405,-580755.3429021076,4913.680255761603,-598436.4758788584,22.390349059476023,1.0,0.0
2452.871242659283,216.5630199962931,6551.31787109375,89.87966918945312,33.64090347290039,-56.120147705078125,160420.52446210882,-1019.0084004035667,-580776.2200859418,4958.213671637932,-598436.463435804,22.498061047103818,1.0,0.0
2478.9463546060724,217.7777530679867,6543.029296875,89.84173583984375,50.04239273071289,-38.60137939453125,160427.29358812256,-1019.0003741017059,-580801.4017822369,5011.9821280656615,-598436.4439273133,22.627583062023973,1.0,0.0
2505.1553600050975,218.9943984686808,6534.74072265625,89.80718994140625,53.86603546142578,-33.777587890625,160434.09992157278,-1018.9924760260574,-580826.7245664276,5066.102603320964,-598436.3972346683,22.757364474050576,1.0,0.0
2531.5024803435663,220.2126082671396,6526.4521484375,89.75531005859375,57.394832611083984,-29.4906005859375,160440.94368216523,-1018.9849781819581,-580852.1885032812,5120.568175376509,-598436.3165893297,22.8873697697976,1.0,0.0
2558.03219930036,221.43261213897745,6518.16357421875,89.69482421875,59.275360107421875,-27.15057373046875,160447.82578655283,-1018.9771339545405,-580877.7936432515,5175.386273819604,-598436.0712726593,23.017633638905522,1.0,0.0
2584.673986540176,222.6543653681205,6509.875,89.6417236328125,60.6063117980957,-25.6864013671875,160454.74708022425,-1018.9684168381505,-580903.5399747664,5230.556352178799,-598435.7317174694,23.148146673768224,1.0,0.0
2611.498397010844,223.87795322022407,6501.58642578125,89.59603881835938,61.66801834106445,-24.816864013671875,160461.7079844596,-1018.9586712573736,-580929.427603522,5286.081001847517,-598435.3511292565,23.27891434818048,1.0,0.0
2638.434622689616,225.10354906720568,6493.2978515625,89.55587768554688,62.6004524230957,-24.38580322265625,160468.70876130776,-1018.9478181357001,-580955.4566964719,5341.965282730176,-598434.9422923664,23.40995447625278,1.0,0.0
2665.5534659499535,226.33131887754925,6485.00927734375,89.52032470703125,63.521728515625,-24.244354248046875,160475.7496145942,-1018.935805254296,-580981.6274609996,5398.214226918411,-598434.5139487115,23.54128441247923,1.0,0.0
2692.801951817237,227.56141538094818,6476.720703125,89.48834228515625,64.49883270263672,-24.27764892578125,160482.83071173404,-1018.9225996624212,-581007.9401339189,5454.832687814836,-598434.0716758738,23.672920376287095,1.0,0.0
2720.198632755899,228.79394858419832,6468.43212890625,89.45895385742188,65.58451080322266,-24.357421875,160489.95219030476,-1018.9081866813117,-581034.3949732628,5511.824631499825,-598433.6171796997,23.804874408515047,1.0,0.0
2743.14691869088,229.8229125612498,6461.52490234375,89.4342041015625,66.61397552490234,-24.304718017578125,160495.91771583157,-1018.895230716888,-581056.5494644735,5559.6040323768975,-598433.2292736227,23.915078609121224,1.0,0.0
2770.8126611675834,231.05958077628856,6453.236328125,89.40521240234375,67.99169158935547,-24.042449951171875,160503.11358763513,-1018.8785912262288,-581083.2656162832,5617.276279562502,-598432.7566041655,24.047581994484744,1.0,0.0
2798.6336817817064,232.29779695159442,6444.94775390625,89.3731689453125,69.50528717041016,-23.433563232421875,160510.35026095118,-1018.8607967983324,-581110.1245757559,5675.304381695809,-598432.2586840998,24.18031253177645,1.0,0.0
2826.5943660616176,233.53782057954342,6436.6591796875,89.33883666992188,71.08922576904297,-22.46588134765625,160517.62791899758,-1018.8418976236592,-581137.1265009439,5733.695610238588,-598431.7385747245,24.313297868985217,1.0,0.0
2854.710095902672,234.77974609236406,6428.37060546875,89.30227661132812,72.71733856201172,-21.12225341796875,160524.946790483,-1018.8219460314752,-581164.2715619351,5792.453475140152,-598431.1865434941,24.446549321946975,1.0,0.0
2882.965243669576,236.0236866336458,6420.08203125,89.2606201171875,74.32654571533203,-19.462371826171875,160532.30717248752,-1018.8010095742478,-581191.5599203702,5851.58202127181,-598430.5923748949,24.58008025235756,1.0,0.0
2911.375926725217,237.26975482728025,6411.79345703125,89.21615600585938,75.85505676269531,-17.55859375,160539.70941601347,-1018.7791695399359,-581218.9917378598,5911.085333941737,-598429.9488784926,24.713903755046715,1.0,0.0
2935.1751251413953,238.30983954351808,6404.88623046875,89.17623901367188,77.02617645263672,-15.8438720703125,160545.91021883566,-1018.7603429851948,-581241.9612888644,5960.960410674801,-598429.369987993,24.825655018758027,1.0,0.0
2963.854637051467,239.5601046107459,6396.59765625,89.12710571289062,78.26911163330078,-13.7073974609375,160553.39027893296,-1018.7370773943522,-581269.656539657,6021.161732296692,-598428.6208949673,24.96004911426087,1.0,0.0
2992.6830869928235,240.81277212972392,6388.30908203125,89.07696533203125,79.3077392578125,-11.564208984375,160560.91344397317,-1018.7131544837637,-581297.4957137137,6081.748714482645,-598427.8027433984,25.09476832205712,1.0,0.0
3021.66633894993,242.0680833029081,6380.0205078125,89.02682495117188,80.14422607421875,-9.536895751953125,160568.48018955468,-1018.6886190407955,-581325.4789957729,6142.72881225578,-598426.9262025611,25.229837937131208,1.0,0.0
3045.959476685035,243.11590040722194,6373.11376953125,88.98587036132812,80.69347381591797,-8.01068115234375,160574.81940488206,-1018.6677426355315,-581348.9086159235,6193.839425510727,-598426.1558489052,25.342632581070973,1.0,0.0
3075.2218042275636,244.3748358156763,6364.8251953125,88.9361572265625,81.16473388671875,-6.487579345703125,160582.46701276206,-1018.6422285131947,-581377.1565692503,6255.51241951948,-598425.2204921675,25.4782131931384,1.0,0.0
3104.656272738008,245.63523799532533,6356.53662109375,88.88336181640625,81.48338317871094,-5.370208740234375,160590.1589698434,-1018.6162076885716,-581405.5491129534,6317.551958080498,-598424.2469715618,25.614019996826414,1.0,0.0
3134.213072040933,246.89719217743274,6348.248046875,88.8289794921875,81.67511749267578,-4.68914794921875,160597.89569837129,-1018.5896493151316,-581434.0863197828,6379.961465288419,-598423.2100556106,25.750064750044316,1.0,0.0
3163.9254070305033,248.1608810202552,6339.95947265625,88.77236938476562,81.76192474365234,-4.445220947265625,160605.67765195566,-1018.5624914727558,-581462.7682694321,6442.746730689076,-598422.1070782644,25.886367634677697,1.0,0.0
3193.794735548552,249.42651162674107,6331.6708984375,88.71609497070312,81.78218841552734,-4.59515380859375,160613.50529563182,-1018.5346464711208,-581491.5950639977,6505.9142630746355,-598420.9400240552,26.022951051296218,1.0,0.0
3223.812268298934,250.69429389510364,6323.38232421875,88.66046142578125,81.76961517333984,-5.090606689453125,160621.37908096844,-1018.5060127206418,-581520.5668377199,6569.470782273333,-598419.7113336036,26.15983768669446,1.0,0.0
3248.9460689564003,251.75253583953977,6316.47509765625,88.61492919921875,81.76146697998047,-5.7161865234375,160627.97613190598,-1018.4814727393036,-581544.8208433118,6622.735608246527,-598418.6435662942,26.2741537085044,1.0,0.0
3279.258783227415,253.0246356946371,6308.1865234375,88.5611572265625,81.77739715576172,-6.6602783203125,160635.93564268723,-1018.4511266154153,-581574.0588345034,6687.018634051667,-598417.3060673625,26.411637205189322,1.0,0.0
3309.7001658472,254.29905958660316,6299.89794921875,88.50918579101562,81.84050750732422,-7.726959228515625,160643.94255123872,-1018.4197206173636,-581603.442278748,6751.699177418137,-598415.9086849488,26.54944405839285,1.0,0.0
3340.3070823635207,255.57567575838993,6291.609375,88.45883178710938,81.97062683105469,-8.78253173828125,160651.9972476586,-1018.387188829485,-581632.9713485924,6816.774961765856,-598414.4671780844,26.687559635110745,1.0,0.0
3371.0797797848936,256.8541306042713,6283.32080078125,88.40887451171875,82.17977142333984,-9.68267822265625,160660.10002026262,-1018.3534982535448,-581662.6462161534,6882.2377507583005,-598412.9868975863,26.825946664146215,1.0,0.0
3401.981153766508,258.134097418491,6275.0322265625,88.35894775390625,82.47467803955078,-10.300750732421875,160668.2511731302,-1018.3186283318727,-581692.4670013187,6948.079913791153,-598411.4626660878,26.964571611379085,1.0,0.0
3433.0649149366654,259.4156416317155,6266.74365234375,88.3084716796875,82.84077453613281,-10.560211181640625,160676.45103813583,-1018.2826271171651,-581722.4337943175,7014.304286012659,-598409.8897311434,27.10344247243131,1.0,0.0
3464.272227937239,260.69900447982246,6258.455078125,88.2567138671875,83.25760650634766,-10.448638916015625,160684.69997667475,-1018.2455557647991,-581752.5467141554,7080.918567096465,-598408.2650449997,27.242585770810706,1.0,0.0
3495.6506991476053,261.9843679383473,6250.16650390625,88.20440673828125,83.70752716064453,-9.97625732421875,160692.99837588138,-1018.2074904247125,-581782.8058925594,7147.928991000517,-598406.5853583597,27.382021802256702,1.0,0.0
3527.1786033994285,263.27191832861433,6241.8779296875,88.15072631835938,84.16324615478516,-9.18267822265625,160701.34664824235,-1018.1685254787479,-581813.2114778538,7215.3420465127565,-598404.8470803588,27.52177139329399,1.0,0.0
3558.8620413991157,264.5618400575814,6233.58935546875,88.09658813476562,84.60162353515625,-8.1160888671875,160709.74523402622,-1018.1287660813233,-581843.7636333859,7283.16429211176,-598403.0474783648,27.661855127830222,1.0,0.0
3590.711023336393,265.8543073458385,6225.30078125,88.04144287109375,84.99710845947266,-6.842681884765625,160718.1945901026,-1018.0883191199391,-581874.4625416485,7351.402117304737,-598401.185231037,27.80229241511779,1.0,0.0
3622.7157820736757,267.1494128027738,6217.01220703125,87.98626708984375,85.3301010131836,-5.4393310546875,160726.69519243768,-1018.0472739683948,-581905.3083964762,7420.0597786747385,-598399.2561452753,27.94309428930194,1.0,0.0
3654.859226264176,268.4471826086908,6208.7236328125,87.93142700195312,85.58538055419922,-4.0220947265625,160735.24752063167,-1018.0056929785771,-581936.3013929902,7489.1395897357725,-598397.2666809157,28.084263751278854,1.0,0.0
3687.1682153035654,269.7469984523777,6200.43505859375,87.87615966796875,85.75391387939453,-2.73785400390625,160743.85198414212,-1017.963617833062,-581967.4417186228,7558.625605380395,-598395.221623188,28.225735386037286,1.0,0.0
3719.6342024237383,271.04823720933797,6192.146484375,87.8209228515625,85.83848571777344,-1.671142578125,160752.50898184982,-1017.9210583866205,-581998.7294708567,7628.501402448281,-598393.1178481443,28.367443906259382,1.0,0.0
3746.802116647712,272.13358864176683,6185.2392578125,87.77499389648438,85.84156799316406,-1.052825927734375,160759.7635573442,-1017.8851998922921,-582024.9152474969,7687.0267691088375,-598391.3215978116,28.485704841783786,1.0,0.0
3779.545224556816,273.4375210782678,6176.95068359375,87.71981811523438,85.7874526977539,-0.64715576171875,160768.51787382332,-1017.8416413139614,-582056.4734311473,7757.622149528004,-598389.1103879048,28.62785841820994,1.0,0.0
3812.454357198905,274.74336471962926,6168.662109375,87.665283203125,85.67741394042969,-0.626373291015625,160777.3258757189,-1017.7974214392459,-582088.1792589882,7828.624330297578,-598386.8385276123,28.770302999888315,1.0,0.0
3845.519503844087,276.05143819645167,6160.37353515625,87.61123657226562,85.54169464111328,-0.94818115234375,160786.1879392599,-1017.7524217341406,-582120.0328878231,7900.043725198135,-598384.5163666859,28.913072295032123,1.0,0.0
3878.749701564666,277.3620179394549,6152.0849609375,87.55743408203125,85.39824676513672,-1.5784912109375,160795.1044331526,-1017.7065221255277,-582152.0345134758,7971.889863134595,-598382.1446663481,29.05619647681209,1.0,0.0
3912.119075464201,278.67537602516273,6143.79638671875,87.50299072265625,85.2717514038086,-2.456756591796875,160804.07572601503,-1017.659603322867,-582184.1843664844,8044.172316229204,-598379.7262278582,29.199705105612907,1.0,0.0
3951.272899536765,280.2112403648868,6134.12646484375,87.438232421875,85.1723861694336,-3.701934814453125,160814.6119911334,-1017.6034384769232,-582221.8802109488,8129.058800962521,-598376.8360932486,29.367630658672283,1.0,0.0
3984.9892485360615,281.53071383967875,6125.837890625,87.38095092773438,85.14338684082031,-4.844390869140625,160823.70336978798,-1017.5539859366371,-582254.3520662299,8202.295785271563,-598374.2994042975,29.511987063373226,1.0,0.0
4018.843005257426,282.6995442787439,6118.04248046875,87.32064819335938,85.1657485961914,-5.91351318359375,160832.84933991052,-1017.5032749912558,-582286.9683737252,8271.39874670899,-598371.8270076347,29.640336980647305,1.0,1.0
4370.598804714624,293.29039740811794,6048.82080078125,86.98416137695312,86.97676086425781,-2.5186767578125,160928.59682975814,-1016.9389928257209,-582625.447708519,8950.240318979719,-598344.7906201554,30.811079748081966,1.0,0.0
4405.871442131116,294.3452863224142,6042.01220703125,86.96951293945312,87.0173110961914,-1.4461669921875,160938.27271425803,-1016.8807447026447,-582659.367163795,9018.799531984376,-598342.5311834005,30.92795942040493,1.0,0.0
4441.284271941055,295.40038432816897,6035.20361328125,86.8963623046875,87.04005432128906,-0.52734375,160947.99246750338,-1016.8222220739309,-582693.4058774216,9087.618887151359,-598340.5469121155,31.04489890738131,1.0,0.0
4476.79334765824,296.45470220144534,6028.39501953125,86.76763916015625,87.0362777709961,0.129974365234375,160957.7566408408,-1016.7634327935948,-582727.5636278149,9156.675484145293,-598338.3123826239,31.161846510940336,1.0,0.0
4512.442470138194,297.5074915938738,6021.5859375,86.60189819335938,86.99454498291016,0.47174072265625,160967.56733573522,-1016.7042936720632,-582761.8396866407,9225.947892640135,-598335.6778735697,31.278737961184675,1.0,0.0
4548.214360216516,298.55782178684,6014.77734375,86.42401123046875,86.91429138183594,0.48834228515625,160977.42726233674,-1016.6446299832305,-582796.2330466583,9295.407340870122,-598332.5703051923,31.395481524517606,1.0,0.0
4578.121279042563,299.43090777490374,6009.103515625,86.28240966796875,86.83320617675781,0.27032470703125,160985.6834783913,-1016.5943062192155,-582824.9829860245,9353.422309372108,-598329.6375836844,31.492619954348356,1.0,0.0
4620.147092630388,300.65089974626187,6001.16015625,86.11285400390625,86.7096176147461,-0.3626708984375,160997.30528466124,-1016.5226575670401,-582865.3674559938,9434.873594444012,-598325.1650401589,31.628480879598726,1.0,0.0
4656.308611674816,301.69593098353437,5994.35107421875,86.00100708007812,86.60992431640625,-1.1624755859375,161007.32687339,-1016.4599562718694,-582900.107099377,9504.947171286913,-598321.1444592329,31.744953552079267,1.0,0.0
4692.593843629351,302.74150266660297,5987.54248046875,85.91876220703125,86.52588653564453,-2.147613525390625,161017.40455270628,-1016.3959623550792,-582934.9613850255,9575.294779822463,-598317.0498853716,31.86156022098521,1.0,0.0
4728.99891866534,303.7881066103487,5980.73388671875,85.86175537109375,86.46781158447266,-3.234466552734375,161027.5385831362,-1016.3306354413261,-582969.9303551344,9645.93189098523,-598312.9309310971,31.978348896627892,1.0,0.0
4765.534629909205,304.83499868463656,5973.92529296875,85.8243408203125,86.44330596923828,-4.310577392578125,161037.7289402264,-1016.2639912352195,-583005.0140943923,9716.834446307272,-598308.8266409605,32.095235791159894,1.0,0.0
4802.17564811639,305.88202722381845,5967.1162109375,85.80084228515625,86.45724487304688,-5.279052734375,161047.97536842825,-1016.1960795355584,-583040.2126925695,9787.99725945713,-598304.7690412034,32.21220142932003,1.0,0.0
4838.971846606466,306.92913440365464,5960.3076171875,85.78555297851562,86.51068878173828,-6.0460205078125,161058.27753984393,-1016.12697325744,-583075.5262542285,9859.418567616027,-598300.7619393405,32.32923939536232,1.0,0.0
4875.863730138168,307.9767085963114,5953.4990234375,85.77197265625,86.60590362548828,-6.52349853515625,161068.63502960515,-1016.0567624295419,-583110.9549294716,9931.110925714835,-598296.8228668895,32.44638981910583,1.0,0.0
4906.710765584838,308.85027969429416,5947.8251953125,85.7579345703125,86.71366119384766,-6.679718017578125,161077.30824389172,-1015.997480100248,-583140.5668968861,9991.06968009111,-598293.5865431543,32.54412726955297,1.0,0.0
4943.848396909074,309.89940494848776,5941.0166015625,85.73345947265625,86.87451171875,-6.575286865234375,161087.76621653698,-1015.9254983392757,-583176.207106784,10063.283470035996,-598289.7300469856,32.661563934471644,1.0,0.0
4981.114592500613,310.94954796584614,5934.20751953125,85.69766235351562,87.05915832519531,-6.17047119140625,161098.27876715563,-1015.8527009900331,-583211.9629278326,10135.788717252668,-598285.8820769935,32.77917966542202,1.0,0.0
5018.514269755222,312.00074494156337,5927.39892578125,85.64788818359375,87.25733184814453,-5.493011474609375,161108.8459414002,-1015.7791942978072,-583247.8344797972,10208.587794938707,-598282.0103216189,32.89698227740854,1.0,0.0
5056.04353398399,313.0529665742779,5920.59033203125,85.58389282226562,87.4538345336914,-4.5892333984375,161119.4680354061,-1015.7051017491525,-583283.8218083483,10281.681125158328,-598278.0711769848,33.01497381781837,1.0,0.0
5093.651587313856,314.10610340529973,5913.78173828125,85.50738525390625,87.62963104248047,-3.519866943359375,161130.1456183221,-1015.6305388109964,-583319.9248772064,10355.066504799528,-598274.0183986813,33.13314804076958,1.0,0.0
5125.117063142359,314.9843484907849,5908.10791015625,85.43673706054688,87.75436401367188,-2.56109619140625,161139.08654982023,-1015.5680779570795,-583350.099101497,10416.442544975318,-598270.5371383297,33.23176102764751,1.0,0.0
5163.003648106009,316.0376176444558,5901.298828125,85.34756469726562,87.86546325683594,-1.45361328125,161149.8679931012,-1015.4927772616281,-583386.4139712856,10490.314281632309,-598266.2036220318,33.35011266045734,1.0,0.0
5201.013301000348,317.08892918771187,5894.490234375,85.25888061523438,87.9291000366211,-0.459564208984375,161160.70740546432,-1015.4171010512915,-583422.8438184746,10564.383179413038,-598261.7106352219,33.468343148895144,1.0,0.0
5232.768394444254,317.9635227888313,5888.81640625,85.18780517578125,87.94288635253906,0.207733154296875,161169.78508625992,-1015.3537221706638,-583453.2895231175,10626.256882259157,-598257.8623343178,33.566773749335425,1.0,0.0
5271.012828368577,319.01152200618776,5882.0078125,85.10824584960938,87.91704559326172,0.75042724609375,161180.73267705782,-1015.2772062972954,-583489.9290100764,10700.693696779548,-598253.1320135839,33.68480634833122,1.0,0.0
5309.353363953996,320.0585854816264,5875.19921875,85.03631591796875,87.85404205322266,0.9892578125,161191.74014479067,-1015.2000694910517,-583526.6823539793,10775.359432081343,-598248.299056748,33.802822408945815,1.0,0.0
5347.842240618542,321.1055236286432,5868.39013671875,84.97247314453125,87.76461029052734,0.927093505859375,161202.80792393265,-1015.1221821054339,-583563.549378475,10850.280945916194,-598243.3956207313,33.920906217451375,1.0,0.0
5391.208479180583,322.15312308977815,5861.58154296875,84.91510009765625,87.65962219238281,0.58209228515625,161213.93631937023,-1015.0434139861695,-583600.5300411787,10925.484927777085,-598238.4442661556,34.03914066603255,1.0,0.0
5429.958457970875,323.2020872599122,5854.77294921875,84.86184692382812,87.55304718017578,-0.01043701171875,161225.12553069674,-1014.9636426703314,-583637.6244213197,11000.995760691003,-598233.4624458343,34.15760032050048,1.0,0.0
5468.805110262474,324.2529462747484,5847.96435546875,84.809814453125,87.45614624023438,-0.807586669921875,161236.37570910595,-1014.8827709375001,-583674.8326872705,11076.83244995866,-598228.457190551,34.27634227094512,1.0,0.0
5507.789980625035,325.30605311454866,5841.15576171875,84.75634765625,87.3842544555664,-1.744964599609375,161247.68704186575,-1014.8006965523739,-583712.1550519048,11153.008531703614,-598223.416423969,34.39540668602399,1.0,0.0
5542.559572406113,326.3611097224416,5834.3466796875,84.70010375976562,87.34588623046875,-2.7288818359375,161259.05981807032,-1014.7173837239887,-583749.591707967,11229.515140456031,-598218.3271797822,34.514763368645106,1.0,0.0
5575.316441715928,327.2404332437998,5828.6728515625,84.64974975585938,87.34131622314453,-3.50482177734375,161268.58425227294,-1014.6470426671082,-583780.876265743,11293.475803711335,-598214.0488790035,34.61430141354106,1.0,0.0
5614.779064588947,328.2948231662805,5821.8642578125,84.58493041992188,87.36924743652344,-4.34295654296875,161280.07040356693,-1014.561571589336,-583818.5224036537,11370.44291219057,-598208.8435383156,34.73373856121128,1.0,0.0
5654.33990270691,329.3479793698594,5815.0556640625,84.5162353515625,87.43700408935547,-4.96063232421875,161291.61897958824,-1014.4749836558684,-583856.2824750253,11447.631223659497,-598203.5394282651,34.85312970594333,1.0,0.0
5694.021409424255,330.40053699107267,5808.24658203125,84.44482421875,87.5373306274414,-5.308197021484375,161303.23041810782,-1014.3873937213482,-583894.1562525218,11525.062410003971,-598198.1528313046,34.972542098345855,1.0,0.0
5733.846030654851,331.45270086563926,5801.43798828125,84.37152099609375,87.66555786132812,-5.35888671875,161314.90522225606,-1014.2989182201676,-583932.1435316772,11602.744029238587,-598192.6615069074,35.09200084911657,1.0,0.0
5773.793729229015,332.50506101272833,5794.62939453125,84.29745483398438,87.80952453613281,-5.127777099609375,161326.64394317963,-1014.2096904917923,-583970.2441540707,11680.696971983649,-598187.0683485089,35.21157004033148,1.0,0.0
5813.862051098491,333.5581534044283,5787.82080078125,84.22344970703125,87.9597396850586,-4.63482666015625,161338.4471435367,-1014.1198483944556,-584008.4580286612,11758.94062836445,-598181.372874947,35.33130838222752,1.0,0.0
5854.453811641899,334.61252606107655,5781.01171875,84.15054321289062,88.10475158691406,-3.91705322265625,161350.3153930422,-1014.0295129994867,-584046.7851274204,11837.495101399836,-598175.5768808486,35.45127572799635,1.0,0.0
5895.2501566410065,335.66873570577684,5774.203125,84.07904052734375,88.23432159423828,-3.02099609375,161362.24925726344,-1013.9387813025204,-584085.2254945002,11916.38107739645,-598169.6855234288,35.571532581361,1.0,0.0
5936.190045243013,336.72706565876524,5767.39453125,84.00912475585938,88.34538269042969,-2.011138916015625,161374.24927169568,-1013.8476704821053,-584123.7792405243,11995.609714324353,-598163.7058241204,35.69210958091486,1.0,0.0
5977.276415488799,337.7858424276853,5760.5859375,83.94058227539062,88.4245834350586,-1.024658203125,161386.31592004982,-1013.7562409328048,-584162.4463939288,12075.121725121164,-598157.6421608677,35.81282475417373,1.0,0.0
6018.495112941018,338.84381067236467,5753.77734375,83.872802734375,88.46662139892578,-0.122314453125,161398.4495893494,-1013.6644934190036,-584201.226788752,12154.871897077654,-598151.4994182674,35.93354126994609,1.0,0.0
