obs_alt,obs_vel,obs_fuel,obs_pitch,obs_heading,obs_roll,obs_pos_x,obs_pos_y,obs_pos_z,obs_ap,obs_pe,obs_time_to_ap,act_throttle,act_stage
14.20241538528353,2.4774328014077733,2508.996826171875,89.96572875976562,271.3277282714844,-90.0,159784.08672390817,-1018.0163965076208,-578421.9988576246,86.9745369583834,-598435.2655187418,0.25393553909958655,1.0,0.0
14.606131255277433,3.1732755524580183,2506.14404296875,89.96572875976562,271.7966003417969,-90.0,159784.1932597,-1018.0170830339193,-578422.3882629836,87.57976741762832,-598435.2837119133,0.32525961151299043,1.0,0.0
14.954213160206564,3.6713215412795113,2504.1064453125,89.96044921875,272.15740966796875,-90.0,159784.28515050316,-1018.017680644989,-578422.7239962185,88.10255596821662,-598435.2969186873,0.37630971214935016,1.0,0.0
15.437731848331168,4.270095273137149,2501.6611328125,89.96044921875,272.6033935546875,-90.0,159784.41282280226,-1018.0185143537819,-578423.1903504261,88.82977173174731,-598435.3125847526,0.4376848150315027,1.0,0.0
15.993185053113848,4.8700902049318024,2499.21630859375,89.9720458984375,273.0533142089844,-90.0,159784.55950948637,-1018.0194745026529,-578423.726087684,89.66628774045967,-598435.3293498106,0.49918550724964916,1.0,0.0
16.620730672497302,5.471308610276482,2496.77099609375,89.96572875976562,273.50042724609375,-90.0,159784.72524720096,-1018.0205615274608,-578424.3313482938,90.61247733933851,-598435.3449815566,0.5608120861677435,1.0,0.0
17.198849275358953,5.973259064773213,2494.7333984375,89.9720458984375,273.8677978515625,-90.0,159784.87793970728,-1018.0215652436018,-578424.8889426131,91.48501716181636,-598435.3585434067,0.6122638271416463,1.0,0.0
17.958938359864987,6.576723769311791,2492.2880859375,89.96044921875,274.30035400390625,-90.0,159785.07869359458,-1018.0228852033615,-578425.6220345323,92.63324861996807,-598435.3741332102,0.6741216896456308,1.0,0.0
18.791516032535583,7.181415759368302,2489.843017578125,89.9720458984375,274.7232666015625,-90.0,159785.29859678505,-1018.0243306830525,-578426.4250534527,93.89221728721168,-598435.3902295685,0.7361060018298531,1.0,0.0
19.696755054872483,7.787336833524357,2487.39794921875,89.96572875976562,275.13623046875,-90.0,159785.53768163317,-1018.0259046517313,-578427.2981447902,95.26230071042664,-598435.4061258846,0.7982170123769947,1.0,0.0
20.674787091789767,8.394488638666479,2484.95263671875,89.9720458984375,275.539794921875,-90.0,159785.79598709362,-1018.027604162693,-578428.2414520294,96.74387869448401,-598435.4209136117,0.8604549560873807,1.0,0.0
21.725770191289485,9.00287217362563,2482.507568359375,89.9720458984375,275.93505859375,-90.0,159786.0735526166,-1018.0294299013913,-578429.2551165808,98.33733044273686,-598435.4361507957,0.9228199949312739,1.0,0.0
22.84984467504546,9.612488831147813,2480.0625,89.96572875976562,276.32257080078125,-90.0,159786.37040456934,-1018.0313838087022,-578430.3392850606,100.04303701547906,-598435.4520259084,0.985312335138417,1.0,0.0
24.04715615173336,10.22334007177783,2477.6171875,89.9720458984375,276.70361328125,-90.0,159786.68657983234,-1018.0334623456001,-578431.4941004582,101.861380063463,-598435.4673583531,1.0479321948313896,1.0,0.0
25.31786905298941,10.835427225120613,2475.172119140625,89.96572875976562,277.0790710449219,-90.0,159787.0221173605,-1018.0356675945222,-578432.719706258,103.79274212091696,-598435.481678784,1.1106797776946564,1.0,0.0
26.662115712533705,11.448751588745269,2472.72705078125,89.96572875976562,277.45001220703125,-90.0,159787.37705464725,-1018.0379969999194,-578434.0162447186,105.83750695467461,-598435.4964683274,1.173555277324681,1.0,0.0
28.080044365487993,12.063315915519771,2470.28173828125,89.9720458984375,277.8169860839844,-90.0,159787.75142159505,-1018.0404470153153,-578435.3838641777,107.99606109410524,-598435.5116117955,1.2365590424309403,1.0,0.0
29.57181418815162,12.679120136605823,2467.83642578125,89.9720458984375,278.18115234375,-90.0,159788.14525508462,-1018.0430189035833,-578436.8227076248,110.26879008766264,-598435.526295977,1.2996911360505692,1.0,0.0
31.137569448444992,13.296165032565547,2465.3916015625,89.9720458984375,278.5428771972656,-90.0,159788.55859077052,-1018.0457144975662,-578438.3329195098,112.65607952571008,-598435.5406812789,1.362951705138471,1.0,0.0
32.777456184267066,13.914453224848133,2462.9462890625,89.9720458984375,278.90240478515625,-90.0,159788.99146345918,-1018.0485313348472,-578439.9146423264,115.15831796475686,-598435.5555732439,1.4263410825520282,1.0,0.0
34.491626762319356,14.53398596314888,2460.5009765625,89.9720458984375,279.3203125,-90.0,159789.521224165,-1018.051970159635,-578441.8505669985,117.77589698240627,-598435.5687279536,1.489859475728224,1.0,0.0
36.585582005325705,15.25834831410096,2457.6484375,89.980224609375,279.7370300292969,-90.0,159790.0776925,-1018.0555741600692,-578443.8842518575,120.97603437444195,-598435.584359663,1.5641275315751955,1.0,0.0
38.781081631197594,15.98440717582394,2454.7958984375,89.9720458984375,280.1528625488281,-90.0,159790.66091772215,-1018.0593422539532,-578446.015934933,124.33431161299814,-598435.6006802565,1.6385716426180466,1.0,0.0
41.07837115612347,16.712165785646924,2451.94287109375,89.9720458984375,280.568115234375,-90.0,159791.27096281073,-1018.063277149573,-578448.2458408694,127.85135633184109,-598435.6148668388,1.7131922675185365,1.0,0.0
43.128662843839265,17.33731298235459,2449.498046875,89.980224609375,280.9239807128906,-90.0,159791.81526045722,-1018.0667847925797,-578450.2355412125,130.9928019961808,-598435.6259944856,1.7772935035927162,1.0,0.0
45.615625003003515,18.068232734467355,2446.64501953125,89.9720458984375,281.27984619140625,-90.0,159792.37934361387,-1018.0704129040241,-578452.297720409,134.80635344737675,-598435.6401733363,1.8522426765688351,1.0,0.0
48.20504261297174,18.800856839361387,2443.79248046875,89.9720458984375,281.75439453125,-90.0,159793.16228861036,-1018.0754377343692,-578455.1602931381,138.7804614456836,-598435.6545104794,1.9273691469991832,1.0,0.0
50.89716618927196,19.535188627197886,2440.93994140625,89.980224609375,282.16973876953125,-90.0,159793.8763347024,-1018.0800074965373,-578457.771229262,142.91575698927045,-598435.6685044679,2.0026733747380945,1.0,0.0
53.69224050256889,20.271228617058927,2438.087158203125,89.9720458984375,282.5855712890625,-90.0,159794.61749160782,-1018.0847375649028,-578460.4815162711,147.21287007885985,-598435.6803975994,2.0781555416678543,1.0,0.0
56.59049471933395,21.008980449145273,2435.234375,90.0,283.0019226074219,-90.0,159795.3858291412,-1018.089628668502,-578463.291379566,151.67244118254166,-598435.6901834738,2.153816139697483,1.0,0.0
59.59217827161774,21.74844425173914,2432.3818359375,90.0,283.4185791015625,-90.0,159796.18139486425,-1018.0946860387921,-578466.2010532627,156.29510046623182,-598435.7017470385,2.2296552731230577,1.0,0.0
62.24755004583858,22.383636558604913,2429.9365234375,90.0,283.7763671875,-90.0,159796.88502752123,-1018.0991524234414,-578468.7746731748,160.38767178193666,-598435.7106152073,2.2948028216187026,1.0,0.0
64.97921353322454,23.020088851696702,2427.491455078125,89.9720458984375,284.1341552734375,-90.0,159797.60874600665,-1018.10373365134,-578471.4219451763,164.60093514807522,-598435.7200161952,2.3600819344947013,1.0,0.0
68.26282443932723,23.764213694534295,2424.638671875,90.0,284.5521240234375,-90.0,159798.47850431045,-1018.1092314980924,-578474.6037120138,169.6694968973752,-598435.7318474671,2.43640776211555,1.0,0.0
71.65077618462965,24.51005738630901,2421.7861328125,90.0,284.970703125,-90.0,159799.37569567928,-1018.1148923970759,-578477.886160808,174.9035268339794,-598435.743937798,2.512913288737934,1.0,0.0
75.14325374248438,25.25762286365177,2418.933349609375,89.980224609375,285.3898010253906,-90.0,159800.30037304913,-1018.1207136958838,-578481.2695252048,180.30367400089744,-598435.756101985,2.589598939765949,1.0,0.0
78.22022059513256,25.899765317936904,2416.48828125,89.9720458984375,285.74957275390625,-90.0,159801.11488579982,-1018.1258267872036,-578484.2500479748,185.0650789985666,-598435.7640564146,2.655473147310545,1.0,0.0
81.90752510458697,26.65053483873001,2413.635498046875,89.9720458984375,286.1701354980469,-90.0,159802.09079024429,-1018.1319459453225,-578487.8214397429,190.77545397903305,-598435.7726074861,2.7324943410670244,1.0,0.0
85.70008125319146,27.403032019737612,2410.78271484375,90.0,286.59149169921875,-90.0,159803.09438551505,-1018.1382337957621,-578491.4944169489,196.65380433294922,-598435.7797064765,2.809696635505304,1.0,0.0
89.59813540102914,28.157257406175123,2407.93017578125,89.9720458984375,287.0128173828125,-90.0,159804.12571040718,-1018.1446797326207,-578495.2692063529,202.7007763265865,-598435.7891514512,2.887080178429642,1.0,0.0
93.60191128973383,28.91321361588094,2404.669921875,90.0,287.4947204589844,-90.0,159805.33836335037,-1018.1522452384233,-578499.7082320753,208.9170284421416,-598435.8002803443,2.975740993435579,1.0,0.0
99.5054980017012,29.99615576402516,2401.002197265625,90.0,287.9769287109375,-90.0,159806.58738830595,-1018.1600228622556,-578504.2809064381,218.09233697666787,-598435.8123106352,3.0757684521069564,1.0,0.0
103.1517332844669,30.647618551500482,2398.55712890625,90.0,288.3395690917969,-90.0,159807.54808120584,-1018.1660031750798,-578507.7983324531,223.76478501362726,-598435.8206991744,3.1426207381585414,1.0,0.0
106.250077121309,31.191477363989588,2396.51953125,90.0,288.64239501953125,-90.0,159808.36434259109,-1018.171091593802,-578510.7872044118,228.58802032249514,-598435.8270756145,3.1984333583233706,1.0,0.0
110.0399204014102,31.845278555088548,2394.07421875,90.0,289.0066223144531,-90.0,159809.36270470647,-1018.1773157864809,-578514.443201894,234.49170568026602,-598435.8370262393,3.265531690637772,1.0,0.0
113.90834005805664,32.50035668064705,2391.629150390625,90.0,289.3708190917969,-90.0,159810.38167922304,-1018.1836623772979,-578518.1750013394,240.5221150839934,-598435.8439379979,3.332764538903348,1.0,0.0
118.5209662396228,33.26623055597238,2388.7763671875,90.0,289.79620361328125,-90.0,159811.59658167753,-1018.1912147477269,-578522.624758528,247.71831330785062,-598435.8490117418,3.411373203338883,1.0,0.0
123.24096417776309,34.03384304457752,2385.923828125,90.0,290.22283935546875,-90.0,159812.83966045183,-1018.1989262923598,-578527.178121945,255.08822508889716,-598435.8577637587,3.490165182647331,1.0,0.0
128.06854537001345,34.8031973465427,2383.071044921875,90.0,290.6501159667969,-90.0,159814.11094698508,-1018.2068115323782,-578531.8353271177,262.63251950684935,-598435.8653502978,3.5691409968124503,1.0,0.0
133.00400174607057,35.574293314236705,2380.21826171875,90.0,291.13824462890625,-90.0,159815.59849688326,-1018.2160192728043,-578537.2852927191,270.3518580918899,-598435.8697033522,3.6483007945291206,1.0,0.0
138.04752013715915,36.347134089009224,2377.36572265625,90.0,291.5664978027344,-90.0,159816.9304842739,-1018.2242487967014,-578542.1657981449,278.246922404971,-598435.8749634083,3.7276449887436343,1.0,0.0
143.19939776835963,37.12172347492379,2374.512939453125,89.980224609375,291.9950866699219,-90.0,159818.29088592794,-1018.2326382398605,-578547.1508962454,286.31839437561575,-598435.8806136856,3.8071741150969274,1.0,0.0
148.45986474736128,37.89805997362483,2371.66015625,90.0,292.3632507324219,-90.0,159819.4796152321,-1018.2399541437626,-578551.5072532695,294.5669381025946,-598435.8831535612,3.886888206788001,1.0,0.0
153.82914876088034,38.676146553902534,2368.8076171875,90.0,292.8545837402344,-90.0,159821.09717997967,-1018.2498970925808,-578557.4357856412,302.9932383324485,-598435.8897193038,3.9667876189880076,1.0,0.0
159.30759542947635,39.455983383800515,2365.955078125,89.980224609375,293.22344970703125,-90.0,159822.33485375604,-1018.2574857771397,-578561.9724334793,311.59796713956166,-598435.8947879573,4.046872583524589,1.0,0.0
164.0902975476347,40.125809642675,2363.509765625,90.0,293.59307861328125,-90.0,159823.59355667085,-1018.2651928067207,-578566.5865824551,319.11597110901494,-598435.9002374613,4.1156647703561475,1.0,0.0
169.7718836425338,40.90890273840908,2360.6572265625,90.0,294.0246276855469,-90.0,159825.08866084076,-1018.2743375599384,-578572.0679246278,328.0538755065063,-598435.9082608583,4.196095235383211,1.0,0.0
174.72915893001482,41.581522663256074,2358.2119140625,90.0,294.4573974609375,-90.0,159826.6124940689,-1018.2836491167545,-578577.6552291068,335.85848515096586,-598435.9131170239,4.265184089472086,1.0,0.0
180.6148181646131,42.367875886804505,2355.359375,90.0,294.8903503417969,-90.0,159828.16513475188,-1018.2931331843138,-578583.3487110642,345.1319308200618,-598435.916273168,4.345961067766325,1.0,0.0
186.61071384802926,43.155986411480875,2352.506591796875,90.0,295.2626953125,-90.0,159829.5189379926,-1018.3013845235109,-578588.3135426067,354.58703020354733,-598435.9217476548,4.4269249627610066,1.0,0.0
191.8379797245143,43.8329068075537,2350.0615234375,90.0,295.63427734375,-90.0,159830.89397855574,-1018.3097571730614,-578593.3567072903,362.8364968098467,-598435.9240548001,4.496471371127598,1.0,0.0
197.14652598043904,44.51111935500801,2347.6162109375,90.0,296.00677490234375,-90.0,159832.29030279384,-1018.3182701617479,-578598.4783635216,371.2203577037435,-598435.9272213151,4.566155433918993,1.0,0.0
202.5365896654548,45.19062670881385,2345.1708984375,90.0,296.38006591796875,-90.0,159833.70795705964,-1018.3269221037626,-578603.6786697073,379.73906347854063,-598435.9278846657,4.63597757105623,1.0,0.0
208.00829554197844,45.87142768484096,2342.72607421875,90.0,296.75323486328125,-90.0,159835.146957543,-1018.3356992304325,-578608.9577489848,388.3930380932288,-598435.9312683457,4.705937677678719,1.0,0.0
213.5617495260667,46.55352142870362,2340.28076171875,89.980224609375,297.1282653808594,-90.0,159836.6073475734,-1018.3445953428745,-578614.3157871023,397.1827128317673,-598435.9333317992,4.776035825834072,1.0,0.0
219.1971723928582,47.23690962377823,2337.83544921875,90.0,297.50274658203125,-90.0,159838.0891912388,-1018.3535979390144,-578619.7528975913,406.10852897248697,-598435.9293467931,4.8462723631626545,1.0,0.0
224.91470513760578,47.921594706351534,2335.390380859375,90.0,297.87841796875,-90.0,159839.59249868273,-1018.3626978993416,-578625.2692582726,415.1709325588308,-598435.9352327741,4.916647382277063,1.0,0.0
230.7145064965589,48.60757559177425,2332.9453125,90.0,298.25457763671875,-90.0,159841.11730456894,-1018.3719176054001,-578630.8650177447,424.37035498954356,-598435.9361174155,4.987161110774537,1.0,0.0
236.59667621005792,49.294852866099845,2330.5,90.0,298.629638671875,-90.0,159842.66364846507,-1018.3812696635723,-578636.5403187616,433.707237070892,-598435.9340461984,5.057813678467653,1.0,0.0
242.5614110607421,49.983427428459294,2328.054931640625,90.0,299.0052490234375,-90.0,159844.23160802905,-1018.3907535672188,-578642.2953061596,443.1820246456191,-598435.9280433024,5.1286052965121485,1.0,0.0
248.60888994997367,50.673300524458654,2325.60986328125,90.0,299.38043212890625,-90.0,159845.82123942155,-1018.4003689289093,-578648.1301266564,452.7951610016171,-598435.92148827,5.199536138304097,1.0,0.0
254.7392292090226,51.36447472495753,2323.16455078125,90.0,299.75634765625,-90.0,159847.43256749833,-1018.4101182222366,-578654.0449405394,462.5470949993469,-598435.9156737993,5.270606547451109,1.0,0.0
259.9112922589993,51.94144655562436,2321.126953125,90.0,300.07012939453125,-90.0,159848.7919241171,-1018.418360978365,-578659.035177239,470.780056211981,-598435.915614343,5.329938442853518,1.0,0.0
266.19395895767957,52.635005191997124,2318.681640625,90.0,300.4483642578125,-90.0,159850.44306525355,-1018.4283965229988,-578665.0970342448,480.78760211751796,-598435.9139589473,5.401264845242451,1.0,0.0
272.5600092121167,53.32986539006639,2316.23681640625,90.0,300.8280334472656,-90.0,159852.1159640712,-1018.4385712146759,-578671.2393341939,490.93520271161105,-598435.915333938,5.472731110072061,1.0,0.0
279.0094953022199,54.026025384855195,2313.79150390625,90.0,301.2083740234375,-90.0,159853.8106650418,-1018.4488752186298,-578677.4622139958,501.2233001323184,-598435.9126351862,5.544337289477312,1.0,0.0
285.54260878427885,54.72348702606344,2311.34619140625,90.0,301.5882873535156,-90.0,159855.52723413424,-1018.4593014121056,-578683.7658086788,511.6523435271811,-598435.9072216408,5.616083656063495,1.0,0.0
292.1595086650923,55.422249245070745,2308.901123046875,90.0,301.9681091308594,-90.0,159857.26569620412,-1018.4698584973812,-578690.1502785305,522.2227690555155,-598435.8997669491,5.687970195402272,1.0,0.0
298.8604085148545,56.12231891328743,2306.4560546875,90.0,302.34771728515625,-90.0,159859.02613079018,-1018.4805454015732,-578696.6157898845,532.9350664342055,-598435.8896101136,5.759997733454497,1.0,0.0
305.6453873197315,56.823694069835426,2304.0107421875,90.0,302.728515625,-90.0,159860.8085589863,-1018.4913598299026,-578703.1624600339,543.789667664445,-598435.8822024057,5.832166072408938,1.0,0.0
312.51456149329897,57.52637340432818,2301.565673828125,90.0,303.1097106933594,-90.0,159862.6129958399,-1018.5023152530193,-578709.7904609554,554.7870145685738,-598435.8801804055,5.904475131619449,1.0,0.0
319.46820157498587,58.23036131101515,2299.12060546875,90.0,303.49114990234375,-90.0,159864.43943490172,-1018.5134020447731,-578716.499966506,565.9275794300484,-598435.8781820858,5.976925574616757,1.0,0.0
326.5064686627593,58.93565945778787,2296.67529296875,90.0,303.8757629394531,-90.0,159866.2879440214,-1018.5246448814869,-578723.2911332117,577.2118373269914,-598435.8816454342,6.049517571632634,1.0,0.0
333.62944406468887,59.64226152306287,2294.230224609375,90.0,304.25982666015625,-90.0,159868.15849149053,-1018.5360660254955,-578730.1640938163,588.6401825573994,-598435.8855341594,6.1222506826056815,1.0,0.0
340.83723326935433,60.350166940508004,2291.78515625,89.980224609375,304.6450500488281,-90.0,159870.051154967,-1018.5476373136044,-578737.1189931566,600.213070357684,-598435.8816488691,6.195125128592622,1.0,0.0
348.1300485988613,61.05937568933108,2289.33984375,90.0,305.03009033203125,-90.0,159871.96601587045,-1018.5593701601028,-578744.1560190632,611.9309585498413,-598435.876403784,6.2681408907925515,1.0,0.0
355.5081857825862,61.76988858861746,2286.894775390625,90.0,305.4155578613281,-90.0,159873.9030952947,-1018.5712611079216,-578751.2752888292,623.7943032812327,-598435.868599035,6.3412981921416645,1.0,0.0
362.97155224566814,62.48170488986749,2284.44970703125,90.0,305.80169677734375,-90.0,159875.86250408358,-1018.5832810401917,-578758.4769552185,635.8035523599247,-598435.854713269,6.414597144479387,1.0,0.0
370.52050358522683,63.19483145984044,2282.00439453125,90.0,306.1865539550781,-90.0,159877.84423014484,-1018.595428109169,-578765.7611275972,647.9591866729315,-598435.8429020384,6.488038396065974,1.0,0.0
378.155142870266,63.909265087111194,2279.55908203125,90.0,306.5718688964844,-90.0,159879.84833528197,-1018.607702255249,-578773.128017174,660.2616540261079,-598435.8326854105,6.56162173963537,1.0,0.0
385.8755531173665,64.6250095310088,2277.1142578125,90.0,306.95855712890625,-90.0,159881.8748307808,-1018.6201312541962,-578780.577752931,672.7114296049112,-598435.8250512088,6.6353476532051445,1.0,0.0
393.6818797212327,65.3420642908492,2274.6689453125,90.0,307.3450927734375,-90.0,159883.92374149695,-1018.6326885819435,-578788.1104951559,685.3089735097019,-598435.8166655084,6.70921627420563,1.0,0.0
401.574396461132,66.06043097498232,2272.2236328125,90.0,307.7313537597656,-90.0,159885.99512547214,-1018.6453419327736,-578795.726412063,698.0547708388185,-598435.8071654191,6.783227893395065,1.0,0.0
409.553360740887,66.78011288275435,2269.778564453125,90.0,308.116943359375,-90.0,159888.08902717807,-1018.6581214666367,-578803.425640562,710.9492963262601,-598435.795669668,6.857382987572578,1.0,0.0
417.6186568653211,67.50110468718441,2267.33349609375,90.0,308.50421142578125,-90.0,159890.2054714705,-1018.6710559725761,-578811.2083409401,723.9929536406416,-598435.7862577663,6.931681034109488,1.0,0.0
425.7705300638918,68.22340932052151,2264.88818359375,90.0,308.8943176269531,-90.0,159892.344469635,-1018.6841396093369,-578819.0746421795,737.1862407810986,-598435.7769938753,7.0061224972182,1.0,0.0
434.0091866791481,68.9470272295872,2262.443115234375,90.0,309.2829284667969,-90.0,159894.5061128994,-1018.697385430336,-578827.0247204222,750.5296223544283,-598435.7638688133,7.08070763600108,1.0,0.0
442.3347979107639,69.6719596813791,2259.998046875,90.0,309.67230224609375,-90.0,159896.6904457355,-1018.7108107209206,-578835.0587125774,764.0235813242616,-598435.7480901788,7.155436675241219,1.0,0.0
450.74756935134064,70.39820554185974,2257.552734375,90.0,310.0624084472656,-90.0,159898.8974831908,-1018.7243986725807,-578843.1767906216,777.6685567363165,-598435.7326755348,7.230309549050219,1.0,0.0
459.24745410250034,71.12576508055642,2255.107666015625,90.0,310.4544982910156,-90.0,159901.12732253937,-1018.7381481528282,-578851.3790760132,791.4650382690597,-598435.706452358,7.30532667716318,1.0,0.0
467.83477386506274,71.85464816142868,2252.66259765625,90.0,310.84820556640625,-90.0,159903.38003163086,-1018.7520659565926,-578859.665725278,805.4135397670325,-598435.6891192732,7.380488720050664,1.0,0.0
476.5097302502254,72.58484956022122,2250.21728515625,90.0,311.2420959472656,-90.0,159905.6554769145,-1018.7661507129669,-578868.0369450557,819.5144966127118,-598435.6893393481,7.455795043920091,1.0,0.0
485.2723731471924,73.31637000948594,2247.772216796875,90.0,311.6339416503906,-90.0,159907.95375190224,-1018.7803856134415,-578876.492813811,833.768378713401,-598435.6685350328,7.531246799756843,1.0,0.0
494.122817600728,74.04920868287952,2245.3271484375,90.0,312.0301513671875,-90.0,159910.27496139184,-1018.794783771038,-578885.0335389907,848.1756615379127,-598435.6558230019,7.606843306750761,1.0,0.0
503.06137301551644,74.7833667018932,2242.8818359375,90.0,312.42547607421875,-90.0,159912.61911666903,-1018.8093338608742,-578893.659249577,862.736822261475,-598435.6390870824,7.682585108801277,1.0,0.0
512.0881995139644,75.51884433968672,2240.4365234375,89.980224609375,312.8188781738281,-90.0,159914.9862757755,-1018.8240065574646,-578902.3701137843,877.4523488661507,-598435.6168933916,7.758472400753362,1.0,0.0
521.2031871259678,76.25564643018032,2237.99169921875,90.0,313.2130432128906,-90.0,159917.37647337498,-1018.8388017416,-578911.1662802113,892.3227295902325,-598435.5980850622,7.834505580949781,1.0,0.0
530.4067870423896,76.99377567391608,2235.54638671875,89.980224609375,313.6083679199219,-90.0,159919.7897441311,-1018.8537391424179,-578920.0478974562,907.34847012721,-598435.5809707836,7.910685095925942,1.0,0.0
539.6990454905899,77.73323458759272,2233.10107421875,90.0,314.0022888183594,-90.0,159922.22612270765,-1018.868814766407,-578929.0151141176,922.5300603742944,-598435.5607823789,7.987011458444101,1.0,0.0
549.0801870677387,78.4740221516397,2230.656005859375,90.0,314.3963317871094,-90.0,159924.68562415225,-1018.88401055336,-578938.0681021718,937.8679704059614,-598435.5499713036,8.063484361638587,1.0,0.0
558.5502770006424,79.21614331147468,2228.2109375,90.0,314.79150390625,-90.0,159927.16822051827,-1018.8993099331856,-578947.2070373571,953.3627240736969,-598435.5389797894,8.140104696978199,1.0,0.0
568.1094533514697,79.95958706749157,2225.765625,90.0,315.18878173828125,-90.0,159929.6740090797,-1018.9147253632545,-578956.4320411321,969.0147024191683,-598435.5321012441,8.216871344458013,1.0,0.0
576.1437860836741,80.5801375285708,2223.72802734375,90.0,315.51812744140625,-90.0,159931.77987741726,-1018.9276701211929,-578964.1854705693,982.1785247175721,-598435.5215284746,8.280956010017633,1.0,0.0
585.866948215873,81.32600934105665,2221.282958984375,90.0,315.9144592285156,-90.0,159934.32825643572,-1018.9433369636536,-578973.5687117926,998.1200659580063,-598435.4982696257,8.35799224019047,1.0,0.0
595.6794267154764,82.07321030936274,2218.837890625,90.0,316.31158447265625,-90.0,159936.8999942509,-1018.959195792675,-578983.038440261,1014.2202478235122,-598435.4697928745,8.435176098866805,1.0,0.0
603.9252865551971,82.69690100837467,2216.80029296875,90.0,316.6424560546875,-90.0,159939.061008309,-1018.9725596904755,-578990.9960576523,1027.7586695720674,-598435.4490534605,8.499609467388893,1.0,0.0
613.9026256826473,83.44656109117946,2214.35498046875,90.0,317.04022216796875,-90.0,159941.67568563807,-1018.9887400269508,-579000.6247945075,1044.15114142932,-598435.4306774959,8.577066071870775,1.0,0.0
623.970080603729,84.19756265667328,2211.90966796875,90.0,317.4396057128906,-90.0,159944.31372015065,-1019.0050519108772,-579010.340495305,1060.7037445073947,-598435.4230437585,8.654671497884976,1.0,0.0
634.1277661840431,84.94989797476686,2209.46484375,90.0,317.83935546875,-90.0,159946.9751072783,-1019.0215288996696,-579020.143355399,1077.4168893242022,-598435.4199204064,8.732425258139074,1.0,0.0
644.3757260325365,85.7035662221887,2207.01953125,90.0,318.239990234375,-90.0,159949.6599209169,-1019.038155913353,-579030.0334766321,1094.2910703803645,-598435.4123429066,8.810327664128522,1.0,0.0
654.7143075161148,86.45856047261094,2204.57421875,90.0,318.6394958496094,-90.0,159952.3682228701,-1019.0549694299698,-579040.0110702127,1111.326698731049,-598435.4040307895,8.888378032989863,1.0,0.0
665.1435123282718,87.21487302937265,2202.129150390625,90.0,319.04278564453125,-90.0,159955.10002066163,-1019.0719897150993,-579050.0762221292,1128.5242160643684,-598435.3876728971,8.96657593092948,1.0,0.0
675.6636537343729,87.9725059693905,2199.68408203125,90.0,319.44873046875,-90.0,159957.8554620834,-1019.0891908407211,-579060.2291360664,1145.8841225047363,-598435.3672376715,9.044921596794893,1.0,0.0
686.2748044264736,88.73146312573294,2197.23876953125,90.0,319.8524169921875,-90.0,159960.63451542697,-1019.1065466403961,-579070.4699447684,1163.4069245468127,-598435.3471050233,9.123415435954826,1.0,0.0
696.9771355789853,89.4917440150602,2194.793701171875,90.0,320.2552490234375,-90.0,159963.43732096034,-1019.1240403652191,-579080.798765932,1181.0931389230536,-598435.3120267645,9.202058006062316,1.0,0.0
707.7706698386464,90.25335896448152,2192.3486328125,90.0,320.6598815917969,-90.0,159966.2639525795,-1019.1417195796967,-579091.2157013994,1198.9433036674745,-598435.2719499521,9.280850216287945,1.0,0.0
716.8352994509041,90.88906544534342,2190.31103515625,90.0,320.99444580078125,-90.0,159968.63772141942,-1019.1566112041473,-579099.9639817724,1213.9441160754068,-598435.2460111005,9.34662530805349,1.0,0.0
727.7967886468396,91.65314612693929,2187.86572265625,90.0,321.3967590332031,-90.0,159971.50814947253,-1019.1746516227722,-579110.543034908,1232.0963588925079,-598435.2176301264,9.425693638638052,1.0,0.0
738.8499615755863,92.41858154661213,2185.42041015625,90.0,321.7983703613281,-90.0,159974.40238238213,-1019.1928298473358,-579121.2107024225,1250.414180154563,-598435.1901884606,9.504913961969635,1.0,0.0
749.9951571971178,93.18536718800127,2182.9755859375,90.0,322.2054748535156,-90.0,159977.32050156785,-1019.2111412286758,-579131.9671721469,1268.8979967207415,-598435.1823396739,9.584285357964063,1.0,0.0
761.2324467003345,93.95349051705918,2180.5302734375,90.0,322.61358642578125,-90.0,159980.26241647307,-1019.2296140193939,-579142.812646959,1287.5482258643024,-598435.1749117086,9.663807284997176,1.0,0.0
772.5620641855057,94.72294543489572,2178.0849609375,90.0,323.025146484375,-90.0,159983.22822060974,-1019.2482727766037,-579153.7472053234,1306.365326142055,-598435.1489006144,9.743479877619222,1.0,0.0
783.9840981573798,95.49373781496709,2175.639892578125,89.9720458984375,323.4376525878906,-90.0,159986.2181010019,-1019.2671059370041,-579164.771004169,1325.349837084883,-598435.1122371579,9.823303642227756,1.0,0.0
795.4986817518948,96.26586928665554,2173.19482421875,90.0,323.8459777832031,-90.0,159989.2321194531,-1019.2860947847366,-579175.8842547042,1344.5022841328755,-598435.0765163626,9.903278522731796,1.0,0.0
805.1650145825697,96.9103423939389,2171.1572265625,90.0,324.1867980957031,-90.0,159991.76222608273,-1019.3020218610764,-579185.2136409455,1360.5913641722873,-598435.0484679334,9.970040518537928,1.0,0.0
816.8498859565007,97.6849478418333,2168.7119140625,89.9720458984375,324.59930419921875,-90.0,159994.8204945515,-1019.3212760686874,-579196.491222271,1380.0531434908044,-598435.0280529542,10.050294331896055,1.0,0.0
828.6276827574475,98.46089737998754,2166.266845703125,89.9720458984375,325.010498046875,-90.0,159997.90282557026,-1019.3407427072525,-579207.858630141,1399.6843264377676,-598435.0035013481,10.130700365250789,1.0,0.0
838.5138626248809,99.10854196437694,2164.229248046875,89.9720458984375,325.3512268066406,-90.0,160000.48992638264,-1019.3571125268936,-579217.4002090351,1416.1733328022528,-598434.9822366476,10.197821004271475,1.0,0.0
850.4625592174707,99.88694138909523,2161.7841796875,89.980224609375,325.7646179199219,-90.0,160003.61670787734,-1019.3768863677979,-579228.9327532977,1436.1162668510806,-598434.937523847,10.278505464845068,1.0,0.0
862.5049915497657,100.66669177999347,2159.3388671875,89.980224609375,326.17547607421875,-90.0,160006.76789426166,-1019.3968393802643,-579240.5555707066,1456.2301194894826,-598434.891101437,10.359343217513242,1.0,0.0
874.6409389296314,101.44779876017557,2156.8935546875,89.9720458984375,326.58721923828125,-90.0,160009.9434809672,-1019.4170385599136,-579252.2688566162,1476.5154299654532,-598434.8621693009,10.440334330633505,1.0,0.0
884.8261158237001,102.09976423993639,2154.85595703125,89.96572875976562,326.93017578125,-90.0,160012.60841317434,-1019.4340847730637,-579262.0991117514,1493.5512981851352,-598434.8241897749,10.507945823262787,1.0,0.0
897.1339573968435,102.88337870042538,2152.410888671875,89.96044921875,327.3464660644531,-90.0,160015.82871261783,-1019.4547632932663,-579273.9785508646,1514.1525172637776,-598434.7835429994,10.589222121980356,1.0,0.0
909.5362622325774,103.66837274973635,2149.9658203125,89.96572875976562,327.7561340332031,-90.0,160019.07364911787,-1019.4756759405136,-579285.9489359823,1534.9269648670452,-598434.7226273781,10.670655922445519,1.0,0.0
919.9436880653957,104.3236086856569,2147.92822265625,89.980224609375,328.0999755859375,-90.0,160021.79647407998,-1019.493341088295,-579295.99373125,1552.371866685222,-598434.6885111679,10.738638819199934,1.0,0.0
932.5187871302478,105.11118444835263,2145.48291015625,89.96572875976562,328.510498046875,-90.0,160025.08645652063,-1019.5148426294327,-579308.1311068819,1573.4656937895343,-598434.6596521606,10.82036474185827,1.0,0.0
945.1887280222727,105.90017401422631,2143.037841796875,89.96572875976562,328.92156982421875,-90.0,160028.40090242817,-1019.5366762876511,-579320.3599202629,1594.7346162820468,-598434.627501772,10.902251548727918,1.0,0.0
957.9534398523392,106.69058346706404,2140.5927734375,89.980224609375,329.32757568359375,-90.0,160031.74003053506,-1019.558783531189,-579332.6801955776,1616.1792197324103,-598434.5813711333,10.984300416950362,1.0,0.0
968.6632969829952,107.3503567591408,2138.55517578125,90.0,329.67083740234375,-90.0,160034.54149168095,-1019.5773845911026,-579343.0171708383,1634.184461156372,-598434.5470115078,11.052799314595745,1.0,0.0
981.6021998493234,108.14341040141653,2136.10986328125,90.0,330.0829772949219,-90.0,160037.92579820164,-1019.5999622344971,-579355.5057031126,1655.9529330591904,-598434.5302875801,11.135147954212869,1.0,0.0
994.6363162515918,108.93790251474982,2133.66455078125,90.0,330.5009460449219,-90.0,160041.3346676118,-1019.6228183507919,-579368.0863142855,1677.8988284762017,-598434.5301860565,11.21765990373325,1.0,0.0
1005.5710528515046,109.60107132421564,2131.626953125,90.0,330.85308837890625,-90.0,160044.19417628614,-1019.6420886516571,-579378.6405888255,1696.3229197269538,-598434.527545562,11.286544594517522,1.0,0.0
1018.7802626440534,110.39816930078953,2129.181884765625,90.0,331.2739562988281,-90.0,160047.64808813948,-1019.6653710603714,-579391.3903786438,1718.5952107358025,-598434.5164585701,11.369354683409085,1.0,0.0
1032.0853006342659,111.19666730040143,2126.73681640625,90.0,331.6983947753906,-90.0,160051.1266472573,-1019.6887913942337,-579404.2327165342,1741.0460121987853,-598434.5052802345,11.452325207031492,1.0,0.0
1045.486379475682,111.99654963631335,2124.29150390625,89.980224609375,332.1221923828125,-90.0,160054.6299154433,-1019.7123302221298,-579417.1678137053,1763.6757485060953,-598434.4981621377,11.535454554947762,1.0,0.0
1056.727010278264,112.6641676959943,2122.25390625,89.980224609375,332.47576904296875,-90.0,160057.56829031295,-1019.7321041822433,-579428.0178872669,1782.6708764808718,-598434.4598243904,11.604850995347078,1.0,0.0
1070.3043831532123,113.46659852815698,2119.808837890625,90.0,332.89678955078125,-90.0,160061.11737913344,-1019.7560091018677,-579441.1231347515,1805.630273099523,-598434.3821401914,11.688276086260714,1.0,0.0
1083.9779721873347,114.27047778438364,2117.36376953125,89.980224609375,333.3217468261719,-90.0,160064.6916838144,-1019.7801568508148,-579454.3214870826,1828.7707877523499,-598434.3291470248,11.771866326937698,1.0,0.0
1095.446475966135,114.94149942582929,2115.326171875,89.980224609375,333.6755065917969,-90.0,160067.68931702903,-1019.8004717826843,-579465.3913100522,1848.1934937998885,-598434.310173556,11.841652515474095,1.0,0.0
1109.2971859883983,115.74807502073388,2112.880859375,90.0,334.1005859375,-90.0,160071.3095251063,-1019.8251016139984,-579478.7607585674,1871.6681672683917,-598434.2539505855,11.925552083275761,1.0,0.0
1123.2447505481541,116.5561502830061,2110.435546875,89.980224609375,334.5233154296875,-90.0,160074.9548146866,-1019.849972486496,-579492.2237569179,1895.3261686845217,-598434.234036565,12.009622098514399,1.0,0.0
1137.2896059491904,117.36571515826702,2107.990478515625,89.980224609375,334.9490661621094,-90.0,160078.62512235303,-1019.875079035759,-579505.7805705921,1919.1680452927249,-598434.2172459031,12.093863007717971,1.0,0.0
1149.0680273949401,118.04149234738323,2105.952880859375,89.9720458984375,335.30523681640625,-90.0,160081.70288363306,-1019.8961757421494,-579517.1497213268,1939.1771909047384,-598434.1946201908,12.164195078061425,1.0,0.0
1163.2910738381324,118.85378450236793,2103.5078125,89.96572875976562,335.7315368652344,-90.0,160085.41920755283,-1019.9216772317886,-579530.8789210082,1963.357666973141,-598434.1779340641,12.248749603582894,1.0,0.0
1177.611954637221,119.6675628491455,2101.0625,89.980224609375,336.1578369140625,-90.0,160089.1606806899,-1019.9473997354507,-579544.7024444188,1987.723609667155,-598434.1574408804,12.333475458329076,1.0,0.0
1189.6205320185982,120.34685019950952,2099.02490234375,89.980224609375,336.515625,-90.0,160092.29786261212,-1019.9690346717834,-579556.2941896961,2008.1707475064322,-598434.1359751186,12.404211764769741,1.0,0.0
1204.1207843800075,121.16336026170842,2096.579833984375,89.96572875976562,336.9453125,-90.0,160096.08560674082,-1019.9952501058578,-579570.2910299366,2032.8783764393302,-598434.1152032842,12.489252655403845,1.0,0.0
1218.7190782842226,121.9813569116939,2094.134521484375,89.96572875976562,337.3746032714844,-90.0,160099.8985844617,-1020.0217413902283,-579584.3826630798,2057.7731625778833,-598434.0974231315,12.574465156617237,1.0,0.0
1233.415275951149,122.80084825500892,2091.689453125,89.980224609375,337.8080139160156,-90.0,160103.73685005467,-1020.0485186576843,-579598.5692143459,2082.8557825820753,-598434.0844363164,12.65985021309291,1.0,0.0
1245.7378534520976,123.48488173295351,2089.65185546875,89.96044921875,338.16632080078125,-90.0,160106.9547022982,-1020.0710433721542,-579610.464009066,2103.9016495213145,-598434.0744012009,12.731134656808933,1.0,0.0
1260.614830759354,124.3070713631833,2087.20654296875,89.96044921875,338.6009826660156,-90.0,160110.83943772796,-1020.0983257293701,-579624.8251594614,2129.329700313392,-598434.0391082835,12.816833521251851,1.0,0.0
1275.590951099177,125.13074410689904,2084.761474609375,89.9720458984375,339.03277587890625,-90.0,160114.74975661348,-1020.1258928775787,-579639.2816353495,2154.9471217981772,-598433.9888244579,12.902705127322577,1.0,0.0
1290.6656355756568,125.95593164640324,2082.31640625,89.96572875976562,339.4620361328125,-90.0,160118.6856815261,-1020.1538991928101,-579653.8336946949,2180.7548626516946,-598433.9586462041,12.98875143956451,1.0,0.0
1303.3036966657965,126.64475659287926,2080.27880859375,89.96572875976562,339.81927490234375,-90.0,160121.9850800917,-1020.1775677204132,-579666.0336283727,2202.4073162638815,-598433.9537487524,13.060591264143795,1.0,0.0
1318.5603986791102,127.47272086941517,2077.83349609375,89.96572875976562,340.2524108886719,-90.0,160125.9676736864,-1020.2062709331512,-579680.7615691468,2228.565613745479,-598433.9510252295,13.146958694607918,1.0,0.0
1333.916852128692,128.3021617377774,2075.388427734375,89.96572875976562,340.6895446777344,-90.0,160129.97587921884,-1020.2352683544159,-579695.5856560634,2254.9155173359904,-598433.9129847741,13.233499814558343,1.0,0.0
1346.789685746422,128.99449927317264,2073.350830078125,89.96572875976562,341.0558776855469,-90.0,160133.33572329025,-1020.2595586776733,-579708.0124702601,2277.0207150257193,-598433.8631008525,13.30575078679135,1.0,0.0
1362.3285227002343,129.8266822169998,2070.905517578125,89.96572875976562,341.4933166503906,-90.0,160137.39125208894,-1020.2888140678406,-579723.0129878564,2303.723905936582,-598433.8040172477,13.39261259827964,1.0,0.0
1377.9676829498494,130.66037912521426,2068.46044921875,89.96572875976562,341.93902587890625,-90.0,160141.47278192095,-1020.3182818889618,-579738.1101374293,2330.6208465312375,-598433.7474042631,13.479650887401533,1.0,0.0
1391.0767152465414,131.35629302547713,2066.4228515625,89.96044921875,342.3011474609375,-90.0,160144.8938647372,-1020.3430182933807,-579750.7649757897,2353.1835442357697,-598433.7070148144,13.552318559054356,1.0,0.0
1406.8993709887145,132.19279717885044,2063.9775390625,89.95574951171875,342.7381896972656,-90.0,160149.02311284174,-1020.3728187084198,-579766.0396045615,2380.4378394990927,-598433.6240031874,13.639685582160212,1.0,0.0
1422.8226173104485,133.03086009988445,2061.532470703125,89.95574951171875,343.17889404296875,-90.0,160153.1784705393,-1020.4027943611145,-579781.4111157509,2407.8881563696777,-598433.5552086246,13.727233762550156,1.0,0.0
1438.8464282609057,133.87049562764577,2059.08740234375,89.94766235351562,343.62689208984375,-90.0,160157.35988946058,-1020.4331259727478,-579796.8799468226,2435.535368060693,-598433.5214852716,13.814963769909241,1.0,0.0
1452.2767110837158,134.57139787438118,2057.0498046875,89.94406127929688,343.9990234375,-90.0,160160.86431413007,-1020.4587185382843,-579809.845095797,2458.7257670435356,-598433.4720498093,13.888213838816739,1.0,0.0
1468.485663255211,135.4139216987969,2054.6044921875,89.93743896484375,344.4432373046875,-90.0,160165.09370444893,-1020.4897906780243,-579825.4928135875,2486.7358737034956,-598433.4199506067,13.976282042126513,1.0,0.0
1484.7958934501512,136.25801103385135,2052.159423828125,89.93743896484375,344.89337158203125,-90.0,160169.3491468546,-1020.521318435669,-579841.2382419694,2514.944488590001,-598433.4012656036,14.064531953375933,1.0,0.0
1501.2073103648145,137.10366811103236,2049.71435546875,89.93438720703125,345.3419494628906,-90.0,160173.6306563947,-1020.553338766098,-579857.081552919,2543.3525646924973,-598433.329262206,14.152968070414772,1.0,0.0
1514.9612502307864,137.80958691610485,2047.676513671875,89.93438720703125,345.71484375,-90.0,160177.21888402462,-1020.5803427696228,-579870.3593116176,2567.178795231157,-598433.2639001125,14.226806306799801,1.0,0.0
1531.5593162765726,138.6581777724181,2045.2314453125,89.92868041992188,346.1565246582031,-90.0,160181.54894699258,-1020.6131601333618,-579886.3827147341,2595.9548917047214,-598433.1845244482,14.315586329753614,1.0,0.0
1548.259220697335,139.508423073643,2042.7862548828125,89.93743896484375,346.60125732421875,-90.0,160185.90555970257,-1020.6464364528656,-579902.5045647167,2624.9333223684225,-598433.1244440032,14.404558742668826,1.0,0.0
1565.0613886843203,140.36032308116035,2040.341064453125,89.93743896484375,347.04339599609375,-90.0,160190.28852599364,-1020.68008852005,-579918.7250953458,2654.1147675877437,-598433.0827218443,14.493723819334662,1.0,0.0
1581.9657330393093,141.21387101398398,2037.89599609375,89.94406127929688,347.4822082519531,-90.0,160194.69786091338,-1020.7141172885895,-579935.0444785974,2683.500006292714,-598433.013654483,14.583083280357016,1.0,0.0
1598.9726096899249,142.06908586268003,2035.45068359375,89.94766235351562,347.9227600097656,-90.0,160199.13392346227,-1020.7485055923462,-579951.462856353,2713.0898996486794,-598432.9287516258,14.672638769852995,1.0,0.0
1616.0826142691076,142.92600943798774,2033.005615234375,89.94766235351562,348.360595703125,-90.0,160203.5967437354,-1020.7832255363464,-579967.9805725653,2742.8856265749782,-598432.8782253443,14.762392397038639,1.0,0.0
1630.419454919058,143.64140326912525,2030.968017578125,89.9515380859375,348.72564697265625,-90.0,160207.3359005324,-1020.8123326301575,-579981.8211947252,2767.872985062306,-598432.8414393781,14.837338120629681,1.0,0.0
1647.7178380568512,144.50141262062246,2028.5228271484375,89.94766235351562,349.16851806640625,-90.0,160211.84739138794,-1020.847493648529,-579998.52133231,2798.0474145897897,-598432.7727513491,14.927454675417323,1.0,0.0
1665.1199610494077,145.36312201309588,2026.07763671875,89.9515380859375,349.6062316894531,-90.0,160216.38576357497,-1020.8829305171967,-580015.3212307689,2828.429691121797,-598432.6867196101,15.0177716499565,1.0,0.0
1679.7008130186005,146.08253138236347,2024.0400390625,89.94766235351562,349.97735595703125,-90.0,160220.18830558233,-1020.91268658638,-580029.3975741152,2853.90777297609,-598432.628861535,15.093189741594983,1.0,0.0
1697.2927959945519,146.9474101959804,2021.5948486328125,89.94406127929688,350.4183349609375,-90.0,160224.7758761022,-1020.9486448764801,-580046.3809741744,2884.673438244383,-598432.5991221274,15.18387579509482,1.0,0.0
1714.9882198200794,147.81399589703017,2019.149658203125,89.94406127929688,350.8640441894531,-90.0,160229.38991144692,-1020.9848413467407,-580063.4648214001,2915.6489506133366,-598432.5850268736,15.274761946183105,1.0,0.0
1732.7882960473653,148.68223782933748,2016.70458984375,89.93438720703125,351.3183898925781,-90.0,160234.0307313848,-1021.0214419364929,-580080.6493044297,2946.834338656743,-598432.548104173,15.365845108642077,1.0,0.0
1747.7012487037573,149.40703178967905,2014.6669921875,89.93743896484375,351.6929931640625,-90.0,160237.91859510305,-1021.0523355007172,-580095.0467026193,2972.982912708656,-598432.5076679842,15.441897386563426,1.0,0.0
1765.6926132473163,150.27832093547784,2012.2216796875,89.93145751953125,352.1371154785156,-90.0,160242.60878803435,-1021.0898308753967,-580112.4161882809,3004.555134141934,-598432.4429212685,15.533342798229398,1.0,0.0
1783.7887260778807,151.1513148420007,2009.776611328125,89.93145751953125,352.56951904296875,-90.0,160247.32610037466,-1021.1278054714203,-580129.88667036,3036.3399749286473,-598432.3533342932,15.62499107874254,1.0,0.0
1801.989534246386,152.02607806673748,2007.3314208984375,89.940673828125,352.98699951171875,-90.0,160252.07060145136,-1021.1662204265594,-580147.4584460533,3068.3390403634403,-598432.2848060915,15.716846799827351,1.0,0.0
1817.2372336273547,152.75641025318396,2005.2938232421875,89.94406127929688,353.3219299316406,-90.0,160256.0451229175,-1021.1985273361206,-580162.1792949351,3095.169234519126,-598432.2621184844,15.793552061548723,1.0,0.0
1835.630759285763,153.63444059967128,2002.8486328125,89.940673828125,353.71881103515625,-90.0,160260.8393285771,-1021.237606048584,-580179.9373872685,3127.563561116811,-598432.168198552,15.885794471583608,1.0,0.0
1854.1297844313085,154.51425832598352,2000.403564453125,89.93743896484375,354.09930419921875,-90.0,160265.6607288838,-1021.2770125865936,-580197.7973359013,3160.174204556737,-598432.1622492431,15.978243311560732,1.0,0.0
1869.6269380432786,155.24880054294138,1998.3658447265625,89.940673828125,354.4085693359375,-90.0,160269.69928314947,-1021.3102083206177,-580212.7588314824,3187.5160064691445,-598432.1135620254,16.05544727755506,1.0,0.0
1888.319859647425,156.13190267147402,1995.920654296875,89.93743896484375,354.7611389160156,-90.0,160274.5706261165,-1021.3505213260651,-580230.8063322986,3220.5262360081542,-598432.0589598917,16.148287103812947,1.0,0.0
1907.1193174800137,157.0168138707247,1993.4755859375,89.94766235351562,355.1117248535156,-90.0,160279.46922392093,-1021.391232252121,-580248.9563773201,3253.7555288198637,-598432.034997883,16.24133932105218,1.0,0.0
1926.0249829696259,157.903524382823,1991.0302734375,89.94406127929688,355.4447937011719,-90.0,160284.3948411696,-1021.4322845935822,-580267.209247083,3287.2047430152306,-598431.9894772938,16.33460597778145,1.0,0.0
1941.8611263330095,158.64382778137795,1988.99267578125,89.94766235351562,355.71417236328125,-90.0,160288.52065562946,-1021.4667625427246,-580282.4986029398,3315.2475938076386,-598431.9551928226,16.412491451261985,1.0,0.0
1960.9620878372807,159.53384353765992,1986.547607421875,89.9515380859375,356.01806640625,-90.0,160293.4966798722,-1021.508455991745,-580300.9403706022,3349.1020521542523,-598431.8737221546,16.50615241747215,1.0,0.0
1980.169948290917,160.42574619149406,1984.1024169921875,89.94406127929688,356.31683349609375,-90.0,160298.500535072,-1021.5505001544952,-580319.4853252328,3383.1798723166576,-598431.8010538216,16.600036027507315,1.0,0.0
1996.2584353893762,161.17044315653635,1982.064697265625,89.9515380859375,356.5528564453125,-90.0,160302.6913561417,-1021.5857260227203,-580335.0185351506,3411.7491028232034,-598431.8032357291,16.678439874548815,1.0,0.0
2015.66307585279,162.06575744223701,1979.61962890625,89.9515380859375,356.8306579589844,-90.0,160307.74512927514,-1021.6281590461731,-580353.7537301707,3446.2374851059867,-598431.817739486,16.772723391032798,1.0,0.0
2035.1753685779404,162.96281298004172,1977.1744384765625,89.94766235351562,357.1056213378906,-90.0,160312.8262926744,-1021.6708128452301,-580372.5930171838,3480.949195244466,-598431.8129204767,16.867216643216636,1.0,0.0
2051.517665761523,163.71165798225329,1975.1368408203125,89.94406127929688,357.31982421875,-90.0,160317.08159797173,-1021.706629037857,-580388.3720330936,3510.0462202918716,-598431.8066977045,16.94611745582688,1.0,0.0
2071.2277840164024,164.61178961696598,1972.691650390625,89.9515380859375,357.57513427734375,-90.0,160322.2131920075,-1021.7499601840973,-580407.4024687476,3545.167348746094,-598431.7628381802,17.04098403717296,1.0,0.0
2091.0459830398904,165.51360509488674,1970.24658203125,89.95574951171875,357.82110595703125,-90.0,160327.37264386925,-1021.793771982193,-580426.5373887167,3580.5129477625014,-598431.6865408046,17.13605590412692,1.0,0.0
2110.9721980782924,166.417141587934,1967.80126953125,89.96572875976562,358.0531005859375,-90.0,160332.56014058093,-1021.8379173278809,-580445.7769499299,3616.0843301488785,-598431.6054823066,17.231335633641663,1.0,0.0
2127.660330926068,167.17142351806683,1965.763671875,89.9515380859375,358.23516845703125,-90.0,160336.90454513323,-1021.8748593330383,-580461.8899903981,3645.900642479304,-598431.5104075581,17.310897868463087,1.0,0.0
2147.786295416532,168.0782457080604,1963.318603515625,89.95574951171875,358.4381103515625,-90.0,160342.1440471381,-1021.9194967746735,-580481.3218621706,3681.890433742199,-598431.3639212768,17.406576267989692,1.0,0.0
2168.0204819259234,168.98698955477434,1960.8734130859375,89.96044921875,358.62713623046875,-90.0,160347.4119046242,-1021.9643852710724,-580500.8589545332,3718.1113020494813,-598431.2917614237,17.502479644179857,1.0,0.0
2184.966038008686,169.7457190050443,1958.835693359375,89.9720458984375,358.77215576171875,-90.0,160351.8230194186,-1022.0019683837891,-580517.2204655572,3748.4720604087925,-598431.2849639572,17.582568727221144,1.0,0.0
2205.400953884935,170.65787860576,1956.390625,89.96044921875,358.9327087402344,-90.0,160357.14204918453,-1022.0472433567047,-580536.9512410641,3785.117359007476,-598431.2252304666,17.678881195409076,1.0,0.0
2225.9456701698946,171.57183117043004,1953.9454345703125,89.96572875976562,359.06536865234375,-90.0,160362.48932264568,-1022.0927023887634,-580556.7879401146,3821.994185590651,-598431.1567669638,17.77541079666406,1.0,0.0
2246.599830614403,172.48755976134981,1951.500244140625,89.96572875976562,359.1573486328125,-90.0,160367.8649333141,-1022.1383771896362,-580576.730641173,3859.1031299378956,-598431.0515125127,17.872157714772243,1.0,0.0
2263.895595641341,173.25205797052936,1949.462646484375,89.96572875976562,359.20599365234375,-90.0,160372.36649199532,-1022.1765279769897,-580593.4306513687,3890.2057809171965,-598430.9333208936,17.952950107708375,1.0,0.0
2284.7519527627155,174.17113882126048,1947.0174560546875,89.94766235351562,359.24609375,-90.0,160377.79477113578,-1022.2224493026733,-580613.568291002,3927.743632319267,-598430.8547967839,18.0501006362947,1.0,0.0
2305.7184987821383,175.09204917420496,1944.572265625,89.95574951171875,359.2679748535156,-90.0,160383.25144767392,-1022.2687063217163,-580633.8126205488,3965.516745172674,-598430.763545203,18.14747344485852,1.0,0.0
2323.27480024111,175.8608757352275,1942.53466796875,89.94766235351562,359.2843017578125,-90.0,160387.82043996657,-1022.3075137138367,-580650.7644172217,3997.1744457851164,-598430.7144600891,18.228785626304898,1.0,0.0
2344.44441019604,176.78511400618956,1940.089599609375,89.940673828125,359.2928161621094,-90.0,160393.3293743808,-1022.3543109893799,-580671.2049343212,4035.380230676965,-598430.6449519276,18.326561224146815,1.0,0.0
2365.7250468010316,177.71110715506086,1937.644287109375,89.93145751953125,359.2962341308594,-90.0,160398.86709528827,-1022.4013862609863,-580691.7526271685,4073.8222045617877,-598430.5523186004,18.424552751736485,1.0,0.0
2387.117018694291,178.63884938655343,1935.19921875,89.92599487304688,359.2987060546875,-90.0,160404.4335543199,-1022.4488606452942,-580712.4079332284,4112.500987868989,-598430.4528172269,18.522758917904355,1.0,0.0
2405.02870180062,179.4132945503554,1933.16162109375,89.91607666015625,359.29949951171875,-90.0,160409.09433513123,-1022.4886317253113,-580729.7027036865,4144.914614402107,-598430.3641338714,18.60476060053543,1.0,0.0
2426.6253655727487,180.3441927843392,1930.7164306640625,89.90512084960938,359.3085021972656,-90.0,160414.7138603254,-1022.536630153656,-580750.5555129203,4184.028680105228,-598430.2438601626,18.703356241104302,1.0,0.0
2448.3332936904626,181.27680943125273,1928.271240234375,89.897216796875,359.3183288574219,-90.0,160420.36257615624,-1022.5849776268005,-580771.516155712,4223.3813416195335,-598430.0914849634,18.802165722519135,1.0,0.0
2466.5089505527867,182.05533032163507,1926.233642578125,89.88809204101562,359.3299560546875,-90.0,160425.0923738305,-1022.6254901885986,-580789.0659533306,4256.358500939561,-598429.952073034,18.884672670473606,1.0,0.0
2488.422890401911,182.99117372197895,1923.7884521484375,89.8780517578125,113.19136810302734,23.95489501953125,160430.79501247962,-1022.6743550300598,-580810.2249774523,4296.1517253235215,-598429.7944853355,18.983879614833768,1.0,0.0
2510.4527387876296,183.92879401320323,1921.34326171875,89.8658447265625,111.17636108398438,21.924942016601562,160436.527186911,-1022.7234159656442,-580831.4924492377,4336.186709900037,-598429.634087567,19.083305532013867,1.0,0.0
2532.5861024922924,184.86813845437845,1918.898193359375,89.85064697265625,109.66107940673828,20.391769409179688,160442.2888424066,-1022.7726623334468,-580852.8686546874,4376.463197179721,-598429.4771646492,19.18294480494484,1.0,0.0
2551.1220413118135,185.65220411993414,1916.8604736328125,89.83929443359375,108.46192169189453,19.17889404296875,160447.11283036054,-1022.8138756083126,-580870.7653315453,4410.211335514439,-598429.3342132865,19.26613765373213,1.0,0.0
2573.480746997171,186.59458589863928,1914.415283203125,89.81869506835938,107.13227844238281,17.833236694335938,160452.9289307412,-1022.863566499137,-580892.3412784745,4450.930506102042,-598429.1360059532,19.36615897778745,1.0,0.0
2595.926615156699,187.5385847922039,1911.97021484375,89.79827880859375,105.9123306274414,16.59869384765625,160458.77500300205,-1022.9135226429631,-580914.0263863205,4491.891418369021,-598428.9192873953,19.466384734830683,1.0,0.0
2614.7140283996705,188.32647025757706,1909.9326171875,89.77972412109375,104.98712921142578,15.66314697265625,160463.6697321413,-1022.9553565826326,-580932.1808119632,4526.210397506831,-598428.726424531,19.55006083460364,1.0,0.0
2637.38451413007,189.2733749272203,1907.4873046875,89.75689697265625,103.96566772460938,14.63092041015625,160469.57114535407,-1023.0058016132585,-580954.0664583017,4567.615265258122,-598428.477634536,19.650655899262745,1.0,0.0
2660.1682884215843,190.22182734580386,1905.042236328125,89.73092651367188,103.03907012939453,13.693206787109375,160475.50299641822,-1023.0565147830308,-580976.0616949844,4609.262637072243,-598428.20406351,19.751449423923646,1.0,0.0
2683.082683911198,191.17180274016104,1902.5970458984375,89.7032470703125,102.20682525634766,12.8507080078125,160481.46548262602,-1023.1074951309486,-580998.1666601968,4651.152737770579,-598427.9065854985,19.8524390724466,1.0,0.0
2702.233152149827,191.96459387218175,1900.5594482421875,89.6798095703125,101.59497833251953,12.2320556640625,160486.4577656463,-1023.1501812484396,-581016.6713796543,4686.246724059922,-598427.6394004322,19.936745295820913,1.0,0.0
2725.329198685009,192.9172965766304,1898.1142578125,89.64834594726562,100.93421936035156,11.56292724609375,160492.47694418978,-1023.2016473581808,-581038.977850715,4728.582405495457,-598427.2926447041,20.038088895953024,1.0,0.0
2748.5634354033973,193.87145581650407,1895.669189453125,89.61590576171875,100.36322784423828,10.983001708984375,160498.52737160708,-1023.2533791821048,-581061.3944043108,4771.161536324769,-598426.912742161,20.139623172727738,1.0,0.0
2771.8853247795487,194.82705774722592,1893.223876953125,89.5841064453125,99.86358642578125,10.47528076171875,160504.6092922317,-1023.3053771774263,-581083.9211526371,4813.984509735135,-598426.5021234063,20.241346835074694,1.0,0.0
2795.344672480249,195.78409203770352,1890.77880859375,89.55062866210938,99.42674255371094,10.031158447265625,160510.7229371259,-1023.357642029649,-581106.5582109194,4857.051797948661,-598426.0613066986,20.343259086510045,1.0,0.0
2818.891186356661,196.74254821116685,1888.3336181640625,89.51583862304688,99.04521179199219,9.64227294921875,160516.86854096362,-1023.4101746383826,-581129.3056920291,4900.363877917407,-598425.5890142366,20.445359237207356,1.0,0.0
2842.576378033031,197.7024166711586,1885.888427734375,89.47998046875,98.71444702148438,9.30426025390625,160523.04634733815,-1023.4629756614241,-581152.1637049799,4943.921241182834,-598425.0839349909,20.547646694147033,1.0,0.0
2866.3736379951006,198.66368891814238,1883.443359375,89.4443359375,98.4197006225586,9.00244140625,160529.25660599605,-1023.5160476807238,-581175.1323563303,4987.724396495498,-598424.5452150528,20.650120950401742,1.0,0.0
2890.283698846237,199.62635724413767,1880.9981689453125,89.4068603515625,98.15553283691406,8.731658935546875,160535.49956866278,-1023.5693942765831,-581198.2117497944,5031.77385852451,-598423.9728379092,20.752781526012484,1.0,0.0
2914.325114420848,200.5904154624341,1878.552978515625,89.369140625,97.91983032226562,8.489532470703125,160541.77549144716,-1023.6230171759544,-581221.4019880436,5076.070182311698,-598423.3654426977,20.855628194741428,1.0,0.0
2938.4607761227526,201.5558586641763,1876.10791015625,89.33090209960938,97.70923614501953,8.27276611328125,160548.08463669024,-1023.6769187634941,-581244.7031733327,5120.613944048993,-598422.7222810425,20.958660824583035,1.0,0.0
2962.7087504380615,202.52268243319733,1873.66259765625,89.292236328125,97.51912689208984,8.076171875,160554.42727064725,-1023.7311028179624,-581268.1154016551,5165.405726361438,-598422.042812369,21.06187932259712,1.0,0.0
2987.0700117674423,203.49088409218496,1871.217529296875,89.25323486328125,97.3477554321289,7.898651123046875,160560.8036605279,-1023.7855725161562,-581291.6387715074,5210.446146324626,-598421.3269348039,21.165283749509683,1.0,0.0
3011.561410634313,204.46046195647045,1868.7723388671875,89.21365356445312,97.189453125,7.734710693359375,160567.21407651374,-1023.8403322609441,-581315.2733805107,5255.735845312593,-598420.5740649888,21.268874305650343,1.0,0.0
3036.1734217653284,205.4314145127319,1866.3271484375,89.17361450195312,97.04484558105469,7.584259033203125,160573.65879181912,-1023.895386407705,-581339.019323497,5301.275471338187,-598419.7833467289,21.372651230944825,1.0,0.0
3056.7634353679605,206.24159107927588,1864.28955078125,89.13998413085938,96.93109893798828,7.465972900390625,160579.055789897,-1023.9414920872581,-581358.8927244835,5339.416548653506,-598419.0955136524,21.45927454104958,1.0,0.0
3081.575416869484,207.21505607446792,1861.844482421875,89.0977783203125,96.79003143310547,7.31951904296875,160585.5640643778,-1023.9970955555389,-581382.8430376936,5385.415835611406,-598418.2520765644,21.563392010353084,1.0,0.0
3106.5248624541564,208.18984567258678,1859.399169921875,89.05291748046875,96.65097045898438,7.1751708984375,160592.10728575636,-1024.0530058674758,-581406.9049874933,5431.665865881485,-598417.3714931975,21.667691489424328,1.0,0.0
3131.5624573063105,209.1659116089331,1856.9541015625,89.00634765625,96.51000213623047,7.02923583984375,160598.68580678824,-1024.1092244812003,-581431.0786375531,5478.166362747084,-598416.4374504309,21.77216942419909,1.0,0.0
3152.5333720177878,209.98025459401893,1854.91650390625,88.9661865234375,96.39690399169922,6.91217041015625,160604.19514632804,-1024.1563088123896,-581451.3087100987,5517.108130617766,-598415.6171110844,21.859368895978264,1.0,0.0
3177.803897907608,210.95860699531994,1852.4713134765625,88.91845703125,96.2746353149414,6.7850341796875,160610.8393723431,-1024.2130925000874,-581475.6872765059,5564.068328807247,-598414.5807021878,21.964169612866556,1.0,0.0
3203.1786780975526,211.93822161431436,1850.026123046875,88.8717041015625,96.16719818115234,6.673095703125,160617.51998651834,-1024.270185713847,-581500.1776841853,5611.280481583322,-598413.4909997365,22.069148295822288,1.0,0.0
3224.4269528809236,212.75555640954545,1847.988525390625,88.8326416015625,96.08942413330078,6.5914306640625,160623.11520542594,-1024.3180025306299,-581520.6718392901,5650.817383815418,-598412.5477031149,22.15676897037264,1.0,0.0
3250.0356273230864,213.73757668105858,1845.5433349609375,88.7880859375,96.01083374023438,6.508514404296875,160629.8633874267,-1024.375673112178,-581545.3674703462,5698.495052120066,-598411.3751102841,22.26208339615164,1.0,0.0
3275.748553348123,214.72096262827915,1843.09814453125,88.74478149414062,95.94210052490234,6.43560791015625,160636.648873504,-1024.433667392573,-581570.1751537565,5746.428764862707,-598410.1592457219,22.367586946157644,1.0,0.0
3301.5816014355514,215.70575304555985,1840.653076171875,88.7021484375,95.88208770751953,6.371337890625,160643.47194317562,-1024.4919938261203,-581595.094985883,5794.6200314476155,-598408.9068688076,22.47328356043812,1.0,0.0
3323.2112375482684,216.5275036787362,1838.6153564453125,88.66690063476562,95.83377075195312,6.319580078125,160649.1867314613,-1024.5408574380901,-581615.9472563162,5834.977098665899,-598407.8358527392,22.561513781536974,1.0,0.0
3349.2701293660793,217.5149258421588,1836.170166015625,88.6251220703125,95.77740478515625,6.25933837890625,160656.07938297605,-1024.5998112076743,-581641.0729665833,5883.643675714382,-598406.5166673539,22.667571259897784,1.0,0.0
3375.424241486122,218.50379716576404,1833.72509765625,88.58322143554688,95.72132873535156,6.1993408203125,160663.01039434673,-1024.6591177144821,-581666.311116344,5932.57089345553,-598405.1552912274,22.77382796183946,1.0,0.0
