obs_alt,obs_vel,obs_fuel,obs_pitch,obs_heading,obs_roll,obs_pos_x,obs_pos_y,obs_pos_z,obs_ap,obs_pe,obs_time_to_ap,act_throttle,act_stage
14.326179503346793,2.7782856309322463,2220.996826171875,89.9720458984375,271.3990478515625,-90.0,159784.12007656138,-1018.0171347877148,-578422.1532360471,87.21326099766884,-598435.2677007274,0.28477299180536875,1.0,0.0
14.707239796640351,3.441723163687362,2218.5517578125,89.9720458984375,271.8199462890625,-90.0,159784.22064392548,-1018.0177468603614,-578422.5207827504,87.80580438009929,-598435.2982486141,0.352775608246759,1.0,0.0
15.167999369325116,4.1064701201791385,2216.1064453125,89.96572875976562,272.27325439453125,-90.0,159784.34221334802,-1018.018420478529,-578422.9652185519,88.52372097177431,-598435.3271820929,0.4209128190283309,1.0,0.0
15.708625291124918,4.772528193201431,2213.661376953125,89.96044921875,272.742431640625,-90.0,159784.48483323256,-1018.0191593004528,-578423.4866933359,89.36743669293355,-598435.3545125147,0.4891848749236374,1.0,0.0
16.32927326473873,5.4398979832834735,2211.216064453125,89.96044921875,273.2159423828125,-90.0,159784.64854545917,-1018.0199660716715,-578424.0853601801,90.33737947535701,-598435.3821286052,0.5575919118511479,1.0,0.0
17.030098860384896,6.108581422920197,2208.77099609375,89.9720458984375,273.6866455078125,-90.0,159784.8333810477,-1018.020832741833,-578424.7613716217,91.43397617875598,-598435.4098087763,0.6261342056543526,1.0,0.0
17.811255820444785,6.778579448646651,2206.32568359375,89.96572875976562,274.1505432128906,-90.0,159785.03938197877,-1018.0217622650924,-578425.514882083,92.65765791409649,-598435.4369440946,0.6948119316327279,1.0,0.0
18.672916089533828,7.449893404442863,2203.880615234375,89.96044921875,274.6053466796875,-90.0,159785.2665858964,-1018.0227628743413,-578426.3460422534,94.00885384634603,-598435.4636840143,0.7636253062282208,1.0,0.0
19.6152221650118,8.122524626105625,2201.435546875,89.9720458984375,275.0501403808594,-90.0,159785.51503488174,-1018.023835035241,-578427.2550079003,95.48799694119953,-598435.4894455348,0.8325745474721202,1.0,0.0
20.638337381300516,8.796474338172262,2198.990234375,89.9720458984375,275.4850769042969,-90.0,159785.78476657887,-1018.0249770676854,-578428.2419297128,97.09551975678187,-598435.5154798118,0.9016598577464947,1.0,0.0
21.742421756265685,9.471743112465084,2196.545166015625,89.980224609375,275.9106140136719,-90.0,159786.0758183114,-1018.0261873288217,-578429.306963138,98.83185478893574,-598435.5417490512,0.9708813759717145,1.0,0.0
22.92763300181832,10.148332664243144,2194.10009765625,89.96572875976562,276.32781982421875,-90.0,159786.38822657953,-1018.0274697264794,-578430.4502616557,100.69743837730493,-598435.5669967799,1.0402393633790439,1.0,0.0
23.977393849287182,10.713165767737852,2192.0625,89.9720458984375,276.669677734375,-90.0,159786.66491073393,-1018.0285955241087,-578431.462906714,102.35113534634002,-598435.588548315,1.0981419420540988,1.0,0.0
25.31174972152803,11.392177918567565,2189.6171875,89.96572875976562,277.07403564453125,-90.0,159787.01657473054,-1018.0300162417951,-578432.7500901283,104.45480506320018,-598435.6130572023,1.1677504530975398,1.0,0.0
26.72768520587124,12.07251314378912,2187.172119140625,89.9720458984375,277.47271728515625,-90.0,159787.38971164456,-1018.0315150490168,-578434.1159735392,106.68895907432307,-598435.6377233936,1.2374958985676017,1.0,0.0
28.225349995074794,12.75417262569652,2184.72705078125,89.9720458984375,277.86700439453125,-90.0,159787.78435342,-1018.0330933166805,-578435.5607127962,109.05403743032366,-598435.6618502676,1.3073784861711033,1.0,0.0
29.53595956566278,13.323234563183842,2182.689208984375,89.980224609375,278.1925048828125,-90.0,159788.12967877684,-1018.0344687609139,-578436.82500916,111.12526490201708,-598435.6820049533,1.365718876472215,1.0,0.0
31.183884508092888,14.007324305301685,2180.244140625,89.9720458984375,278.58013916015625,-90.0,159788.56384997087,-1018.0361808372799,-578438.414715779,113.73151284700725,-598435.7062427809,1.4358533577585604,1.0,0.0
32.91399284417275,14.692740729431787,2177.798828125,89.96044921875,278.9654235839844,-90.0,159789.01963765055,-1018.0379576927188,-578440.0837128279,116.46993307443336,-598435.7288716034,1.5061254758329596,1.0,0.0
34.726451892522164,15.379484934116931,2175.353759765625,89.9720458984375,279.3486633300781,-90.0,159789.49709279,-1018.0398064611617,-578441.8321574372,119.34096965647768,-598435.7508191031,1.5765354256007527,1.0,0.0
36.29985150892753,15.952786768047414,2173.316162109375,89.980224609375,279.6670227050781,-90.0,159789.9115427676,-1018.0414099341396,-578443.3499935089,121.83512285980396,-598435.7697488032,1.6353158021592549,1.0,0.0
38.26368553668726,16.641967042225893,2170.87109375,90.0,280.0479736328125,-90.0,159790.42880101592,-1018.0434095656636,-578445.244487946,124.95043841097504,-598435.7931782717,1.7059788393158328,1.0,0.0
40.31031400267966,17.33247801531106,2168.42578125,89.9720458984375,280.42822265625,-90.0,159790.9678139195,-1018.0454834869269,-578447.2188724407,128.19962865661364,-598435.8170061825,1.7767802482240995,1.0,0.0
42.07921631040517,17.90892056689324,2166.38818359375,89.9720458984375,280.744873046875,-90.0,159791.43364320975,-1018.0472667759421,-578448.9253296558,131.00987424165942,-598435.8359604782,1.8358872178861247,1.0,0.0
44.27805288450327,18.601872963857364,2163.943115234375,89.980224609375,281.1246032714844,-90.0,159792.01265632428,-1018.0494714995983,-578451.046572888,134.50566233042628,-598435.8575325385,1.9069427425104664,1.0,0.0
46.56015831010882,19.296157664432823,2161.497802734375,90.0,281.5041809082031,-90.0,159792.6135419215,-1018.0517395550522,-578453.2481423263,138.136591001763,-598435.8800062861,1.978137053081639,1.0,0.0
48.52560642675962,19.875746250253393,2159.460205078125,89.96572875976562,281.820556640625,-90.0,159793.13101190128,-1018.0536769108984,-578455.1442560588,141.2659209165722,-598435.8990059398,2.037571757488365,1.0,0.0
50.96074095892254,20.57247548505799,2157.01513671875,89.9720458984375,282.20025634765625,-90.0,159793.77208549742,-1018.0560567082974,-578457.4934951934,145.1457760866033,-598435.9217685487,2.1090209549578844,1.0,0.0
53.47957205271814,21.27053995239288,2154.56982421875,89.980224609375,282.5798645019531,-90.0,159794.43512828703,-1018.0584935696933,-578459.9235036719,149.16204819385894,-598435.9458700023,2.1806094919597285,1.0,0.0
56.082270395592786,21.969940320150503,2152.124755859375,90.0,282.9595031738281,-90.0,159795.12017883806,-1018.0609924869749,-578462.4344354956,153.3151902568061,-598435.9681826802,2.252337551875314,1.0,0.0
58.315369804622605,22.553795399915455,2150.087158203125,90.0,283.27630615234375,-90.0,159795.70789654873,-1018.0631287900868,-578464.5888068642,156.8810226720525,-598435.9856993133,2.312217679381206,1.0,0.0
61.07222573948093,23.2556466426933,2147.64208984375,89.96044921875,283.6566162109375,-90.0,159796.43341041697,-1018.0657527523252,-578467.2485035765,161.28626978746615,-598436.0075638387,2.3842019306414954,1.0,0.0
63.913408564636484,23.958835935470724,2145.19677734375,89.9720458984375,284.03790283203125,-90.0,159797.18104200554,-1018.0684351606432,-578469.989563076,165.82967159629334,-598436.030425574,2.4563261696619065,1.0,0.0
66.34558241080958,24.545849587543483,2143.1591796875,89.980224609375,284.3556213378906,-90.0,159797.82098854525,-1018.0707163859296,-578472.3360476823,169.72170293843374,-598436.0488259054,2.5165367635916596,1.0,0.0
69.34177380276378,25.25149376370159,2140.714111328125,89.9720458984375,284.73748779296875,-90.0,159798.60926461505,-1018.0735051815535,-578475.2266848771,174.51957330328878,-598436.0703402986,2.5889181035062165,1.0,0.0
72.42273278872017,25.958478030960404,2138.268798828125,89.9720458984375,285.119873046875,-90.0,159799.41977539053,-1018.0763508074123,-578478.1991278327,179.4568931098329,-598436.0911511233,2.6614399254941645,1.0,0.0
75.05506189598236,26.548657634965316,2136.231201171875,90.0,285.4389343261719,-90.0,159800.1122112942,-1018.0787722341155,-578480.738767876,183.67818557529245,-598436.1079222076,2.7219824032792985,1.0,0.0
78.29185866436455,27.25810066577467,2133.7861328125,89.9720458984375,285.822265625,-90.0,159800.96358372652,-1018.081735911397,-578483.8615945828,188.8723539278144,-598436.1280531791,2.7947622215683623,1.0,0.0
81.61387916642707,27.968885154319707,2131.3408203125,89.96044921875,286.2059631347656,-90.0,159801.8372999815,-1018.084763486604,-578487.0666733179,194.20727187837474,-598436.1481854615,2.86768293263043,1.0,0.0
85.02128578571137,28.681010945018944,2128.895751953125,90.0,286.5902099609375,-90.0,159802.73339533378,-1018.0878588503364,-578490.354150214,199.68339583813213,-598436.1687195175,2.940744615364565,1.0,0.0
87.92613226105459,29.275475461573514,2126.858154296875,90.0,286.9110412597656,-90.0,159803.49725810802,-1018.0904852107304,-578493.1567825945,204.35503616486676,-598436.1856122604,3.0017372942163547,1.0,0.0
91.49051245779265,29.990064591432855,2124.4130859375,89.9720458984375,287.2962341308594,-90.0,159804.43447883386,-1018.0936944114181,-578496.5957460641,210.09124926978257,-598436.204969309,3.075058142479861,1.0,0.0
95.14073988550808,30.70599636358965,2121.9677734375,89.96044921875,287.681884765625,-90.0,159805.3941885787,-1018.0969569685075,-578500.1175647216,215.96998107573017,-598436.2238018578,3.1485203933129924,1.0,0.0
98.2482911987463,31.303632528430178,2119.93017578125,89.9720458984375,288.00390625,-90.0,159806.21117105254,-1018.09971578998,-578503.1158128656,220.97812747699209,-598436.2375987943,3.2098471151989543,1.0,0.0
102.05632024095394,32.02202873816711,2117.48486328125,89.980224609375,288.3907470703125,-90.0,159807.2122254328,-1018.1030893439564,-578506.7899158815,227.1193500967929,-598436.2560297011,3.283569163654761,1.0,0.0
105.95066537708044,32.741769206929916,2115.039794921875,89.9720458984375,288.7781066894531,-90.0,159808.23588621995,-1018.1065285878393,-578510.5473224389,233.40440897352528,-598436.2738855671,3.357433071130913,1.0,0.0
109.93146080663428,33.46285675206601,2112.5947265625,89.9720458984375,289.1658935546875,-90.0,159809.28219864314,-1018.1100402588162,-578514.3881671065,239.8337765200995,-598436.2899313207,3.4314392446590887,1.0,0.0
113.99888588872273,34.18528863089932,2110.1494140625,89.9720458984375,289.55413818359375,-90.0,159810.35120536867,-1018.1136182790759,-578518.3126225137,246.40791156352498,-598436.3065000772,3.505587481146165,1.0,0.0
118.15309316583443,34.90906914948059,2107.704345703125,89.9720458984375,289.9429931640625,-90.0,159811.44292761796,-1018.1172520948711,-578522.3208277298,253.1272890754044,-598436.3223715491,3.579878341561084,1.0,0.0
122.39426524634473,35.634196959420606,2105.25927734375,89.9720458984375,290.3316650390625,-90.0,159812.55742459898,-1018.1209376698497,-578526.4129595566,259.99237915617414,-598436.3381551714,3.654311786238736,1.0,0.0
126.72254419676028,36.36067413215228,2102.81396484375,89.9720458984375,290.72100830078125,-90.0,159813.69472082664,-1018.1246752685073,-578530.589164932,267.00365572364535,-598436.3543221483,3.7288881282936472,1.0,0.0
130.39608404389583,36.967101117254145,2100.7763671875,89.96572875976562,291.04541015625,-90.0,159814.65990880484,-1018.127828085995,-578534.1336685588,272.9583888716297,-598436.3686637583,3.7911441614556907,1.0,0.0
134.88449952902738,37.69605137437292,2098.331298828125,89.9720458984375,291.43536376953125,-90.0,159815.83911918616,-1018.1316553933683,-578538.4644202979,280.23889630043413,-598436.3820434014,3.865982727785422,1.0,0.0
139.46046480769292,38.42635151443043,2095.88623046875,89.9720458984375,291.8258361816406,-90.0,159817.04121641204,-1018.1355335993829,-578542.8796934623,287.666920311749,-598436.4028354712,3.940964458897895,1.0,0.0
144.1241755017545,39.158001656898925,2093.44091796875,90.0,292.2167053222656,-90.0,159818.2662348778,-1018.139463244206,-578547.3796585951,295.2429418618558,-598436.422312352,4.016089587373301,1.0,0.0
148.0777310988633,39.76874069706191,2091.4033203125,90.0,292.5426025390625,-90.0,159819.3046168196,-1018.1427833011511,-578551.1944339044,301.66968496213667,-598436.4384437804,4.078803400351717,1.0,0.0
152.90270526963286,40.502865035767265,2088.9580078125,89.9720458984375,292.9342346191406,-90.0,159820.57176803146,-1018.1468303224209,-578555.850059713,309.5182590523036,-598436.4541415783,4.154191648256472,1.0,0.0
157.81586212629918,41.23834065439619,2086.512939453125,89.9720458984375,293.3264465332031,-90.0,159821.86197031444,-1018.1509453227881,-578560.5908113883,317.5161801602226,-598436.4716310416,4.229723697618965,1.0,0.0
162.81738425209187,41.975166977655206,2084.06787109375,89.9720458984375,293.71856689453125,-90.0,159823.17526882348,-1018.1551234519246,-578565.4168586684,325.6639148326358,-598436.4862202771,4.305399667153722,1.0,0.0
167.90743192553055,42.71334585790976,2081.62255859375,90.0,294.1116943359375,-90.0,159824.51168478013,-1018.159364098883,-578570.3283406228,333.9619491120102,-598436.5034934862,4.38121978064504,1.0,0.0
173.08614588808268,43.45287621173998,2079.177490234375,89.9720458984375,294.5050964355469,-90.0,159825.8712525796,-1018.1636653563145,-578575.3254277944,342.4107576003298,-598436.5201278243,4.457184087798794,1.0,0.0
178.35368544922676,44.193756663389664,2076.732421875,89.980224609375,294.8990783691406,-90.0,159827.25402154954,-1018.168023744798,-578580.4082733798,351.01081310014706,-598436.535736037,4.533292567829108,1.0,0.0
183.71025839052163,44.93598952997589,2074.287109375,89.9720458984375,295.29443359375,-90.0,159828.66003604006,-1018.1724536290529,-578585.5770363577,359.76260496955365,-598436.5516107972,4.609545554453291,1.0,0.0
189.1559596650768,45.67957442273477,2071.842041015625,90.0,295.6908874511719,-90.0,159830.0893188821,-1018.1769658943775,-578590.8318773168,368.6666037897812,-598436.5695466986,4.685943095233597,1.0,0.0
194.69098601292353,46.424513136589205,2069.39697265625,90.0,296.08770751953125,-90.0,159831.5418863198,-1018.1815364381436,-578596.172941108,377.7233016847167,-598436.5866132111,4.762485536199506,1.0,0.0
200.31554833543487,47.17080537397452,2066.95166015625,90.0,296.4847717285156,-90.0,159833.01781241887,-1018.1861572733286,-578601.600422357,386.9331843917025,-598436.6036105593,4.839172951554758,1.0,0.0
206.02975176810287,47.91844787805814,2064.506591796875,89.9720458984375,296.88238525390625,-90.0,159834.51712176864,-1018.1908453276518,-578607.1144328314,396.2967132721096,-598436.6169606339,4.916005183815116,1.0,0.0
211.8337142127566,48.667443363896744,2062.061279296875,89.980224609375,297.2810363769531,-90.0,159836.03986032872,-1018.1955953335527,-578612.7151530293,405.81438565137796,-598436.6345891918,4.992982501504116,1.0,0.0
217.72766727558337,49.41779068555158,2059.6162109375,90.0,297.6806640625,-90.0,159837.58604434333,-1018.2004058679703,-578618.402727802,415.48667175963055,-598436.6508055502,5.070104999116495,1.0,0.0
223.71179802366532,50.16949009948671,2057.171142578125,89.96572875976562,298.0804443359375,-90.0,159839.15573631367,-1018.2052800005439,-578624.1773418201,425.31406908587087,-598436.6671646478,5.147372797991068,1.0,0.0
228.76753783528693,50.796939537484675,2055.13330078125,90.0,298.4143981933594,-90.0,159840.4817797528,-1018.2093898600104,-578629.0561071142,433.622404948459,-598436.6791556567,5.211873784494003,1.0,0.0
234.9173331373604,51.5511186816823,2052.688232421875,90.0,298.81512451171875,-90.0,159842.09468276272,-1018.2143829411033,-578634.990672328,443.73544117377605,-598436.6862908513,5.28940854325424,1.0,0.0
241.15776190685574,52.30665181037757,2050.2431640625,90.0,299.2153625488281,-90.0,159843.7312484466,-1018.2194283699754,-578641.0126817747,454.0049662570236,-598436.694434165,5.367089131843727,1.0,0.0
246.4274218287319,52.93729747543409,2048.20556640625,90.0,299.54931640625,-90.0,159845.11312187926,-1018.2236828750137,-578646.097947634,462.68279477150645,-598436.7077899525,5.431934381057374,1.0,0.0
252.8343175079208,53.69531238596022,2045.7603759765625,90.0,299.9500732421875,-90.0,159846.79304745077,-1018.2288444882396,-578652.2807410825,473.2404799978249,-598436.7280266415,5.509882400073593,1.0,0.0
259.33227109897416,54.45468059041194,2043.315185546875,89.980224609375,300.350341796875,-90.0,159848.49666451913,-1018.2340600287679,-578658.5514364464,483.9560415522428,-598436.7428554056,5.587976641278431,1.0,0.0
265.92148495593574,55.21539820043057,2040.8699951171875,89.9720458984375,300.75103759765625,-90.0,159850.2240521274,-1018.2393516844276,-578664.9102225688,494.8299483823357,-598436.7548039004,5.666216787841847,1.0,0.0
271.4822635895107,55.85036112232418,2038.832275390625,89.980224609375,301.0865478515625,-90.0,159851.68174301076,-1018.2438190376523,-578670.2766054214,504.0128551067319,-598436.7660311172,5.731528471802562,1.0,0.0
278.23911507206503,56.613556426374245,2036.38720703125,90.0,301.49029541015625,-90.0,159853.45279934796,-1018.2492561137441,-578676.797266878,515.1783514920389,-598436.7779461212,5.810036731647585,1.0,0.0
285.0877077083569,57.378104155701095,2033.9420166015625,89.980224609375,301.8953857421875,-90.0,159855.24774449194,-1018.2547857558492,-578683.4064430366,526.503593464382,-598436.7860918647,5.888691587435915,1.0,0.0
292.0280307511566,58.14400175673379,2031.496826171875,90.0,302.301025390625,-90.0,159857.06666422152,-1018.260374346948,-578690.104268138,537.9890666450374,-598436.7867542183,5.9674929825091,1.0,0.0
297.8819610697683,58.78328364833416,2029.459228515625,90.0,302.638916015625,-90.0,159858.60075614048,-1018.2650613879922,-578695.7536394265,547.6830641281558,-598436.7901727243,6.033272958465545,1.0,0.0
304.9911562135676,59.55166443572438,2027.0140380859375,89.9720458984375,303.0443420410156,-90.0,159860.46368652364,-1018.2707204019788,-578702.6144395396,559.4636159009533,-598436.801463682,6.112343728080361,1.0,0.0
312.19260106724687,60.32139562803398,2024.5689697265625,89.980224609375,303.4508972167969,-90.0,159862.35062690216,-1018.2764258926871,-578709.564362015,571.4057922121137,-598436.8139731559,6.191561285077853,1.0,0.0
319.48653989692684,61.09247916222691,2022.123779296875,90.0,303.859375,-90.0,159864.26163158086,-1018.2821954583886,-578716.6035542672,583.510098717059,-598436.8220107341,6.270926077360059,1.0,0.0
326.87310780468397,61.86491306671893,2019.6785888671875,90.0,304.2681884765625,-90.0,159866.19678955758,-1018.288005689359,-578723.732193575,595.7770393977407,-598436.8244127079,6.350438063770753,1.0,0.0
334.3524882401107,62.63869924565612,2017.2333984375,89.980224609375,304.67816162109375,-90.0,159868.15612044433,-1018.2938821857932,-578730.9503974887,608.2070939841215,-598436.8264555952,6.430097464154301,1.0,0.0
341.9247639965033,63.41383859599478,2014.788330078125,89.980224609375,305.0895690917969,-90.0,159870.13968015544,-1018.2998098975185,-578738.2583349417,620.8007889575092,-598436.8244538743,6.509904586104085,1.0,0.0
349.59023669187445,64.19032928269404,2012.3431396484375,89.9720458984375,305.5014343261719,-90.0,159872.14756764358,-1018.3057760542396,-578745.6561716484,633.558610352804,-598436.8223327346,6.589859291647031,1.0,0.0
357.3488915647613,64.96817697859733,2009.89794921875,90.0,305.91546630859375,-90.0,159874.1797726563,-1018.3118242716554,-578753.144059852,646.4810866462067,-598436.822892593,6.669962237695415,1.0,0.0
365.20101000205614,65.74737904249054,2007.452880859375,90.0,306.32720947265625,-90.0,159876.2363180248,-1018.3179422563079,-578760.7221601409,659.568701014854,-598436.824711059,6.750213319581746,1.0,0.0
373.14677314425353,66.52793463185931,2005.007568359375,89.980224609375,306.7377624511719,-90.0,159878.31724648952,-1018.3241099959376,-578768.3906099746,672.8219495568192,-598436.8218688988,6.830612721998136,1.0,0.0
379.8398305288283,67.17943406152695,2002.969970703125,90.0,307.07867431640625,-90.0,159880.0700329181,-1018.3292979395154,-578774.8501431706,683.9932466292521,-598436.8182357041,6.897725830849367,1.0,0.0
387.9576161666773,67.96247549377559,2000.52490234375,90.0,307.4881286621094,-90.0,159882.1957796981,-1018.3355865126613,-578782.6846994273,697.5514912321232,-598436.8235904353,6.978397583702019,1.0,0.0
396.1694844189333,68.746871720646,1998.0797119140625,90.0,307.8985595703125,-90.0,159884.34602110568,-1018.3419278508189,-578790.6100837749,711.2768294387497,-598436.8270692852,7.059218117616524,1.0,0.0
404.4755278794328,69.53262251790055,1995.634521484375,90.0,308.3086853027344,-90.0,159886.5207998814,-1018.3483123427394,-578798.626433673,725.16974594153,-598436.8206768126,7.140187741673174,1.0,0.0
411.46929722151253,70.18844891749754,1993.596923828125,90.0,308.6531677246094,-90.0,159888.3518916008,-1018.3536706214908,-578805.3763325885,736.8755449336022,-598436.8190863604,7.2077760851191215,1.0,0.0
419.9485295289196,70.97668247328247,1991.1517333984375,89.9720458984375,309.0673522949219,-90.0,159890.5717744045,-1018.3601375764373,-578813.5598603324,751.0769866831833,-598436.8147622925,7.289018873553232,1.0,0.0
428.52248655923177,71.76627334394622,1988.70654296875,89.980224609375,309.482177734375,-90.0,159892.81628297895,-1018.3666419034961,-578821.834812263,765.4474454018055,-598436.8154887195,7.370411083054535,1.0,0.0
435.73982761474326,72.42529922933335,1986.6689453125,90.0,309.8301696777344,-90.0,159894.70557644236,-1018.3721040731433,-578828.8005719408,777.5523131587543,-598436.815298578,7.438351937620098,1.0,0.0
444.4877012165962,73.2173700034341,1984.2237548828125,90.0,310.2483825683594,-90.0,159896.99537258586,-1018.3787233775619,-578837.2435643876,792.2339424352394,-598436.8139610995,7.520017859730558,1.0,0.0
453.33072719851043,74.01079136226303,1981.778564453125,90.0,310.66778564453125,-90.0,159899.30993589576,-1018.3854504471782,-578845.7784248741,807.0860048853792,-598436.8051676938,7.601833231687749,1.0,0.0
460.77279983169865,74.67301035671822,1979.740966796875,90.0,311.018798828125,-90.0,159901.25772677074,-1018.3911294287208,-578852.9611051726,819.5933101171395,-598436.7988504919,7.67012710161498,1.0,0.0
469.7907458419213,75.4689157353347,1977.2958984375,90.0,311.43890380859375,-90.0,159903.6178507836,-1018.3980317359927,-578861.6647647666,834.759191267658,-598436.7945003993,7.7522172086908085,1.0,0.0
478.90420354437083,76.26617343698291,1974.8507080078125,90.0,311.85992431640625,-90.0,159906.00284032026,-1018.4050202613834,-578870.4607394724,850.0969735237304,-598436.7827035302,7.834457369321171,1.0,0.0
488.11355900915805,77.0647895216327,1972.405517578125,90.0,312.2810974121094,-90.0,159908.41281424294,-1018.41211768446,-578879.3491718759,865.6071952939965,-598436.7737295544,7.9168480894808795,1.0,0.0
495.8612077414291,77.73133597696311,1970.367919921875,90.0,312.6312255859375,-90.0,159910.44016479063,-1018.4180650061134,-578886.8269821312,878.6644499934046,-598436.7724726135,7.985621559382366,1.0,0.0
505.2465279669268,78.53243219411132,1967.9227294921875,89.980224609375,313.0556945800781,-90.0,159912.895895536,-1018.4252328818801,-578895.8853891438,894.4920880852733,-598436.763912329,8.068287763849128,1.0,0.0
514.7279834783403,79.33488490890814,1965.4775390625,89.9720458984375,313.47943115234375,-90.0,159915.37668589613,-1018.4324507063392,-578905.0366810166,910.4936318595428,-598436.7512922243,8.151104943672408,1.0,0.0
522.7030081942212,80.00463215973767,1963.43994140625,89.980224609375,313.8301086425781,-90.0,159917.46318402616,-1018.438479418135,-578912.7338842602,923.9614548786776,-598436.7435823077,8.22023458414759,1.0,0.0
532.3612824038137,80.80956967650191,1960.9947509765625,90.0,314.2529296875,-90.0,159919.9900274716,-1018.4457338100436,-578922.055929243,940.2831237384817,-598436.7309246379,8.303328532392811,1.0,0.0
542.1163836389314,81.61586372632128,1958.549560546875,90.0,314.6757507324219,-90.0,159922.54201219868,-1018.4530209249023,-578931.4713723246,956.7801515222527,-598436.7210001905,8.386573709927802,1.0,0.0
550.3195341122337,82.28881580945054,1956.511962890625,90.0,315.0279235839844,-90.0,159924.68792723087,-1018.4591219669345,-578939.3889654675,970.6620519279968,-598436.710203747,8.456060877425557,1.0,0.0
560.2523863888346,83.09760592431893,1954.0667724609375,89.980224609375,315.45025634765625,-90.0,159927.28615532006,-1018.4664454108241,-578948.9759697269,987.4820162152173,-598436.6930135037,8.53958498869639,1.0,0.0
570.2822404690087,83.90775648804578,1951.6217041015625,90.0,315.8712463378906,-90.0,159929.9096628675,-1018.4737788086894,-578958.6567729001,1004.4788131872192,-598436.6914286851,8.623260800905598,1.0,0.0
580.40945409704,84.71926404236044,1949.176513671875,90.0,316.2928161621094,-90.0,159932.55846274938,-1018.4811246639255,-578968.4315471398,1021.6530001567444,-598436.6718777932,8.70708907832585,1.0,0.0
588.9233338331105,85.39656410255625,1947.138916015625,90.0,316.6412353515625,-90.0,159934.78519505536,-1018.4872351830962,-578976.6490775149,1036.1007626410574,-598436.6524477337,8.777062996811878,1.0,0.0
599.2293711015955,86.21057873471905,1944.693603515625,90.0,317.0641174316406,-90.0,159937.48058022404,-1018.4945952540401,-578986.5965126099,1053.6016364019597,-598436.6457763258,8.861171870028272,1.0,0.0
609.6331538441591,87.02596008867224,1942.24853515625,90.0,317.4903564453125,-90.0,159940.2012931369,-1018.5020525103572,-578996.6383921909,1071.2814440442016,-598436.6417732295,8.94543406368689,1.0,0.0
620.1349254652159,87.8427001554553,1939.803466796875,89.9720458984375,317.9184265136719,-90.0,159942.94742952753,-1018.5095817690852,-579006.7748389344,1089.140659954981,-598436.6359122886,9.029849046067284,1.0,0.0
630.7349327947013,88.66080084867662,1937.358154296875,90.0,318.3482360839844,-90.0,159945.719071658,-1018.5171194320682,-579017.0060847215,1107.1798194121802,-598436.6228589643,9.114417339631473,1.0,0.0
641.4330442672363,89.4802578059446,1934.9130859375,90.0,318.78082275390625,-90.0,159948.51622596657,-1018.5246884768966,-579027.3322156286,1125.399435856496,-598436.6115880174,9.199138391218128,1.0,0.0
650.4233722402714,90.1641738274216,1932.87548828125,90.0,319.1395263671875,-90.0,159950.86672615222,-1018.5310483520988,-579036.0099135846,1140.720632503857,-598436.5911900457,9.26985636991725,1.0,0.0
661.301903005573,90.98612330914311,1930.4302978515625,90.0,319.56634521484375,-90.0,159953.7108263913,-1018.53868865428,-579046.5103446111,1159.2724570169812,-598436.5667090677,9.354859033992113,1.0,0.0
670.4431259555276,91.67212368808163,1928.392578125,90.0,319.92333984375,-90.0,159956.100601006,-1018.5450985377792,-579055.3335517298,1174.87129751686,-598436.5540225237,9.425812090609384,1.0,0.0
681.5029482900864,92.49657914571503,1925.947509765625,90.0,320.3522644042969,-90.0,159958.99178475712,-1018.5528474992278,-579066.0089650482,1193.7572364906082,-598436.5419323948,9.511097513037384,1.0,0.0
690.7951756966067,93.184669352864,1923.909912109375,90.0,320.7084655761719,-90.0,159961.42076000565,-1018.5592978840831,-579074.9781412777,1209.6353260469623,-598436.5255194047,9.582287032714873,1.0,0.0
702.0366381721105,94.01163415466459,1921.464599609375,90.0,321.13800048828125,-90.0,159964.3592117026,-1018.5670833235744,-579085.828977522,1228.8572605770314,-598436.5006465054,9.667856917505901,1.0,0.0
713.3776218185667,94.83997427990727,1919.01953125,89.980224609375,321.56964111328125,-90.0,159967.32347124492,-1018.5749367123607,-579096.7757587446,1248.2632547158282,-598436.4874929121,9.753582282790319,1.0,0.0
724.8179878788069,95.66968541814123,1916.5743408203125,90.0,321.9981689453125,-90.0,159970.31350525175,-1018.5828566497329,-579107.8186172792,1267.853834334528,-598436.4786027073,9.839463089385504,1.0,0.0
734.4278051787987,96.36215981108269,1914.5367431640625,89.980224609375,322.3571472167969,-90.0,159972.82497485494,-1018.5895151442054,-579117.094529931,1284.3207389522577,-598436.4587079104,9.91114992586779,1.0,0.0
746.0510254252004,97.19439146116773,1912.091552734375,90.0,322.78759765625,-90.0,159975.8624928368,-1018.5975359028342,-579128.3139637643,1304.2512100972235,-598436.4333587046,9.997317676037198,1.0,0.0
757.774173591286,98.02801070562107,1909.6463623046875,89.980224609375,323.2191467285156,-90.0,159978.92596971686,-1018.6055962985519,-579139.6299155436,1324.3679267275147,-598436.4255145092,10.083642620752926,1.0,0.0
769.5975796253188,98.8629972249759,1907.2012939453125,89.980224609375,323.6535949707031,-90.0,159982.01533873327,-1018.6137158816817,-579151.0426499359,1344.6712823568378,-598436.4247836509,10.170123178027382,1.0,0.0
779.5269094347022,99.5598749491441,1905.16357421875,90.0,324.01495361328125,-90.0,159984.60966273994,-1018.620518380976,-579160.6272196313,1361.7338255468057,-598436.4071250098,10.242311219551539,1.0,0.0
791.5343367836904,100.39738766326604,1902.718505859375,90.0,324.4510498046875,-90.0,159987.74671185116,-1018.6287393516067,-579172.2177048239,1382.380931294174,-598436.4035039832,10.329080070018051,1.0,0.0
803.6422554476885,101.23627141750246,1900.273193359375,90.0,324.89190673828125,-90.0,159990.90976492743,-1018.6370214766029,-579183.9053104966,1403.2163039150182,-598436.3792784401,10.4160063733068,1.0,0.0
813.809130347101,101.93639723003825,1898.235595703125,90.0,325.2567138671875,-90.0,159993.56567470427,-1018.6439503377441,-579193.7193046412,1420.72334773303,-598436.3627307035,10.488565592557734,1.0,0.0
826.1019240081077,102.77781777550807,1895.79052734375,90.0,325.696533203125,-90.0,159996.77670413794,-1018.6523008888724,-579205.5854396152,1441.9054220420076,-598436.3370806696,10.575782171153776,1.0,0.0
838.4958424463402,103.6206354892104,1893.3453369140625,90.0,326.1352233886719,-90.0,160000.01403439452,-1018.660733455992,-579217.5491922126,1463.277512883884,-598436.3159659078,10.663158534948025,1.0,0.0
848.9014261330012,104.3240515267151,1891.3077392578125,90.0,326.50006103515625,-90.0,160002.7317594422,-1018.6678364223006,-579227.5936539746,1481.2331785851857,-598436.3037056958,10.736094363681218,1.0,0.0
861.4810753087513,105.16943208259956,1888.862548828125,90.0,326.942626953125,-90.0,160006.017150347,-1018.6764136498931,-579239.7367735079,1502.9551774612628,-598436.2849860776,10.823764489424889,1.0,0.0
874.1621308553731,106.01621567701126,1886.4173583984375,90.0,327.3831787109375,-90.0,160009.32890061304,-1018.6850176995757,-579251.9780039939,1524.8688986905618,-598436.2656234134,10.911595704799993,1.0,0.0
886.9450269575464,106.86440672621723,1883.97216796875,90.0,327.8226623535156,-90.0,160012.66697685936,-1018.693646127558,-579264.3174777662,1546.9749500871403,-598436.2349978392,10.999589040859973,1.0,0.0
897.6751950080507,107.57231286761076,1881.9345703125,90.0,328.1899719238281,-90.0,160015.46896263803,-1018.7008404677871,-579274.6755117401,1565.5440465721767,-598436.2087225507,11.073041042470834,1.0,0.0
910.6449525335338,108.4231084288085,1879.4893798828125,89.980224609375,328.6315002441406,-90.0,160018.8555937003,-1018.7094967311385,-579287.1954623782,1588.004395562224,-598436.1817135424,11.16133369480201,1.0,0.0
923.7171201914316,109.27534063661487,1877.044189453125,90.0,329.0747985839844,-90.0,160022.26876152435,-1018.7181597298148,-579299.8141598841,1610.6590296330396,-598436.1625961424,11.249791305696874,1.0,0.0
936.8914172796067,110.1290013975279,1874.59912109375,90.0,329.5150146484375,-90.0,160025.7083466528,-1018.726877445555,-579312.5317430296,1633.508429436246,-598436.1355156029,11.338413820938115,1.0,0.0
947.9482787455199,110.84148563097888,1872.5615234375,90.0,329.88330078125,-90.0,160028.59511189235,-1018.7342469638351,-579323.2053661661,1652.6988972470863,-598436.110734122,11.412392808076902,1.0,0.0
961.3106695709284,111.69779262938273,1870.1163330078125,90.0,330.3290100097656,-90.0,160032.08346786603,-1018.7432180589202,-579336.1045785503,1675.907133604982,-598436.0911752261,11.501320118732508,1.0,0.0
974.776077053044,112.5555474185365,1867.671142578125,90.0,330.7733459472656,-90.0,160035.5985180924,-1018.7522165125373,-579349.1031968461,1699.3120218787808,-598436.063307307,11.590414881557535,1.0,0.0
986.0760089739924,113.27145507578385,1865.633544921875,90.0,331.1478271484375,-90.0,160038.54814250095,-1018.7597647255424,-579360.0114075767,1718.966802220093,-598436.0458596555,11.664788730779378,1.0,0.0
999.7304151382996,114.13187407431501,1863.1883544921875,89.980224609375,331.59356689453125,-90.0,160042.1121667255,-1018.7688520496848,-579373.1926353317,1742.7338594113244,-598436.0155879167,11.754191531677293,1.0,0.0
1013.4882527142763,114.9937425787241,1860.7431640625,90.0,332.0361633300781,-90.0,160045.7028711362,-1018.7779948657516,-579386.4736595606,1766.699213825632,-598435.9976684223,11.84376171251455,1.0,0.0
1027.3493612351594,115.85707586738135,1858.298095703125,90.0,332.48089599609375,-90.0,160049.32048701905,-1018.7872270887855,-579399.8546793591,1790.863750799559,-598435.944499461,11.933502928866858,1.0,0.0
1041.3144696976524,116.72190097116459,1855.8529052734375,90.0,332.92572021484375,-90.0,160052.96511332667,-1018.796626502848,-579413.3358604416,1815.2283056384185,-598435.9013786846,12.023416390906334,1.0,0.0
1055.3833212004974,117.58822324427399,1853.40771484375,90.0,333.37353515625,-90.0,160056.6365907827,-1018.8061135953429,-579426.917387837,1839.7934892752673,-598435.89415633,12.113501800510619,1.0,0.0
1069.5561442024773,118.45602811601063,1850.9625244140625,90.0,333.8277893066406,-90.0,160060.3348461871,-1018.8156621998313,-579440.5994401359,1864.5598053236026,-598435.8773948114,12.203759667519307,1.0,0.0
1081.4465908645652,119.1803369476575,1848.9249267578125,90.0,334.2041931152344,-90.0,160063.43745520667,-1018.8236766999725,-579452.0780934545,1885.3526910222135,-598435.8235092467,12.279108357440236,1.0,0.0
1095.8106623444473,120.05089942173535,1846.479736328125,90.0,334.65472412109375,-90.0,160067.1854018396,-1018.8333304470542,-579465.9448222342,1910.4899498159066,-598435.785627567,12.369687193137509,1.0,0.0
1110.2795380027965,120.92298726126398,1844.03466796875,90.0,335.10693359375,-90.0,160070.96046953587,-1018.8430396264556,-579479.9126128801,1935.8305623597698,-598435.7733713993,12.460442052001781,1.0,0.0
1124.8529781883117,121.79659708270971,1841.5894775390625,90.0,335.55621337890625,-90.0,160074.7625388382,-1018.8528864925864,-579493.981604164,1961.3752648957307,-598435.7425947554,12.551374618792863,1.0,0.0
1137.077897831914,122.52577145568118,1839.5517578125,90.0,335.9329833984375,-90.0,160077.95171241424,-1018.8611668890479,-579505.7832220213,1982.818864140776,-598435.7166122189,12.627287455166936,1.0,0.0
1151.8439988517202,123.4021769073665,1837.106689453125,90.0,336.38995361328125,-90.0,160081.80352969805,-1018.8711017316344,-579520.0382271877,2008.7392979880096,-598435.6951253993,12.718545120177112,1.0,0.0
1166.7153580896556,124.28010982998251,1834.6614990234375,90.0,336.8477783203125,-90.0,160085.68260562653,-1018.8810076659682,-579534.3949763927,2034.8656431150157,-598435.6554696426,12.80998165745632,1.0,0.0
1181.691995864152,125.15957662243048,1832.21630859375,90.0,337.30572509765625,-90.0,160089.58898645698,-1018.8909177130225,-579548.8535094552,2061.1985422909493,-598435.6336232537,12.901596414850303,1.0,0.0
1194.2532869904535,125.89363056574986,1830.1787109375,90.0,337.6893005371094,-90.0,160092.86510395264,-1018.8992119973663,-579560.980270702,2083.300764688989,-598435.622032459,12.978077930418806,1.0,0.0
1209.4237914916594,126.77587695456384,1827.7335205078125,90.0,338.15130615234375,-90.0,160096.82141541285,-1018.9092506116393,-579575.6261023538,2110.013668265776,-598435.5943799531,13.070018252180944,1.0,0.0
1224.7006736287149,127.6596321843557,1825.288330078125,89.9720458984375,338.6130676269531,-90.0,160100.8051629182,-1018.9193971699241,-579590.3743139592,2136.934702104074,-598435.5476177261,13.162136406925697,1.0,0.0
1240.083260626183,128.5449071987377,1822.84326171875,90.0,339.0748291015625,-90.0,160104.81653149764,-1018.9295901006225,-579605.2250647945,2164.064613547758,-598435.5001233177,13.254432948944896,1.0,0.0
1255.5722934463993,129.4317130083258,1820.3980712890625,89.980224609375,339.5330505371094,-90.0,160108.85540169387,-1018.9397959059241,-579620.1784936315,2191.4041525744833,-598435.4493671244,13.346909351189481,1.0,0.0
1271.167954741628,130.32006348198175,1817.952880859375,89.96572875976562,339.9934387207031,-90.0,160112.92191227857,-1018.9501169866088,-579635.2347199274,2218.954155505635,-598435.387033097,13.439567640013024,1.0,0.0
1286.8702971900348,131.2099965204823,1815.5076904296875,89.9720458984375,340.4507141113281,-90.0,160117.01630097593,-1018.9605253284934,-579650.394028854,2246.7159382413374,-598435.3002773835,13.532412557494183,1.0,0.0
1300.0372858943883,131.95285754313247,1813.4700927734375,89.9720458984375,340.82781982421875,-90.0,160120.44976846516,-1018.9691547101501,-579663.1056210122,2270.0134934621165,-598435.2288508222,13.60992944701627,1.0,0.0
1315.9358464394463,132.84582517278315,1811.02490234375,90.0,341.275634765625,-90.0,160124.59536773773,-1018.9794572537902,-579678.4542967399,2298.16677609412,-598435.1803293099,13.703127159958342,1.0,0.0
1331.941531092627,133.74045818325249,1808.579833984375,90.0,341.7269287109375,-90.0,160128.76880411356,-1018.9898106401923,-579693.9066640707,2326.5347773655085,-598435.1384711352,13.796519301720878,1.0,0.0
1345.361739795073,134.48727262044434,1806.5421142578125,90.0,342.1011962890625,-90.0,160132.2679164839,-1018.9985457008842,-579706.8628925695,2350.3395357964328,-598435.0971888903,13.874496835422747,1.0,0.0
1361.5647105560638,135.38500614737336,1804.096923828125,90.0,342.5592041015625,-90.0,160136.49216405375,-1019.0090928023818,-579722.5056519886,2379.1036610722076,-598435.0671272891,13.968250953268523,1.0,0.0
1377.8754700917052,136.28444058997653,1801.65185546875,89.980224609375,343.0196228027344,-90.0,160140.74437987013,-1019.0197207873824,-579738.2526991067,2408.0850010743598,-598435.0446993946,14.062203782806876,1.0,0.0
1394.2944389469922,137.18554992313358,1799.2066650390625,90.0,343.4789123535156,-90.0,160145.02421962793,-1019.0304394310477,-579754.1040596764,2437.2838277483825,-598435.0471365226,14.156352046401821,1.0,0.0
1408.0592547904234,137.93773436487967,1797.1690673828125,90.0,343.8686218261719,-90.0,160148.61192045634,-1019.0393806642059,-579767.3935315564,2461.7826742929174,-598435.0412800414,14.234957638558228,1.0,0.0
1424.6767041112762,138.84182181976573,1794.723876953125,89.980224609375,344.340087890625,-90.0,160152.94283250428,-1019.0500469153884,-579783.4370391215,2491.381124283769,-598435.0172109125,14.329458617615842,1.0,0.0
1441.4028702510986,139.74752507690053,1792.2786865234375,90.0,344.8117370605469,-90.0,160157.3017116085,-1019.0608339255813,-579799.5853971009,2521.198353462387,-598434.9751223165,14.424151617599478,1.0,0.0
1455.4246105287457,140.50351595608586,1790.2410888671875,90.0,345.2034606933594,-90.0,160160.95542142438,-1019.0699834769729,-579813.1226374495,2546.213630567072,-598434.9647895133,14.50320786278371,1.0,0.0
1472.3501526827458,141.41219774715356,1787.7958984375,90.0,345.6717529296875,-90.0,160165.36568899095,-1019.0811190551284,-579829.4638977969,2576.433979601017,-598434.9186704619,14.598253830727288,1.0,0.0
1489.38501466054,142.32253214668486,1785.350830078125,90.0,346.13934326171875,-90.0,160169.80422690965,-1019.0923753922942,-579845.9105917781,2606.8756039439468,-598434.8543297638,14.693496354145907,1.0,0.0
1506.5294072018005,143.23454401071155,1782.9056396484375,90.0,346.60723876953125,-90.0,160174.27100823773,-1019.1037809794906,-579862.4629378028,2637.5394704937935,-598434.822310364,14.78893578982587,1.0,0.0
1520.89983358467,143.99585016501786,1780.867919921875,90.0,346.9963684082031,-90.0,160178.0150325821,-1019.1133879369262,-579876.3374039282,2663.2633888878627,-598434.7739294384,14.868623065478062,1.0,0.0
1538.2449296930572,144.91098403773137,1778.4228515625,90.0,347.46044921875,-90.0,160182.53376914514,-1019.1249881928924,-579893.0838650176,2694.3374709546333,-598434.7479401417,14.964431575314904,1.0,0.0
1555.7001467781374,145.8278234886466,1775.9776611328125,90.0,347.92742919921875,-90.0,160187.08080062256,-1019.1366919225219,-579909.9366667614,2725.6364391695242,-598434.7024631151,15.060443160992293,1.0,0.0
1573.2657025940716,146.74637165364044,1773.532470703125,90.0,348.399658203125,-90.0,160191.65621952884,-1019.1485985463622,-579926.8958887974,2757.1610510419123,-598434.6729748602,15.156656636641856,1.0,0.0
1587.987637288752,147.51314871194703,1771.494873046875,89.980224609375,348.795166015625,-90.0,160195.4907784886,-1019.1586657708648,-579941.1099445788,2783.6047178123845,-598434.6249397675,15.236992283312475,1.0,0.0
1605.755286120344,148.4348753312722,1769.0496826171875,90.0,349.2712097167969,-90.0,160200.11848048796,-1019.1708617156509,-579958.2647719196,2815.5456242259825,-598434.5899784634,15.333583043497924,1.0,0.0
1623.6339318520622,149.3583440240445,1766.6044921875,90.0,349.7525634765625,-90.0,160204.77456872584,-1019.1832625812057,-579975.5265822678,2847.7148046677466,-598434.5630374089,15.430380269221871,1.0,0.0
1638.6175179323182,150.1292339562247,1764.56689453125,90.0,350.15350341796875,-90.0,160208.67650318143,-1019.1937123483184,-579989.9933679436,2874.697422311059,-598434.536680199,15.511203237984262,1.0,0.0
1656.6995877488516,151.05588182033264,1762.1217041015625,90.0,350.6336669921875,-90.0,160213.38491195103,-1019.2063833421233,-580007.4518627694,2907.2868699819082,-598434.515031278,15.608378610422335,1.0,0.0
1674.8930886905873,151.98423982699623,1759.676513671875,89.980224609375,351.1141357421875,-90.0,160218.1219306168,-1019.219272012091,-580025.0180163371,2940.1062454427592,-598434.4897278899,15.705758460050447,1.0,0.0
1690.1394387623295,152.7591673634496,1757.638916015625,89.9720458984375,351.502685546875,-90.0,160222.0914232165,-1019.2300388759139,-580039.7388166136,2967.631898174528,-598434.4360053865,15.787065206653779,1.0,0.0
1708.5373375600902,153.690673649899,1755.19384765625,89.980224609375,351.9624328613281,-90.0,160226.88135612934,-1019.2430912202361,-580057.5026489457,3000.8752681850456,-598434.3439642191,15.884825170432578,1.0,0.0
1727.0472071178956,154.623985805355,1752.7486572265625,90.0,352.40179443359375,-90.0,160231.7004938442,-1019.2564331239226,-580075.3745715914,3034.3521784093464,-598434.2786053708,15.982798747668369,1.0,0.0
1745.6692131638993,155.559137486067,1750.303466796875,89.9720458984375,352.8299560546875,-90.0,160236.548465113,-1019.2700419372085,-580093.3548287128,3068.06387924077,-598434.2497039589,16.080989160498802,1.0,0.0
1761.273695870419,156.33983710302886,1748.265869140625,90.0,353.17974853515625,-90.0,160240.61033309466,-1019.2814725583556,-580108.4213131295,3096.337002790766,-598434.2358153624,16.162981409010456,1.0,0.0
1780.1018933672458,157.27833496883238,1745.8206787109375,90.0,353.5885925292969,-90.0,160245.51112252526,-1019.2953575795653,-580126.6008575226,3130.4811964669498,-598434.1986405918,16.2615713215024,1.0,0.0
1799.0428839670494,158.21864107113282,1743.37548828125,90.0,353.98583984375,-90.0,160250.44091647211,-1019.309433216429,-580144.8892862304,3164.862066823407,-598434.1648511565,16.360377345581583,1.0,0.0
1818.0966344729532,159.16072898277105,1740.930419921875,90.0,354.3714599609375,-90.0,160255.39974068772,-1019.3236050551894,-580163.286943558,3199.4800990193617,-598434.1243547034,16.459397567576673,1.0,0.0
1834.061659637955,159.9471595934743,1738.8927001953125,90.0,354.6780700683594,-90.0,160259.55436222427,-1019.3354725783828,-580178.7018536805,3228.5101200983627,-598434.082072269,16.542078042616765,1.0,0.0
1853.3229782774579,160.89246468178203,1736.447509765625,90.0,355.0414123535156,-90.0,160264.56641209798,-1019.349838251448,-580197.3001960055,3263.5639520169934,-598434.0750379177,16.641484021149836,1.0,0.0
1872.6982633461012,161.8395113378068,1734.00244140625,89.980224609375,355.3929443359375,-90.0,160269.60787517458,-1019.3643658107284,-580216.0082576558,3298.8567435687874,-598434.006312944,16.74110384623299,1.0,0.0
1888.9308746175375,162.6300384077129,1731.9647216796875,89.980224609375,355.6719055175781,-90.0,160273.83147405894,-1019.3765741532806,-580231.6822697,3328.4502099188976,-598433.9312424433,16.824281413767153,1.0,0.0
1908.514722331427,163.58029180704213,1729.51953125,89.980224609375,356.0041809082031,-90.0,160278.92696848078,-1019.3913229650024,-580250.5919515009,3364.182877706713,-598433.8562159025,16.924289614170505,1.0,0.0
1928.212841710425,164.5323038724507,1727.074462890625,89.980224609375,356.3226623535156,-90.0,160284.0519147342,-1019.4061586802962,-580269.6118690849,3400.156601496041,-598433.802973433,17.024509618860577,1.0,0.0
1948.0254706778796,165.48603759899385,1724.6292724609375,89.96044921875,356.62664794921875,-90.0,160289.20633857185,-1019.4211772626403,-580288.7423667571,3436.3718661474995,-598433.732937329,17.124940046892903,1.0,0.0
1964.623188926722,166.28213815334726,1722.5916748046875,89.96044921875,356.8769836425781,-90.0,160293.5243503197,-1019.433921450949,-580304.7690515697,3466.7363124829717,-598433.67073864,17.20879326647139,1.0,0.0
1984.6457808495034,167.23904787100813,1720.146484375,89.94406127929688,357.1550598144531,-90.0,160298.73334533238,-1019.4493715709212,-580324.1026004994,3503.396678476827,-598433.53743301,17.30961415539116,1.0,0.0
2004.7833592743846,168.19776603786823,1717.7012939453125,89.94766235351562,357.4212951660156,-90.0,160303.97261193043,-1019.4648741429809,-580343.546929803,3540.302238510805,-598433.3839013977,17.41065558423611,1.0,0.0
2025.0362306773895,169.1583675205397,1715.256103515625,89.940673828125,357.66925048828125,-90.0,160309.24209622826,-1019.4804211801055,-580363.1024763002,3577.4550065487856,-598433.248408036,17.51192344808652,1.0,0.0
2045.4039754586993,170.1208858967826,1712.81103515625,89.94406127929688,357.89764404296875,-90.0,160314.54171858763,-1019.4960997050765,-580382.7693325056,3614.856336902012,-598433.13810425,17.6134211063233,1.0,0.0
2065.8880203438457,171.08535625950194,1710.3658447265625,89.95574951171875,358.126220703125,-90.0,160319.87142512292,-1019.5120167678359,-580402.5479352388,3652.5079072394874,-598433.0237285139,17.715154228685265,1.0,0.0
2086.4876443807734,172.0518250545424,1707.920654296875,89.9515380859375,358.3392639160156,-90.0,160325.231400863,-1019.5281890576842,-580422.4384437762,3690.411373291048,-598432.9097835211,17.817127699040157,1.0,0.0
2103.7431051690364,172.85878821398165,1705.883056640625,89.9720458984375,358.50567626953125,-90.0,160329.72107004156,-1019.5419049209121,-580439.0994824317,3722.1915409635985,-598432.8154630893,17.90229419267672,1.0,0.0
2124.555693894741,173.82907123702927,1703.4378662109375,89.96572875976562,358.68890380859375,-90.0,160335.136419073,-1019.5585172122481,-580459.195665525,3760.5618331976,-598432.7312452778,18.00472308563309,1.0,0.0
2145.4849410770694,174.8014328456047,1700.99267578125,89.96572875976562,358.8572692871094,-90.0,160340.58183702352,-1019.5752900784972,-580479.4045484237,3799.187951401109,-598432.687942411,18.107399136694255,1.0,0.0
2163.0152718900936,175.61328590518082,1698.955078125,89.96572875976562,358.9765625,-90.0,160345.1426404887,-1019.5894294923309,-580496.3315388574,3831.57197581348,-598432.6583229641,18.19314925265587,1.0,0.0
2184.1592646281933,176.5893067759934,1696.510009765625,89.96572875976562,359.0975036621094,-90.0,160350.6428590065,-1019.6064982360366,-580516.7476971908,3870.6671132957563,-598432.625684969,18.296267288567208,1.0,0.0
2205.4200588477543,177.56721012663405,1694.0648193359375,89.980224609375,359.1800231933594,-90.0,160356.1731979485,-1019.6237491315368,-580537.2772439399,3910.017356339027,-598432.583524255,18.399615945652386,1.0,0.0
2226.79821838357,178.5469942174052,1691.61962890625,89.96572875976562,359.24505615234375,-90.0,160361.7337498291,-1019.6412768310073,-580557.9202587431,3949.6237355626654,-598432.4925110416,18.50319779812446,1.0,0.0
2244.703801863594,179.364928420477,1689.58203125,89.96044921875,359.2796325683594,-90.0,160366.390892297,-1019.6560498422149,-580575.2094723581,3982.8252783116186,-598432.4176535386,18.589693159289197,1.0,0.0
2266.298018438858,180.34821172160107,1687.1368408203125,89.96572875976562,359.2981872558594,-90.0,160372.00730103254,-1019.6740637963775,-580596.0611550736,4022.903907196247,-598432.3457925329,18.693702065958803,1.0,0.0
2288.010614508763,181.33345122946477,1684.691650390625,89.95574951171875,359.302001953125,-90.0,160377.6543056408,-1019.6921610778335,-580617.0267965485,4063.242507906398,-598432.2378103363,18.79795223140377,1.0,0.0
2309.841862880392,182.32061842026766,1682.2464599609375,89.96572875976562,359.29791259765625,-90.0,160383.33194475042,-1019.7104605382445,-580638.1069132405,4103.841113996576,-598432.1679771377,18.90243637842258,1.0,0.0
2331.791411389364,183.30971638512935,1679.8013916015625,89.96044921875,359.29058837890625,-90.0,160389.04013872333,-1019.7290418094161,-580659.3015976642,4144.7008904272225,-598432.1011272605,19.007157346253848,1.0,0.0
2353.8595805729274,184.30074161110448,1677.356201171875,89.95574951171875,359.2848205566406,-90.0,160394.77882079766,-1019.747970694876,-580680.6111144866,4185.822612181888,-598432.0396870938,19.112114940445394,1.0,0.0
2376.047412035754,185.29368725858095,1674.9110107421875,89.94766235351562,359.283203125,-90.0,160400.54834815479,-1019.7671159451965,-580702.0356101076,4227.2073306230595,-598431.9335688618,19.217311972363177,1.0,0.0
2394.6278345488245,186.12261553842706,1672.8734130859375,89.94766235351562,359.2861022949219,-90.0,160405.37998267313,-1019.7831529325011,-580719.977402371,4261.896235377877,-598431.8316620463,19.305158714779395,1.0,0.0
2417.034205839853,187.119045551593,1670.42822265625,89.940673828125,359.2926025390625,-90.0,160411.20600972517,-1019.8026651090148,-580741.6133742321,4303.764064233634,-598431.7812191163,19.410783030894265,1.0,0.0
2439.5597537433496,188.11734722468728,1667.9830322265625,89.93438720703125,359.30645751953125,-90.0,160417.06293356523,-1019.8224561160567,-580763.3650135023,4345.896457932307,-598431.7041507345,19.516641509785927,1.0,0.0
2462.2057727184147,189.11742525492087,1665.537841796875,89.92086791992188,359.3290100097656,-90.0,160422.95076706944,-1019.8423894589904,-580785.2324923344,4388.292126422864,-598431.6345083313,19.62272231877904,1.0,0.0
2484.972146328073,190.11922764610563,1663.0927734375,89.903076171875,359.3510437011719,-90.0,160428.869708143,-1019.8625895923141,-580807.2161421573,4430.951441299054,-598431.4966116764,19.729025317018397,1.0,0.0
2507.8537458860083,191.12271168334638,1660.6475830078125,89.8863525390625,359.3772277832031,-90.0,160434.8198852175,-1019.8831306744682,-580829.3158864939,4473.8738144323,-598431.386907792,19.835540078496194,1.0,0.0
2530.8670138345333,192.12787010831292,1658.202392578125,89.8673095703125,113.27202606201172,23.989990234375,160440.8014916805,-1019.904078277022,-580851.5320300669,4517.060226698988,-598431.2436348127,19.942270230952488,1.0,0.0
2553.993308684556,193.13468403876936,1655.75732421875,89.84677124023438,109.11797332763672,19.827545166015625,160446.81476713423,-1019.9253365618556,-580873.864685087,4560.511203901493,-598431.057982554,20.049214755241962,1.0,0.0
2573.3405012942385,193.97494877615793,1653.7196044921875,89.82754516601562,106.87578582763672,17.578277587890625,160451.8502247967,-1019.9431971114318,-580892.5643244077,4596.922755694599,-598430.8782613567,20.138497523366766,1.0,0.0
2596.6923891801853,194.98477105739286,1651.2744140625,89.80416870117188,104.8909683227539,15.582855224609375,160457.9222247816,-1019.9647906787425,-580915.1109321367,4640.860133173992,-598430.6455926596,20.245831172515125,1.0,0.0
2620.183194331941,195.99623500614055,1648.829345703125,89.77972412109375,103.53239440917969,14.211441040039062,160464.02650376267,-1019.9865617970347,-580937.7744625213,4685.063932071906,-598430.394277064,20.35337718622077,1.0,0.0
2643.7601887480123,197.00933691996715,1646.3841552734375,89.758544921875,102.5000228881836,13.167205810546875,160470.1632170534,-1020.0085241493998,-580960.5550768572,4729.534866062342,-598430.1269134708,20.461135355159513,1.0,0.0
2663.514379336266,197.85482924612123,1644.3465576171875,89.73681640625,101.79817199707031,12.455047607421875,160475.30202798863,-1020.0269759664943,-580979.6284786441,4766.798408520757,-598429.8914315343,20.55109507698876,1.0,0.0
2687.333816737868,198.8708794648266,1641.9013671875,89.70925903320312,101.04234313964844,11.687744140625,160481.4985656981,-1020.0493035714583,-581002.6241721887,4811.759991839761,-598429.6035920106,20.659236777076387,1.0,0.0
2711.2753338102484,199.8884612643792,1639.4561767578125,89.6767578125,100.34573364257812,10.980712890625,160487.72789080444,-1020.0718348736505,-581025.7374154504,4856.988801184343,-598429.2940207733,20.76758086956079,1.0,0.0
2731.2983415621566,200.73756584366862,1637.4185791015625,89.64834594726562,99.80339813232422,10.4290771484375,160492.9442240379,-1020.0907680958568,-581045.088330263,4894.883189938846,-598429.007393736,20.858018046417953,1.0,0.0
2755.4652186851017,201.75778364783432,1634.973388671875,89.611328125,99.2272720336914,9.843475341796875,160499.2343633879,-1020.1136792945748,-581068.4173643577,4940.600521227927,-598428.6221352263,20.96671859207828,1.0,0.0
2779.761741446913,202.77937818027831,1632.5283203125,89.572509765625,98.73191833496094,9.3380126953125,160505.55813660962,-1020.1367996602437,-581091.8642216513,4986.584087077645,-598428.1912191375,21.075607993110907,1.0,0.0
2800.0794488696847,203.63174563241847,1630.4906005859375,89.53945922851562,98.3791275024414,8.97833251953125,160510.85386583323,-1020.1562244204118,-581111.493333881,5025.10731458012,-598427.7997597388,21.166492155885976,1.0,0.0
2824.601328795543,204.65582735337017,1628.04541015625,89.49954223632812,98.02962493896484,8.62030029296875,160517.2401056195,-1020.1797225029974,-581135.1564197805,5071.579984452343,-598427.2904148626,21.275724530381638,1.0,0.0
2849.2184327507857,205.6812704085203,1625.600341796875,89.46041870117188,97.74697875976562,8.329803466796875,160523.6608622033,-1020.2034272693182,-581158.9375647772,5118.320529992343,-598426.7381926638,21.38514500954915,1.0,0.0
2869.856956450385,206.53685751468666,1623.5626220703125,89.4283447265625,97.5548324584961,8.131134033203125,160529.03806538475,-1020.2233430600028,-581178.8454361212,5157.476334380219,-598426.2492107237,21.476473610553967,1.0,0.0
2894.7169921941822,207.56483611752748,1621.1175537109375,89.388671875,97.3619155883789,7.931121826171875,160535.52282943722,-1020.2474365679129,-581202.8432661407,5204.710599706392,-598425.6288715843,21.58624334918278,1.0,0.0
2919.6988578547025,208.59422069507622,1618.67236328125,89.35049438476562,97.20765686035156,7.77032470703125,160542.0429032169,-1020.2717479120126,-581226.9594249707,5252.215692226891,-598424.9697842246,21.696206649073588,1.0,0.0
2944.8096395162866,209.6250271133717,1616.2271728515625,89.31271362304688,97.0748519897461,7.63079833984375,160548.5985456557,-1020.2962862018345,-581251.1940177452,5299.992643368314,-598424.2777940149,21.806365133686995,1.0,0.0
2970.0332171539776,210.65726338737147,1613.781982421875,89.27447509765625,96.95614624023438,7.50567626953125,160555.1900019224,-1020.321059175191,-581275.5471528663,5348.042365653906,-598423.5526425866,21.916720040895086,1.0,0.0
2995.3962113219313,211.69093097783045,1611.3369140625,89.2353515625,96.84468078613281,7.38836669921875,160561.8175291223,-1020.3460743476932,-581300.018938829,5396.365646762541,-598422.792473321,22.027272039654463,1.0,0.0
3020.8715204726905,212.72602366999658,1608.8917236328125,89.19546508789062,96.72944641113281,7.267578125,160568.48138768578,-1020.3713408020825,-581324.6094821543,5444.96309531969,-598421.9967995294,22.138020895554234,1.0,0.0
3046.4593872555997,213.76253164010967,1606.446533203125,89.15536499023438,96.6158447265625,7.1485595703125,160575.18185233162,-1020.3968637136699,-581349.3188816394,5493.835258954554,-598421.1621953058,22.248966213701124,1.0,0.0
3067.887269894476,214.6273612344654,1604.408935546875,89.12060546875,96.52147674560547,7.04974365234375,160580.7937446782,-1020.4183292795489,-581370.0009102904,5534.772277196869,-598420.43537904,22.341570260209323,1.0,0.0
3093.7258894470287,215.66643291635134,1601.9637451171875,89.07846069335938,96.41368103027344,6.936981201171875,160587.5620807999,-1020.444332216645,-581394.9284588513,5584.149340811069,-598419.5253115095,22.452873820073307,1.0,0.0
3119.6777937266743,216.70689337797018,1599.5185546875,89.03591918945312,96.30573272705078,6.824005126953125,160594.3678880901,-1020.4706051439751,-581419.9751187243,5633.802687624353,-598418.5666540506,22.56437288778693,1.0,0.0
3145.759594079922,217.74874725955553,1597.073486328125,88.99322509765625,96.20409393310547,6.71771240234375,160601.21148602988,-1020.4971482760819,-581445.1409754306,5683.733100541402,-598417.5664807428,22.676067821664105,1.0,0.0
3171.9632313784678,218.79199950531856,1594.6282958984375,88.95022583007812,96.11018371582031,6.61895751953125,160608.09317262846,-1020.5239651495992,-581470.4261199498,5733.941431636806,-598416.5244364252,22.787959566604457,1.0,0.0
3198.2789353375556,219.83665242660612,1592.18310546875,88.90673828125,96.0247573852539,6.52899169921875,160615.01325084022,-1020.5510591009875,-581495.8306427402,5784.428478640621,-598415.4402381553,22.900048787668766,1.0,0.0
3224.7506545442156,220.88270612973565,1589.7379150390625,88.8634033203125,95.94327545166016,6.4432373046875,160621.97202355583,-1020.5784370033474,-581521.3546353531,5835.1949899945175,-598414.3136178418,23.012335918885242,1.0,0.0
3251.335665779072,221.9301591830987,1587.292724609375,88.81881713867188,95.86201477050781,6.35784912109375,160628.9698028078,-1020.606106972417,-581546.9981853629,5886.241694972152,-598413.1425638959,23.124821368392702,1.0,0.0
3278.0159024638124,222.97901178456746,1584.84765625,88.7744140625,95.78207397460938,6.27392578125,160636.0069053457,-1020.634072502412,-581572.7613800593,5937.569349892903,-598411.9266147676,23.237505601075895,1.0,0.0
3304.877057919861,224.02926167364885,1582.4024658203125,88.72897338867188,95.7064437866211,6.194366455078125,160643.08365302594,-1020.6623362269789,-581598.6443030811,5989.17865483847,-598410.665164271,23.350388836183754,1.0,0.0
3331.8261135743232,225.08090839297694,1579.957275390625,88.68374633789062,95.63408660888672,6.117919921875,160650.20037239953,-1020.6909027780941,-581624.647040097,6041.070358827012,-598409.3572967843,23.463471509986732,1.0,0.0
3358.9136081098113,226.1339527097143,1577.51220703125,88.63742065429688,95.56452941894531,6.04443359375,160657.35738996082,-1020.7197780146747,-581650.7696734286,6093.245232914225,-598408.0027379327,23.576754140579794,1.0,0.0
3386.1392958570505,227.18839537098867,1575.0670166015625,88.59152221679688,95.49598693847656,5.972198486328125,160664.5550379413,-1020.748967647398,-581677.0122851371,6145.704053410562,-598406.6010136127,23.69023726208411,1.0,0.0
3413.4777877276065,228.24423821330458,1572.621826171875,88.5447998046875,95.4273910522461,5.9000244140625,160671.79364809016,-1020.7784771990175,-581703.3749593254,6198.447622048901,-598405.1520234208,23.803921496759756,1.0,0.0
3440.929573785048,229.3014813281463,1570.1766357421875,88.49740600585938,95.35861206054688,5.827880859375,160679.07355529192,-1020.8083144272756,-581729.857776484,6251.476708920789,-598403.6547746536,23.917807355706884,1.0,0.0
3463.925451192772,230.18358905741533,1568.1390380859375,88.45819091796875,95.30197143554688,5.76861572265625,160685.17194118694,-1020.8334302542173,-581752.0186239851,6295.8863322937395,-598402.3688259681,24.01286690032032,1.0,0.0
3491.609925054363,231.24340718317058,1565.69384765625,88.41046142578125,95.23194122314453,5.6954345703125,160692.52845987838,-1020.8638731094488,-581778.7219095746,6349.441065080697,-598400.7801829171,24.127124573645574,1.0,0.0
