obs_alt,obs_vel,obs_fuel,obs_pitch,obs_heading,obs_roll,obs_pos_x,obs_pos_y,obs_pos_z,obs_ap,obs_pe,obs_time_to_ap,act_throttle,act_stage
11.408742194762453,1.6208472621820496,1436.100341796875,89.51461791992188,22.686189651489258,107.99079895019531,159781.9199699058,-1019.0819748381523,-578419.7448960445,84.04690404317807,-598443.0941021327,0.16613006040603295,1.0,0.0
11.643415764789097,2.1940997827337108,1435.2337646484375,89.3048095703125,24.983911514282227,108.31977844238281,159781.92567356606,-1019.0951151589302,-578419.9867154091,84.39360809663776,-598444.623142605,0.22488512963991525,1.0,0.0
11.947234841878526,2.771865206296191,1434.3671875,89.07296752929688,27.565998077392578,108.63853454589844,159781.93997571905,-1019.1068328360466,-578420.2978901162,84.84441397769842,-598446.1228845739,0.2841023858436529,1.0,0.0
12.320504119852558,3.350987603173619,1433.5006103515625,88.83331298828125,30.9401798248291,109.57693481445312,159781.96292819106,-1019.1143611411003,-578420.6787232466,85.39933786343317,-598447.6473511299,0.343458368120821,1.0,0.0
12.763365740072913,3.931383368561776,1432.6339111328125,88.59652709960938,35.00769805908203,111.13206481933594,159781.99484938194,-1019.115110729113,-578421.1292838688,86.05873607622925,-598449.0782824752,0.402944705332402,1.0,0.0
13.276023253099993,4.513726299830938,1431.767333984375,88.36492919921875,39.770362854003906,113.36398315429688,159782.03671992567,-1019.1073679665474,-578421.6495120204,86.82334684568923,-598450.3279624523,0.462630703493744,1.0,0.0
13.858734642039053,5.098469441241631,1430.9007568359375,88.13681030273438,44.998863220214844,116.06820678710938,159782.08999165377,-1019.0900553206352,-578422.2392801768,87.69401986978482,-598451.339336156,0.5225630601035505,1.0,0.0
14.511795548372902,5.685648681463823,1430.0341796875,87.91259765625,50.383174896240234,118.93991088867188,159782.15633787,-1019.0625361541656,-578422.8984282356,88.67149760841858,-598452.0966392243,0.5827456837338332,1.0,0.0
15.235474749119021,6.275078192213295,1429.1676025390625,87.68997192382812,55.771636962890625,121.82472229003906,159782.23747053125,-1019.0244791249183,-578423.6267740664,89.7563815911999,-598452.6003736279,0.6431597379897198,1.0,0.0
16.16938494774513,6.965603353541185,1428.156494140625,87.43258666992188,61.9326057434082,125.06858825683594,159782.35312617887,-1018.966639671698,-578424.5637013076,91.1587424769532,-598452.8565621213,0.7139369780167613,1.0,0.0
17.046987246139906,7.559685773889698,1427.2900390625,87.21511840820312,67.02777862548828,127.65982055664062,159782.47223894417,-1018.9056771139053,-578425.4412749028,92.47848144627642,-598452.802777773,0.774830397724827,1.0,0.0
17.832872658967972,8.05619969959407,1426.56787109375,87.03720092773438,71.12325286865234,129.6616973876953,159782.58686495866,-1018.8470640520004,-578426.2249503039,93.66164701804519,-598452.5725094143,0.8257241368879704,1.0,0.0
18.84159030416049,8.653726492106129,1425.701171875,86.82952880859375,75.8512191772461,131.86419677734375,159782.7442400635,-1018.7677295545486,-578427.2280143936,95.1819791183807,-598452.0787815634,0.8869733776346038,1.0,0.0
19.922134393593296,9.252977892430788,1424.834716796875,86.62982177734375,80.37947082519531,133.84817504882812,159782.9246786176,-1018.6791087130455,-578428.2992385178,96.81237583560869,-598451.3631371772,0.9484011445055103,1.0,0.0
21.07469748170115,9.85384014060279,1423.968017578125,86.44091796875,84.72466278076172,135.6260223388672,159783.12959945927,-1018.5818699339775,-578429.438433965,98.55324193940032,-598450.4432335185,1.0099959187643321,1.0,0.0
22.090320664923638,10.355749848879594,1423.2459716796875,86.29315185546875,88.21979522705078,136.96090698242188,159783.32001106723,-1018.4948068300632,-578430.4395665671,100.0886604017578,-598449.5327779537,1.0614485348701237,1.0,0.0
23.375404300400987,10.959387135129035,1422.3792724609375,86.12939453125,92.28026580810547,138.4015350341797,159783.5731099064,-1018.3838246802238,-578431.7029672259,102.03311336273327,-598448.2852012712,1.1233315449821362,1.0,0.0
24.733019467326812,11.564495434689185,1421.5126953125,85.98281860351562,96.21255493164062,139.68055725097656,159783.8540636683,-1018.2666224280742,-578433.0339390754,104.08921561716124,-598446.8851670211,1.185367549564205,1.0,0.0
26.163351958268322,12.171084050777186,1420.6461181640625,85.855712890625,100.03076171875,140.80825805664062,159784.16381621614,-1018.1442023629693,-578434.4324042961,106.25743271352258,-598445.3556829009,1.247557568514253,1.0,0.0
27.410976049373858,12.677807835793747,1419.9239501953125,85.76718139648438,103.12130737304688,141.6249542236328,159784.44452584677,-1018.0389923828093,-578435.6493270022,108.15039032301866,-598443.9969815104,1.299510781844731,1.0,0.0
28.975104174460284,13.287503415817445,1419.057373046875,85.68511962890625,106.70646667480469,142.43878173828125,159784.80907348078,-1017.9099791089443,-578437.1714867388,110.52591109706555,-598442.2814203737,1.3620236029049124,1.0,0.0
30.61252149322536,13.899043704443997,1418.1907958984375,85.63433837890625,110.12535858154297,143.03343200683594,159785.2043835282,-1017.7792559305576,-578438.7611912381,113.01548259647097,-598440.4952479191,1.4247279170176625,1.0,0.0
32.32344130286947,14.51220042432606,1417.32421875,85.6187744140625,113.3642807006836,143.38975524902344,159785.63083929627,-1017.6481314340976,-578440.4185489796,115.61932227027137,-598438.6731484488,1.4876002679197882,1.0,0.0
33.80547012516763,15.024239336684676,1416.60205078125,85.6348876953125,115.93770599365234,143.51467895507812,159786.01011352692,-1017.5392530898002,-578441.8514607146,117.8765797392698,-598437.1527011635,1.5401058117632829,1.0,0.0
35.651578394463286,15.639852954320613,1415.7353515625,85.69061279296875,118.90632629394531,143.49041748046875,159786.4938785514,-1017.4095713833717,-578443.6332469338,120.69033205776941,-598435.3473475846,1.6032340989969498,1.0,0.0
37.24648484843783,16.153804066153167,1415.01318359375,85.76718139648438,121.3251724243164,143.3721160888672,159786.92076300402,-1017.3025328854469,-578445.1701155148,123.12287148612086,-598433.8726605258,1.6559389807522962,1.0,0.0
39.228285011369735,16.77166516847276,1414.146728515625,85.89309692382812,124.23258972167969,143.18646240234375,159787.46126218548,-1017.1754514912514,-578447.0770116986,126.14752950752154,-598432.1543829421,1.7193015457580145,1.0,0.0
41.28431343601551,17.390773316526335,1413.280029296875,86.05319213867188,127.2257308959961,143.03439331054688,159788.03220170247,-1017.0499044398216,-578449.0525120151,129.28780694957823,-598430.5073847317,1.7827939828165427,1.0,0.0
43.41470808419399,18.011147713801453,1412.41357421875,86.24462890625,130.40087890625,143.01177978515625,159788.6330913679,-1016.9258491734413,-578451.0968979801,132.54412711330224,-598428.9462672685,1.8464181977013254,1.0,0.0
45.61964913853444,18.63280505061626,1411.546875,86.46319580078125,133.87026977539062,143.22879028320312,159789.26336174257,-1016.803166959658,-578453.2104972625,135.91692306264304,-598427.4857755717,1.910175825668432,1.0,0.0
47.899261789163575,19.255744952676633,1410.6802978515625,86.70437622070312,137.7808380126953,143.82826232910156,159789.92233207796,-1016.6816502550987,-578455.3936565411,139.40658953529783,-598426.1417591425,1.9740667329817825,1.0,0.0
50.253725575632416,19.880113051850454,1409.813720703125,86.96011352539062,142.26133728027344,144.9292755126953,159790.60918246722,-1016.5610325077919,-578457.6467546927,143.0138245371636,-598424.955555373,2.0381055695452233,1.0,0.0
52.683237702120095,20.506304805078287,1408.9471435546875,87.22238159179688,147.45767211914062,146.64376831054688,159791.32264142082,-1016.4410696963218,-578459.9703656383,146.73993576550856,-598423.9888394618,2.102332423888299,1.0,0.0
54.76531668193638,21.02961235629469,1408.2249755859375,87.44061279296875,152.42132568359375,148.603515625,159791.9365704517,-1016.3414177636055,-578461.9610029231,149.93644471198786,-598423.3369411513,2.1560075071972165,1.0,0.0
57.333023014012724,21.65954916910799,1407.3583984375,87.6961669921875,159.2075653076172,151.64620971679688,159792.69554108687,-1016.2220159510521,-578464.4154193676,153.88291838392615,-598422.7215295449,2.2206204664809093,1.0,0.0
59.97649059118703,22.291783050382143,1406.4918212890625,87.94195556640625,167.03907775878906,155.57455444335938,159793.47782093633,-1016.1026347617058,-578466.9419863188,157.9511122368276,-598422.272310763,2.285470237838524,1.0,0.0
62.23744022648316,22.820395051950676,1405.7696533203125,88.13784790039062,174.5011444091797,159.6588592529297,159794.14682284388,-1016.003028366938,-578469.1029830849,161.43476454506163,-598422.0171382598,2.3396922167372622,1.0,0.0
65.02050829213113,23.457085454146515,1404.903076171875,88.36099243164062,184.8282470703125,165.80227661132812,159794.9695124581,-1015.8831245640663,-578471.7632348624,165.728598193964,-598421.8087581637,2.405001738436283,1.0,0.0
67.8801445584977,24.09607489144233,1404.036376953125,88.56442260742188,197.06610107421875,173.73391723632812,159795.8132997746,-1015.7623471955208,-578474.4970951548,170.14627373428084,-598421.7113754548,2.4705486872189226,1.0,0.0
70.81658627162687,24.73678495605474,1403.169921875,88.7379150390625,211.42343139648438,-176.34725952148438,159796.67718383667,-1015.6396636704353,-578477.3050818762,174.68700567504857,-598421.8123903446,2.5362730237415008,1.0,0.0
73.82999841717537,25.378899714960685,1402.30322265625,88.87030029296875,227.97634887695312,-164.36978149414062,159797.56029024898,-1015.5136143902687,-578480.1876326264,179.35050501860678,-598422.0134991723,2.6021431530044197,1.0,0.0
76.92058325500693,26.02243597071414,1401.436767578125,88.94741821289062,246.54067993164062,-150.46835327148438,159798.462799362,-1015.3828582505134,-578483.1448783227,184.13729275320657,-598422.1027077745,2.66816269690338,1.0,0.0
80.08842749428004,26.666699469314047,1400.570068359375,88.9547119140625,265.84625244140625,-135.8389434814453,159799.38566954175,-1015.2462613324074,-578486.1766778451,189.04588231048547,-598422.0201211029,2.7342611583018765,1.0,0.0
83.33359276049305,27.311235154030786,1399.7034912109375,88.88723754882812,283.6990966796875,-122.60719299316406,159800.33003602293,-1015.1026959160713,-578489.2827835837,194.07521101122256,-598421.7627316306,2.800392086093268,1.0,0.0
86.09697778651025,27.84825055099883,1398.9813232421875,88.78372192382812,296.17327880859375,-113.90916442871094,159801.13417183707,-1014.9768879155067,-578491.9277658056,198.35772271314636,-598421.4290343696,2.8554946518877955,1.0,0.0
89.48391403187998,28.492457557735225,1398.11474609375,88.6302490234375,307.8179931640625,-106.69784545898438,159802.12037881388,-1014.8174073437599,-578495.1694355413,203.60611033439636,-598420.9510336199,2.9215997257529693,1.0,0.0
92.94810005719773,29.135909993431103,1397.2481689453125,88.4759521484375,316.3940734863281,-102.46575927734375,159803.13009633345,-1014.6472654084114,-578498.4847773975,208.97213938948698,-598420.4258340452,2.9876311723474487,1.0,0.0
96.48944386700168,29.778711102394915,1396.381591796875,88.33963012695312,322.7503967285156,-100.36522674560547,159804.16372985224,-1014.4654152134804,-578501.8735899575,214.45589198952075,-598419.8038045991,3.0536001794329195,1.0,0.0
100.10789989726618,30.421507070698816,1395.5150146484375,88.2301025390625,327.4981689453125,-99.74093627929688,159805.22201786042,-1014.2717931012062,-578505.3356269554,220.05922339030076,-598419.0522559043,3.1195734914231252,1.0,0.0
103.80352338415105,31.064837593624663,1394.6483154296875,88.15008544921875,331.0079650878906,-100.16030883789062,159806.30575817626,-1014.0669147709755,-578508.8707127874,225.78390420984942,-598418.1867177278,3.1856064550020164,1.0,0.0
107.57640265626833,31.708942689302987,1393.78173828125,88.09823608398438,333.5538635253906,-101.29723358154297,159807.4155711443,-1013.8513591030983,-578512.4787621653,231.6309025590308,-598417.2441642184,3.251723439065188,1.0,0.0
111.42663034296129,32.354402810500446,1392.9151611328125,88.07147216796875,335.275634765625,-102.97891235351562,159808.55183275157,-1013.6257626751808,-578516.159796116,237.6024245469598,-598416.2614228049,3.317983705821632,1.0,0.0
114.69440404023044,32.893512954703,1392.1929931640625,88.06719970703125,336.1809997558594,-104.67906951904297,159809.5190770373,-1013.4305731991676,-578519.2831852922,242.67479235632345,-598415.4328055951,3.373329546669197,1.0,0.0
118.68696208088659,33.54189319740448,1391.326416015625,88.0814208984375,336.6767578125,-107.01870727539062,159810.70425156303,-1013.1883003453163,-578523.0984200833,248.8773149206536,-598414.4394373064,3.439896777281149,1.0,0.0
122.75744666333776,34.19185258102448,1390.4598388671875,88.11477661132812,336.59368896484375,-109.60453796386719,159811.91611751198,-1012.9379031399635,-578526.9871405307,255.20650998083875,-598413.4631018818,3.506629904909232,1.0,0.0
126.20917139493395,34.73467138832592,1389.73779296875,88.1553955078125,336.106689453125,-111.91254425048828,159812.94631761522,-1012.723546240702,-578530.284019715,260.57789418823086,-598412.6734423717,3.5623654147546517,1.0,0.0
130.42296828166582,35.38732330875154,1388.87109375,88.21710205078125,335.052490234375,-114.81306457519531,159814.20676203622,-1012.4601809719948,-578534.3080305277,267.13989498699084,-598411.7620379364,3.629381698182044,1.0,0.0
134.71518156130332,36.04108595666917,1388.0045166015625,88.288330078125,333.5517272949219,-117.75489044189453,159815.4933817663,-1012.1911060551552,-578538.4061617388,273.82819536246825,-598410.9002575161,3.6965156247005098,1.0,0.0
139.08587007399183,36.695955187593455,1387.137939453125,88.36337280273438,331.65875244140625,-120.64395141601562,159816.80586579282,-1011.917396757975,-578542.578613932,280.643129857257,-598410.0924013705,3.7637667670309156,1.0,0.0
143.53526506142225,37.35214946143684,1386.2713623046875,88.4417724609375,329.4824523925781,-123.35527038574219,159818.14392109108,-1011.6397292355446,-578546.825635605,287.5859208412003,-598409.3336924773,3.8311576500519777,1.0,0.0
148.06350213242695,38.00976782893444,1385.40478515625,88.52447509765625,327.02099609375,-125.89707946777344,159819.50731333272,-1011.3585116604713,-578551.1474568644,294.6573902996024,-598408.6196504653,3.898698550157974,1.0,0.0
152.67074370931368,38.66909039758913,1384.5382080078125,88.61419677734375,324.1661376953125,-128.406005859375,159820.89583096336,-1011.0739295224098,-578555.5443393561,301.8591317408718,-598407.9371393946,3.966418443035707,1.0,0.0
157.3572477468988,39.33048094591514,1383.6715087890625,88.71853637695312,320.71923828125,-131.13739013671875,159822.30935906383,-1010.7856838444618,-578560.0165303146,309.19319928914774,-598407.2748209379,4.034354882999878,1.0,0.0
161.3234335576417,39.883551381348454,1382.9493408203125,88.8170166015625,317.1899108886719,-133.83428955078125,159823.50639791056,-1010.5425040463356,-578563.8011217177,315.4078708103625,-598406.7364504124,4.091168149861346,1.0,0.0
166.15604591509327,40.55107203899283,1382.082763671875,88.95114135742188,311.6372985839844,-138.1515655517578,159824.9657060663,-1010.2474214772133,-578568.4123031647,322.9962364586536,-598406.1072025658,4.159741881380228,1.0,0.0
171.06908022484276,41.22256500429377,1381.2161865234375,89.100830078125,303.807861328125,-144.564208984375,159826.4500367096,-1009.94867107667,-578573.0999803143,330.7276525676716,-598405.4798638684,4.2287281166439925,1.0,0.0
175.2250149269821,41.78497875907055,1380.4940185546875,89.229248046875,294.2031555175781,-152.90591430664062,159827.70624921928,-1009.6972348431495,-578577.0651214656,337.27986189117655,-598404.9393184229,4.286511787263805,1.0,0.0
180.28652457136195,42.46248311411431,1379.62744140625,89.36172485351562,276.1004638671875,-169.49453735351562,159829.237075161,-1009.3925072888283,-578581.8940243503,345.27128131804056,-598404.2565860726,4.356125008426886,1.0,0.0
185.42954218271188,43.14222757735853,1378.7608642578125,89.41314697265625,249.08596801757812,164.9347381591797,159830.79375614674,-1009.085091326609,-578586.8003203492,353.40136044914834,-598403.5240858978,4.425974093069385,1.0,0.0
190.65421805356164,43.82356807778609,1377.894287109375,89.32159423828125,221.15797424316406,138.33619689941406,159832.3767059275,-1008.7761552075294,-578591.7841019571,361.66789669776335,-598402.7323990621,4.49599322012341,1.0,0.0
195.96066429524217,44.5057092207633,1377.027587890625,89.10626220703125,201.84304809570312,120.20533752441406,159833.98638934162,-1008.4671590069679,-578596.8453841778,370.0677586912643,-598401.8697190627,4.566101071279888,1.0,0.0
201.34903226594906,45.18776603907731,1376.1611328125,88.82864379882812,190.33807373046875,109.73040771484375,159835.62335264386,-1008.1599166134743,-578601.9840494042,378.5970423221588,-598400.9200794519,4.6362071940781675,1.0,0.0
206.81910857663024,45.86863245393792,1375.29443359375,88.53500366210938,183.3539581298828,103.65419006347656,159837.288223506,-1007.8569571713356,-578607.1998474179,387.2504688994959,-598399.8679781427,4.706198429895835,1.0,0.0
211.4398509914754,46.434089791183986,1374.572265625,88.30059814453125,179.46023559570312,100.45707702636719,159838.69737929455,-1007.609749529734,-578611.6049411485,394.5512713070493,-598398.9117763104,4.764331899701574,1.0,0.0
217.05913773318753,47.10943863994766,1373.705810546875,88.0523681640625,176.23817443847656,97.99766540527344,159840.4149424475,-1007.3211772183327,-578616.9609395062,403.4147371073486,-598397.6874585797,4.83377020898871,1.0,0.0
222.75922527210787,47.781619315923805,1372.839111328125,87.8502197265625,174.0305633544922,96.46353149414062,159842.1618494601,-1007.0426757077125,-578622.392634892,412.3905306502711,-598396.3822890692,4.902890561092647,1.0,0.0
227.5707822367549,48.33970869471124,1372.1170654296875,87.72256469726562,172.7501220703125,95.66062927246094,159843.64028559526,-1006.8189093808082,-578626.9765614802,419.95721082086675,-598395.2538556242,4.960284535906226,1.0,0.0
233.4182775169611,49.00899771519195,1371.2503662109375,87.61959838867188,171.7370147705078,95.09693908691406,159845.441749739,-1006.5607535580543,-578632.5460660697,429.1511577765923,-598393.8831361606,5.029120255340672,1.0,0.0
239.34613543003798,49.67921796076754,1370.3837890625,87.57046508789062,171.1498565673828,94.79739379882812,159847.27302836216,-1006.3140122631935,-578638.1907156252,438.4764323690906,-598392.5278358356,5.098057527467347,1.0,0.0
250.15171899297275,50.350801248274216,1369.5172119140625,87.5726318359375,170.87989807128906,94.6273193359375,159849.1339873476,-1006.0786168316749,-578643.9106771206,447.93560137122404,-598391.2027722904,5.167140518876181,1.0,0.0
255.22037362249102,50.9117560335415,1368.7950439453125,87.61123657226562,170.86270141601562,94.531982421875,159850.7073134559,-1005.8909356335548,-578648.7350318492,455.92222110542934,-598390.126830036,5.224847742466352,1.0,0.0
261.3768857092364,51.58669814662426,1367.928466796875,87.69888305664062,171.0260467529297,94.38961791992188,159852.62217420558,-1005.6755397061256,-578654.5937556166,465.63268875773065,-598388.8738813492,5.294286103496404,1.0,0.0
267.61455368821044,52.26390100732348,1367.0618896484375,87.82858276367188,171.38401794433594,94.1922607421875,159854.56610942454,-1005.4703328350929,-578660.5286237728,475.4834297178313,-598387.6666066807,5.363962327385366,1.0,0.0
269.69600501819514,52.943632968620044,1366.1953125,87.99728393554688,171.89002990722656,93.87649536132812,159856.5388940069,-1005.2746369580177,-578666.5399686523,485.4766625756165,-598386.5018733486,5.433904116095164,1.0,0.0
275.1400638188934,53.51227479647053,1365.47314453125,88.16485595703125,172.42027282714844,93.50804138183594,159858.20475443508,-1005.1182439068702,-578671.6081651545,493.91529413231183,-598385.5682785965,5.492419166047057,1.0,0.0
281.74830505868886,54.19754140327012,1364.6064453125,88.395751953125,173.16885375976562,92.91148376464844,159860.2298687236,-1004.9378125409035,-578677.7608414444,504.1770672015846,-598384.4906449079,5.562940130545826,1.0,0.0
288.43938752578106,54.8866544754958,1363.739990234375,88.6556396484375,173.96136474609375,92.06204223632812,159862.28323304272,-1004.7643096188453,-578683.9912909383,514.5914672523504,-598383.4573299169,5.633862216566797,1.0,0.0
294.07952021376695,55.46429894260585,1363.017822265625,88.88882446289062,174.53903198242188,91.04446411132812,159864.01581182503,-1004.6241872052101,-578689.2431452776,523.3902241588803,-598382.6348479252,5.693316104957034,1.0,0.0
300.9258778168587,56.162371398521664,1362.151123046875,89.1793212890625,174.73919677734375,89.05047607421875,159866.12048937692,-1004.4600922802833,-578695.6177714597,534.0990333862137,-598381.6929673057,5.765169652480438,1.0,0.0
307.8589777406305,56.86575208335585,1361.28466796875,89.47103881835938,173.0812225341797,84.8818359375,159868.25297594207,-1004.2986695507911,-578702.0719472761,544.9732751138508,-598380.7725303175,5.837575298930631,1.0,0.0
314.87938636844046,57.57498557462398,1360.41796875,89.75213623046875,162.72108459472656,71.75007629394531,159870.41355771478,-1004.1385619381813,-578708.6063962267,556.0180826155702,-598379.8186793914,5.910590242617047,1.0,0.0
320.7954599807272,58.169681579602575,1359.69580078125,89.903076171875,3.46456241607666,-90.0,159872.23581931595,-1004.0062300900368,-578714.1134658157,565.3489911677316,-598378.9893808647,5.971819320206123,1.0,0.0
327.9716941402294,58.88610352382966,1358.8292236328125,89.66720581054688,27.006832122802734,-69.1453857421875,159874.4489506235,-1003.8492524365333,-578720.7962776884,576.6898852426093,-598377.9591843935,6.045588286061502,1.0,0.0
335.2304806718603,59.60460856405026,1357.962646484375,89.35470581054688,19.93882942199707,-78.78744506835938,159876.69121979698,-1003.693980906382,-578727.5603926111,588.1827183273854,-598376.8860801382,6.119579986594545,1.0,0.0
342.5714684673585,60.32424639801014,1357.0960693359375,89.026611328125,18.161617279052734,-82.8385009765625,159878.9629527178,-1003.5393902996925,-578734.4058631766,599.8222693642601,-598375.7595949895,6.193697148238471,1.0,0.0
349.9954876679694,61.04355226326184,1356.2294921875,88.69808959960938,17.699995040893555,-85.24288940429688,159881.2646357883,-1003.3837048748878,-578741.3327035825,611.59971063782,-598374.5487000081,6.267790044493552,1.0,0.0
357.50341391575057,61.760652544941216,1355.3629150390625,88.3900146484375,17.668277740478516,-86.91073608398438,159883.5967824067,-1003.2242791394142,-578748.3404951305,623.502927153022,-598373.2287715453,6.341666786597898,1.0,0.0
365.0961236380972,62.47359175917358,1354.496337890625,88.1212158203125,17.767120361328125,-88.1563720703125,159885.95996824355,-1003.0586621502785,-578755.4287520106,635.5184923013439,-598371.8136636812,6.415126221665389,1.0,0.0
372.7738040587865,63.181228579102196,1353.629638671875,87.90594482421875,17.782644271850586,-89.18154907226562,159888.3544142645,-1002.8851001004127,-578762.596742549,647.6374723764602,-598370.3370863708,6.488050382377082,1.0,0.0
380.53603548696265,63.88625324348935,1352.76318359375,87.7510986328125,17.572952270507812,-90.096923828125,159890.78037025884,-1002.7026221493629,-578769.8439283425,659.8758896711515,-598368.810082063,6.560715575718689,1.0,0.0
388.3823705179384,64.59013523904356,1351.896484375,87.65908813476562,17.051071166992188,-90.95291137695312,159893.2379351742,-1002.5108506420997,-578777.1700681527,672.2427056173328,-598367.2756341273,6.633271978483435,1.0,0.0
396.31311138451565,65.29493250349874,1351.030029296875,87.63040161132812,16.23671531677246,-91.7143325805664,159895.72686384653,-1002.3094317654518,-578784.5752467302,684.751438291627,-598365.8012868004,6.705929710847215,1.0,0.0
404.3280934122158,66.00095399585132,1350.163330078125,87.66452026367188,15.144303321838379,-92.37184143066406,159898.24674505193,-1002.0980612973121,-578792.0597277912,697.4045449885307,-598364.4019534186,6.778720263207958,1.0,0.0
412.42825610225555,66.70854802913074,1349.2967529296875,87.76043701171875,13.802825927734375,-92.90491485595703,159900.79705017374,-1001.8765752056984,-578799.6238118346,710.2048192423536,-598363.1013573166,6.851678965192718,1.0,0.0
420.61310588009655,67.418881489001,1348.43017578125,87.91567993164062,12.266414642333984,-93.25302124023438,159903.37709491415,-1001.6452805737404,-578807.2679671394,723.1609373354586,-598361.9316622022,6.92492510585646,1.0,0.0
428.8828100209357,68.13276333970211,1347.5635986328125,88.1248779296875,10.589741706848145,-93.35381317138672,159905.98608242237,-1001.4048192242531,-578814.992828152,736.2795522990637,-598360.9008371535,6.998541738747747,1.0,0.0
437.2371506327763,68.85050895527743,1346.697021484375,88.38165283203125,8.88023853302002,-93.09658813476562,159908.62330371726,-1001.1560666302589,-578822.7990692207,749.5641614188207,-598360.0087532123,7.072561364928504,1.0,0.0
445.67622616980225,69.5725848859444,1345.8304443359375,88.67852783203125,7.412954807281494,-92.20992279052734,159911.28799792405,-1000.9001366833595,-578830.6874206202,763.0194384695496,-598359.2590949299,7.147031951055851,1.0,0.0
454.1998239731183,70.29949371752562,1344.9637451171875,89.00613403320312,6.77802848815918,-90.10902404785156,159913.9794145467,-1000.6384541729835,-578838.6586014403,776.650536248344,-598358.635480197,7.222005666007647,1.0,0.0
462.8078019648092,71.03207126090625,1344.09716796875,89.34808349609375,8.830867767333984,-84.94000244140625,159916.69721684008,-1000.3730275372413,-578846.7134232651,790.4653575462289,-598358.0847838317,7.29756987734811,1.0,0.0
471.50036022858694,71.7703901026517,1343.2305908203125,89.6767578125,22.762962341308594,-67.53305053710938,159919.44130123136,-1000.1061913708595,-578854.852580986,804.4664575341158,-598357.5448672477,7.37373374849534,1.0,0.0
480.3019403931685,72.51317573007246,1342.364013671875,89.80316162109375,102.12371063232422,15.545852661132812,159922.21202495272,-999.8393990734962,-578863.0766766772,818.6463635016698,-598356.9651200776,7.450367649781413,1.0,0.0
489.3298042106908,73.25796372813765,1341.4974365234375,89.509033203125,141.43324279785156,58.576416015625,159925.0097962162,-999.5724427441505,-578871.3859434036,832.9879237231798,-598356.3319173697,7.527218625216733,1.0,0.0
498.4404561849078,74.00304626838592,1340.630859375,89.13656616210938,147.73960876464844,68.41567993164062,159927.8350135544,-999.3055360058693,-578879.7803554608,847.4787338799797,-598355.6223777449,7.604111733116042,1.0,0.0
507.37250344920903,74.7468482889777,1339.76416015625,88.74603271484375,148.81578063964844,72.71487426757812,159930.6883054457,-999.0399224499611,-578888.2596841946,862.1067877096357,-598354.785523959,7.680886383438349,1.0,0.0
514.8839971141424,75.36426621490354,1339.0419921875,88.42047119140625,148.54443359375,74.86412048339844,159933.0882613742,-998.8211800793556,-578895.3902400974,874.3901530023431,-598353.9377358673,7.7446281985402265,1.0,0.0
523.9788127288921,76.0998459903136,1338.175537109375,88.05569458007812,147.7351531982422,76.63818359375,159935.99602565705,-998.5642239788917,-578904.0234419488,889.2222300579306,-598352.6852361592,7.820586319457448,1.0,0.0
533.1615045147482,76.82750775952707,1337.308837890625,87.73455810546875,146.81524658203125,77.93989562988281,159938.93537293773,-998.3154103497413,-578912.7389458996,904.1359587075422,-598351.1985596896,7.8957461607869845,1.0,0.0
540.8801148079801,77.42674324845504,1336.586669921875,87.51336669921875,146.22500610351562,78.90435791015625,159941.4097927031,-998.1153790692238,-578920.0636562575,916.6156369853998,-598349.7712017301,7.957656568056734,1.0,0.0
550.2208248371026,78.13956468420413,1335.72021484375,87.31488037109375,145.95372009277344,80.12605285644531,159944.41020540544,-997.8848874310402,-578928.9262868327,931.6691136233276,-598347.8399110481,8.031320109659646,1.0,0.0
559.6468884730712,78.84860036846877,1334.853515625,87.19613647460938,146.29396057128906,81.52133178710938,159947.44539775897,-997.6651017407326,-578937.8677744162,946.8301437525079,-598345.8031760626,8.10460741096341,1.0,0.0
569.158035835484,79.55859016516256,1333.9869384765625,87.15420532226562,147.2556610107422,83.07575988769531,159950.51523392615,-997.4562794903663,-578946.8879513349,962.1363462819718,-598343.8452662511,8.17800144879476,1.0,0.0
578.7545932942303,80.27107226218192,1333.120361328125,87.18359375,148.77545166015625,84.71406555175781,159953.61889145905,-997.2587430218605,-578955.9873450212,977.6007648848463,-598342.0686229381,8.251657819822015,1.0,0.0
588.4368595042033,80.98690857031781,1332.2537841796875,87.27847290039062,150.75332641601562,86.32424926757812,159956.75512308057,-997.0727479199318,-578965.1666715529,993.2314448170364,-598340.5283395614,8.325663759350618,1.0,0.0
598.2051368938992,81.70659654320956,1331.38720703125,87.4302978515625,153.0174102783203,87.72190856933594,159959.92238284252,-996.8983723858742,-578974.4267445565,1009.033709797659,-598339.2591555372,8.400069522450735,1.0,0.0
606.411665972555,82.30952099276168,1330.6650390625,87.59652709960938,155.01698303222656,88.61001586914062,159962.58437567414,-996.7618005017189,-578982.2059299574,1022.3363635709975,-598338.4032456441,8.462404834750657,1.0,0.0
616.339379812358,83.03683169365314,1329.7984619140625,87.84097290039062,157.57830810546875,89.35891723632812,159965.8046657784,-996.607928965464,-578991.6165397175,1038.461568280938,-598337.5755187589,8.537602981963062,1.0,0.0
626.3546535985079,83.76848300423356,1328.931884765625,88.12945556640625,160.13360595703125,89.5697021484375,159969.05219443832,-996.4641015271095,-579001.1104994486,1054.766631188686,-598336.9207612125,8.613254144284213,1.0,0.0
636.4578756279079,84.50469772119244,1328.065185546875,88.45758056640625,162.72393798828125,89.27903747558594,159972.32603864494,-996.3291165570167,-579010.6885346931,1071.2550146521535,-598336.4128732126,8.689382106341895,1.0,0.0
646.6499863489298,85.24584471019406,1327.19873046875,88.81964111328125,165.24562072753906,88.36927795410156,159975.62560288399,-996.2014577130226,-579020.3514667149,1087.9316772986203,-598336.02674326,8.766025706369078,1.0,0.0
656.9312505900161,85.99324195551883,1326.33203125,89.20449829101562,167.14285278320312,86.27055358886719,159978.95031562512,-996.0791451672462,-579030.1001806634,1104.8100535635604,-598335.752367411,8.843321146419669,1.0,0.0
667.3029521021526,86.74865956667126,1325.465576171875,89.5941162109375,166.38768005371094,80.93002319335938,159982.29978107742,-995.9595753888038,-579039.9356414916,1121.9083098996198,-598335.5624863763,8.921451780473205,1.0,0.0
676.0155131265055,87.38500953860057,1324.743408203125,89.90109252929688,359.7668151855469,-90.0,159985.10981515568,-995.8602540234474,-579048.1989395809,1136.3334473405266,-598335.4107658105,8.987273575805546,1.0,0.0
686.5553178073606,88.15646904152615,1323.876708984375,89.6834716796875,16.32945442199707,-78.80450439453125,159988.50506626046,-995.7405812481788,-579058.1961996442,1153.8550125305774,-598335.1433205109,9.067080981124946,1.0,0.0
697.1880080461269,88.93398389614353,1323.0101318359375,89.29446411132812,13.235994338989258,-87.42376708984375,159991.92641920163,-995.6211068371681,-579068.2827906243,1171.5872208783403,-598334.767115421,9.147527893179529,1.0,0.0
707.9144831029698,89.71534852968611,1322.1435546875,88.89022827148438,14.780835151672363,-91.24888610839844,159995.37477020675,-995.501556132212,-579078.4590029116,1189.5117404146586,-598334.2813030889,9.228387417927934,1.0,0.0
718.7346389183076,90.49841130284842,1321.2769775390625,88.48455810546875,16.924610137939453,-94.20186614990234,159998.85094355166,-995.3801991681007,-579088.7249352392,1207.6098787476076,-598333.6271992746,9.30943993680313,1.0,0.0
729.6485359851504,91.28029859049335,1320.410400390625,88.09442138671875,19.117502212524414,-96.78235626220703,160002.35626491817,-995.2543751934913,-579099.0802356994,1225.8551614143653,-598332.7583156849,9.390391012424857,1.0,0.0
740.6562685238896,92.058036233902,1319.5438232421875,87.7396240234375,21.001174926757812,-99.28892517089844,160005.89189855353,-995.1218869427589,-579109.5242776978,1244.2187945776386,-598331.691694989,9.470933776718368,1.0,0.0
751.7567155999132,92.82865844682229,1318.6771240234375,87.43463134765625,22.510820388793945,-101.70965576171875,160009.4587130458,-994.9810788372902,-579120.0560354074,1262.6707189906156,-598330.4614489579,9.550761541092754,1.0,0.0
761.0775199256605,93.46412718401768,1317.9549560546875,87.22329711914062,23.376571655273438,-103.70286560058594,160012.4553773777,-994.8564450482277,-579128.8987019197,1278.1004612419056,-598329.3467501407,9.616605295990098,1.0,0.0
772.3457147944719,94.22100708854911,1317.08837890625,87.02337646484375,23.96796989440918,-105.93698120117188,160016.0805728995,-994.6974580029396,-579139.588375832,1296.700267427368,-598327.9773720902,9.695045130066774,1.0,0.0
783.7045684057521,94.9735126191086,1316.2218017578125,86.88284301757812,23.956823348999023,-108.0261459350586,160019.7376287921,-994.5276524762062,-579150.3631487247,1315.407729837927,-598326.5732202247,9.773048339095453,1.0,0.0
793.2390575341415,95.59924986517527,1315.4996337890625,86.813232421875,23.43343162536621,-109.68246459960938,160022.80968437192,-994.3775689343361,-579159.4068667649,1331.0981843671761,-598325.3869493795,9.837922433871881,1.0,0.0
804.763017730671,96.35146725144489,1314.633056640625,86.78399658203125,22.240150451660156,-111.52986907958984,160026.52528649583,-994.1866433361915,-579170.3370447448,1350.076591568417,-598324.0171137818,9.915919300446944,1.0,0.0
816.37751143286,97.10474690063194,1313.7664794921875,86.81365966796875,20.401294708251953,-113.27914428710938,160030.27227296692,-993.9833543042091,-579181.3522963222,1369.2150426618755,-598322.7451535356,9.994035969418803,1.0,0.0
828.0824769056635,97.85895249675127,1312.89990234375,86.90206909179688,17.891223907470703,-114.98002624511719,160034.04981488443,-993.7672078350929,-579192.452976417,1388.51248053147,-598321.6180167341,10.072256867107399,1.0,0.0
839.8780060869176,98.61400357797984,1312.033203125,87.04644775390625,14.669540405273438,-116.69410705566406,160037.85695557593,-993.5379121045021,-579203.6394879166,1407.968318152707,-598320.6716918154,10.150572491919661,1.0,0.0
851.7639754144475,99.3703750290104,1311.166748046875,87.24481201171875,10.589842796325684,-118.57981872558594,160041.6923278446,-993.295465205088,-579214.9122274703,1427.5876558360178,-598319.9589417754,10.229030032056642,1.0,0.0
863.7411240601214,100.12940339848383,1310.300048828125,87.48892211914062,5.618462085723877,-120.64971923828125,160045.55432185656,-993.0405041912941,-579226.2720326885,1447.384758316679,-598319.5567099702,10.307764715838516,1.0,0.0
877.829822741216,101.01852086609247,1309.2890625,87.82073974609375,358.3254699707031,-123.62396240234375,160050.09096816872,-992.7286584118751,-579239.6363347325,1470.709634366678,-598319.5000033941,10.399994716131232,1.0,0.0
890.0051252380945,101.7837278408278,1308.4224853515625,88.1358642578125,350.4617004394531,-126.9626235961914,160054.00402848225,-992.4506013134865,-579251.1876929236,1490.8995149795664,-598319.7977918225,10.479372289296407,1.0,0.0
902.2726317185443,102.55264792292888,1307.555908203125,88.47119140625,340.4392395019531,-131.69082641601562,160057.937617628,-992.164289210215,-579262.8289144066,1511.2815004467266,-598320.3977246594,10.559136140060673,1.0,0.0
914.6325021785451,103.32592825252827,1306.6893310546875,88.8128662109375,326.8370361328125,-139.24237060546875,160061.8903430265,-991.8717038372902,-579274.5608718544,1531.8639649676625,-598321.2374204319,10.639355264114727,1.0,0.0
927.0857437694212,104.10572828231982,1305.82275390625,89.1300048828125,306.57708740234375,-152.69415283203125,160065.86103580537,-991.5756699780372,-579286.3846455145,1552.6718960516155,-598322.2656766502,10.720254471966541,1.0,0.0
939.6330405734479,104.89363371347847,1304.9561767578125,89.35562133789062,273.38885498046875,-178.35238647460938,160069.84923467468,-991.2795464733986,-579298.3011811958,1573.7251483505825,-598323.3372562047,10.802002869335752,1.0,0.0
952.2756642360473,105.69080384140747,1304.0894775390625,89.35897827148438,228.4970245361328,144.812744140625,160073.8559686876,-990.9854962567238,-579310.3114337424,1595.0399329016218,-598324.2341201098,10.884728408558146,1.0,0.0
965.0140259524342,106.49433406450039,1303.222900390625,89.10714721679688,193.4866485595703,118.02210998535156,160077.8825957907,-990.6933858136085,-579322.4159138112,1616.5876764941495,-598324.9170892563,10.968133166006965,1.0,0.0
977.8494261212181,107.3010699032628,1302.3563232421875,88.70834350585938,173.05995178222656,105.68330383300781,160081.9308890804,-990.4039799908546,-579334.6146846442,1638.3358018228319,-598325.3064265108,11.051894823040925,1.0,0.0
990.7815419147955,108.10812093875258,1301.48974609375,88.24966430664062,160.14926147460938,100.58291625976562,160086.0032715882,-990.1196076611427,-579346.907288504,1660.253406810807,-598325.2756033324,11.13572001905186,1.0,0.0
1003.8103527126368,108.91184297726883,1300.6231689453125,87.77938842773438,151.11578369140625,98.98983764648438,160090.10261978378,-989.842864725962,-579359.2926892408,1682.299689841806,-598324.7460879834,11.219235753577152,1.0,0.0
1016.9350627257954,109.70887532456268,1299.756591796875,87.3319091796875,144.29916381835938,99.15003967285156,160094.23190101865,-989.5754410962013,-579371.7693938256,1704.4352286178619,-598323.7080740517,11.302095631337068,1.0,0.0
1030.1548752755625,110.49643789107343,1298.889892578125,86.931396484375,138.9848175048828,100.27883911132812,160098.39420073605,-989.318586085215,-579384.3356024921,1726.625864578993,-598322.1286390683,11.384013960215782,1.0,0.0
1043.4682161464589,111.27227242147696,1298.0234375,86.59768676757812,135.04420471191406,102.19012451171875,160102.5923917503,-989.0728928784279,-579396.9890267594,1748.8419797889655,-598320.0461052309,11.464756131523018,1.0,0.0
1056.8741578621557,112.03931136360195,1297.1568603515625,86.33831787109375,132.3905487060547,104.69183349609375,160106.82860745766,-988.8378636578468,-579409.7278160958,1771.1129996796371,-598317.6550349168,11.54461775991183,1.0,0.0
1070.3715991388308,112.79996791666592,1296.290283203125,86.15426635742188,131.00608825683594,107.65373229980469,160111.10394800507,-988.6127583722023,-579422.5507848532,1793.4638097647112,-598315.0802813567,11.623843428025054,1.0,0.0
1083.9599954265868,113.55815616712574,1295.4237060546875,86.03961181640625,130.9317169189453,111.05703735351562,160115.41905364828,-988.3972184399513,-579435.4571532826,1815.9379733275855,-598312.4382320769,11.702833163674086,1.0,0.0
1097.6397283313563,114.31904196986314,1294.5570068359375,85.99453735351562,132.09576416015625,114.82394409179688,160119.77382382625,-988.1922013501076,-579448.4471194941,1838.5956098831957,-598309.8621048084,11.782115810837524,1.0,0.0
1111.4107652084203,115.08406420182816,1293.6904296875,86.010009765625,134.2576141357422,118.731689453125,160124.1676773293,-987.9997193554786,-579461.521309868,1861.454800344305,-598307.4297646855,11.86183721609234,1.0,0.0
1125.2743023182265,115.8533036261326,1292.8238525390625,86.08883666992188,137.32916259765625,122.70805358886719,160128.5996081185,-987.8221432904152,-579474.6805394295,1884.5178961401107,-598305.191660729,11.942003880908771,1.0,0.0
1139.2302034671884,116.62641827904115,1291.957275390625,86.22518920898438,141.30784606933594,126.76335144042969,160133.06847915714,-987.6612984875587,-579487.9255849158,1907.7822509433609,-598303.1727962802,12.022579565314118,1.0,0.0
1153.278978693881,117.40264919803548,1291.0906982421875,86.4140625,146.29962158203125,131.01187133789062,160137.57281160922,-987.5183713177589,-579501.2573222256,1931.2398371469462,-598301.4233205689,12.103483843519655,1.0,0.0
1167.4212343501858,118.1798745936918,1290.22412109375,86.64306640625,152.53857421875,135.681396484375,160142.1106409358,-987.3941628674415,-579514.6763431065,1954.865479167318,-598300.0563062734,12.184492684756606,1.0,0.0
1181.6567759489408,118.95929607757367,1289.357421875,86.89898681640625,160.24058532714844,140.94366455078125,160146.67907313607,-987.2890717724708,-579528.1837923353,1978.6739870945457,-598299.2323604239,12.265723669572651,1.0,0.0
1195.9859508943046,119.74125499540949,1288.490966796875,87.16635131835938,169.50048828125,146.83731079101562,160151.27440283934,-987.2034775952247,-579541.7810609813,2002.6701920160558,-598299.0410137144,12.34720819565689,1.0,0.0
1207.999054703745,120.39516028635013,1287.768798828125,87.39932250976562,178.50205993652344,152.2855987548828,160155.12142863355,-987.1475178936867,-579553.1817642038,2022.8151529512834,-598299.422055329,12.415337676378897,1.0,0.0
1222.5008870651945,121.1818058555248,1286.902099609375,87.6900634765625,190.9849853515625,159.57948303222656,160159.75531995387,-987.0987775067238,-579566.9474510212,2047.1579596676165,-598300.5256992271,12.497284191824292,1.0,0.0
1237.09752413549,121.97152394969756,1286.03564453125,87.98092651367188,206.1101531982422,168.46343994140625,160164.4040438445,-987.0684106091408,-579580.807165955,2071.697743643541,-598302.279001996,12.57953798151982,1.0,0.0
1249.3338921578834,122.63275089831166,1285.3134765625,88.210205078125,221.36705017089844,177.68353271484375,160168.2870503941,-987.05467006959,-579592.4296785645,2092.308932182379,-598304.146069462,12.64840198495466,1.0,0.0
1264.1053562664893,123.43068069766036,1284.44677734375,88.42703247070312,243.67861938476562,-168.29470825195312,160172.95492110163,-987.0478036145118,-579606.4652753046,2117.246606171597,-598306.7804688325,12.731498411125301,1.0,0.0
1278.9727313673357,124.2333264992339,1283.5802001953125,88.5394287109375,270.0483703613281,-151.4144744873047,160177.63019793486,-987.0456273297218,-579620.5984170926,2142.4074977358105,-598309.5963937327,12.8150915940588,1.0,0.0
1293.936633622623,125.04150130332523,1282.713623046875,88.5087890625,297.8545227050781,-134.32437133789062,160182.3132102164,-987.0415818432716,-579634.8298258155,2167.8048112720717,-598312.2508014452,12.899280579667845,1.0,0.0
1306.4812966643367,125.72229208048479,1281.991455078125,88.38577270507812,319.709716796875,-122.27491760253906,160186.22361459633,-987.0324818829445,-579646.7645169985,2189.192565960344,-598314.037837302,12.970226316757135,1.0,0.0
1321.6249788895948,126.54877029289553,1281.1248779296875,88.1551513671875,342.2700500488281,-112.36222839355469,160190.93008177914,-987.0107514599708,-579661.1761379915,2215.140100103221,-598315.2163590705,13.056405956225376,1.0,0.0
1336.8688877405366,127.3844751665849,1280.25830078125,87.86639404296875,0.80363929271698,-107.08355712890625,160195.65910760904,-986.975604746714,-579675.6851259416,2241.384424612741,-598315.1902669267,13.14361226452877,1.0,0.0
1349.6488075812813,128.08417610274324,1279.5361328125,87.6038818359375,13.488900184631348,-105.63578796386719,160199.62237017116,-986.9372040966896,-579687.84946016,2263.4334189690417,-598314.4380552027,13.216670963948218,1.0,0.0
1365.0770548938308,128.9254742337934,1278.6695556640625,87.29412841796875,25.83918571472168,-106.70612335205078,160204.40936186383,-986.8820721844581,-579702.5341303388,2290.0771037180675,-598312.9004336966,13.304559743041523,1.0,0.0
1380.6062358755153,129.76676087633493,1277.802978515625,87.0089111328125,35.625083923339844,-110.01105499267578,160209.2334854545,-986.81976482667,-579717.3132037958,2316.898032407975,-598310.8762046392,13.392489824073152,1.0,0.0
1396.2366055798484,130.606539221459,1276.936279296875,86.7646484375,43.203609466552734,-114.99818420410156,160214.09748178997,-986.7530190686134,-579732.186059746,2343.8758556862595,-598308.4686565276,13.48030204354086,1.0,0.0
1409.3383903191425,131.30530373932035,1276.214111328125,86.6053466796875,47.955753326416016,-120.20535278320312,160218.18242390238,-986.6956937054542,-579744.651056,2366.4775922209956,-598306.3359717717,13.55339213770759,1.0,0.0
1425.1530720304,132.14318458859805,1275.34765625,86.4615478515625,51.87832260131836,-127.47040557861328,160223.12215320749,-986.62667057313,-579759.6942652271,2393.751474283985,-598303.8492159976,13.641050869115475,1.0,0.0
1441.0679537422257,132.97887411067515,1274.48095703125,86.36007690429688,53.95376968383789,-135.56558227539062,160228.10250252704,-986.5583569744972,-579774.8304516013,2421.16985174804,-598301.5339250414,13.728496369480354,1.0,0.0
1454.4066183470422,133.67117356829556,1273.7587890625,86.28997802734375,54.30839157104492,-142.77638244628906,160232.28276336088,-986.501878474131,-579787.5148649218,2444.094422644819,-598299.7428084494,13.800951921976889,1.0,0.0
1470.5045909496257,134.4941702613769,1272.892333984375,86.20770263671875,53.13532638549805,-151.8073272705078,160237.3340309936,-986.4338128308204,-579802.8208504621,2471.653714426793,-598297.7432828131,13.887106561734527,1.0,0.0
1486.6999569499167,135.31198139301088,1272.025634765625,86.08843994140625,50.36497116088867,-161.0474090576172,160242.4221547647,-986.3641545514015,-579818.2184855281,2499.310473768972,-598295.8681442969,13.97273901416753,1.0,0.0
1502.9940807825187,136.12829169451626,1271.1590576171875,85.92230224609375,46.41230773925781,-170.08541870117188,160247.54683761625,-986.2903077343849,-579833.7079107973,2527.115525868954,-598293.9766017045,14.0582377961357,1.0,0.0
1516.646994952578,136.80626826120272,1270.4368896484375,85.76034545898438,42.4538459777832,-177.2335205078125,160251.8458584109,-986.2222745160011,-579846.6853646109,2550.3837497481145,-598292.2125726666,14.129275179330875,1.0,0.0
1533.1197666103253,137.61451595889955,1269.5703125,85.54507446289062,37.20851516723633,174.92286682128906,160257.0402474721,-986.1283528546242,-579862.3410497356,2578.3843642037828,-598289.8780444736,14.213997664906117,1.0,0.0
1549.688829654362,138.41732166314972,1268.7037353515625,85.32861328125,31.452728271484375,167.90362548828125,160262.27347893766,-986.0169617871193,-579878.0860642839,2606.473291472299,-598287.5640215501,14.29817604814366,1.0,0.0
1566.3542703452986,139.21613441471672,1267.837158203125,85.11920166015625,25.21819496154785,161.75704956054688,160267.5447317584,-985.8843056897072,-579893.920395779,2634.6689913644223,-598285.4568046671,14.381951612863531,1.0,0.0
1583.1153822526103,140.0126286678365,1266.9705810546875,84.917236328125,18.535694122314453,156.5379638671875,160272.85176326722,-985.726659510508,-579909.8441281089,2662.993719042628,-598283.7133873542,14.465490327654948,1.0,0.0
1599.972088090144,140.81142154916049,1266.1038818359375,84.74041748046875,11.302549362182617,152.11676025390625,160278.1921776431,-985.5401932934669,-579925.8578691534,2691.514071947313,-598282.3786708665,14.549268962653457,1.0,0.0
1616.9250547682168,141.61380736738616,1265.2373046875,84.60382080078125,3.464798927307129,148.36917114257812,160283.56309379116,-985.3211991528419,-579941.963108715,2720.2495032036677,-598281.5988667447,14.633414647099244,1.0,0.0
1633.9744134866633,142.4206381402119,1264.3707275390625,84.52069091796875,354.8463439941406,145.01210021972656,160288.96050605644,-985.066518519297,-579958.1612922837,2749.2131842597155,-598281.5455114777,14.718007260905608,1.0,0.0
1651.121164854383,143.23243300080088,1263.504150390625,84.4998779296875,345.29852294921875,141.77391052246094,160294.37900007205,-984.7741410473732,-579974.4543067404,2778.4136723448755,-598282.4644322455,14.803088327662351,1.0,0.0
1668.365462926682,144.04872306455,1262.6375732421875,84.53167724609375,334.5892028808594,138.31410217285156,160299.81220017388,-984.4436852673439,-579990.8448955063,2807.8451309181983,-598284.5315947951,14.888599969354686,1.0,0.0
1685.7083001079736,144.86936529369,1261.77099609375,84.61032104492188,322.6189880371094,134.45925903320312,160305.25212366114,-984.076902125254,-580007.3355597946,2837.5061271333834,-598287.9933200725,14.974514415289207,1.0,0.0
1703.1498202052899,145.69315313093202,1260.904296875,84.71331787109375,309.33734130859375,130.1800537109375,160310.68968908492,-983.678090784922,-580023.9294465574,2867.3792286388343,-598293.0216416523,15.060696834587077,1.0,0.0
1720.6905293201562,146.52216663779097,1260.037841796875,84.81475830078125,294.8115234375,125.47833251953125,160316.11657517176,-983.2550103405861,-580040.6292424268,2897.498516111984,-598299.2553862211,15.147380455174073,1.0,0.0
1738.3312588137342,147.35214941734893,1259.171142578125,84.89181518554688,279.1728820800781,120.39413452148438,160321.52633893062,-982.818471644297,-580057.437045514,2927.80163433461,-598306.4383249449,15.23413533564866,1.0,0.0
1756.070937269018,148.17860997928787,1258.3046875,84.9267578125,262.80474853515625,115.20713806152344,160326.91516937572,-982.3814370373634,-580074.3537325761,2958.2215207132977,-598314.0376178126,15.320521249229671,1.0,0.0
1773.909424785641,148.99791860650882,1257.43798828125,84.91018676757812,246.09017944335938,110.16848754882812,160332.28286818246,-981.9576852063087,-580091.378620015,2988.7034480175935,-598321.335892272,15.406197380058359,1.0,0.0
1794.8443977967836,149.9397293575154,1256.427001953125,84.831787109375,226.79983520507812,104.90757751464844,160338.52437322965,-981.4975297192482,-580111.37471588,3024.2657482175855,-598328.6157748849,15.50477919525764,1.0,0.0
1812.8922538373154,150.73212396968364,1255.5604248046875,84.73675537109375,210.9210662841797,101.22441101074219,160343.86527747454,-981.145074580088,-580128.6242791107,3054.701186090824,-598333.1563530768,15.587840082636149,1.0,0.0
1831.0346125983633,151.5135636279853,1254.69384765625,84.6407470703125,195.9723663330078,98.42402648925781,160349.20958778512,-980.839166376963,-580145.9706732426,3085.1338516287506,-598335.7075777252,15.66988480900801,1.0,0.0
1849.2703158321092,152.29008775277902,1253.8272705078125,84.57489013671875,182.21859741210938,96.56980895996094,160354.57034975028,-980.5825326184181,-580163.4093505745,3115.65665940044,-598336.0276900909,15.751555253966046,1.0,0.0
1867.5984729953343,153.0598837869695,1252.9605712890625,84.5673828125,170.05413818359375,95.86233520507812,160359.96177503385,-980.3731744030861,-580180.9357629763,3146.239597884007,-598334.0515074343,15.83266803643005,1.0,0.0
1886.019020549138,153.8279735389205,1252.093994140625,84.65353393554688,159.572265625,96.19546508789062,160365.39469236933,-980.2054764965919,-580198.5461366867,3176.957086980692,-598330.6839648298,15.913699183546669,1.0,0.0
1904.5317802005447,154.5990670793717,1251.2274169921875,84.86282348632812,150.79908752441406,97.43647766113281,160370.87539804672,-980.0722405651954,-580216.2390700986,3207.8820953193353,-598326.4847016579,15.995110041683574,1.0,0.0
1923.1376239283709,155.38102284191808,1250.36083984375,85.1998291015625,143.9007568359375,99.63047790527344,160376.40734232275,-979.9654977063087,-580234.0144341537,3239.140844134381,-598321.9911117321,16.077690472738198,1.0,0.0
1938.7149500413798,156.04429133090204,1249.638671875,85.5631103515625,139.64959716796875,102.12519836425781,160381.0566322282,-979.8903252819923,-580248.8914775241,3265.5001669768244,-598318.4174099949,16.147728031211045,1.0,0.0
1957.496636002208,156.85869479223334,1248.772216796875,86.07943725585938,136.7249755859375,106.17852783203125,160386.6812428487,-979.8108803967384,-580266.823432134,3297.5815363078145,-598314.5918923514,16.233694420879374,1.0,0.0
1976.3774619288743,157.69696105838398,1247.905517578125,86.65548706054688,136.72653198242188,111.82627868652344,160392.35195152162,-979.739297602549,-580284.8458699886,3330.220590887009,-598311.5810083037,16.32212607478533,1.0,0.0
1995.3608098168625,158.55951891974888,1247.0389404296875,87.24310302734375,140.5377197265625,119.82162475585938,160398.06395175963,-979.6736275891212,-580302.9630737898,3363.4330258722184,-598309.5146183377,16.413061332310974,1.0,0.0
2014.449397742981,159.4418435562302,1246.17236328125,87.77920532226562,149.9082489013672,131.79786682128906,160403.8122931718,-979.6130540112404,-580321.1789429253,3397.153569614049,-598308.2957778245,16.506035032739874,1.0,0.0
2033.6437705940334,160.3285941885699,1245.3057861328125,88.15325927734375,167.02276611328125,149.8353271484375,160409.59220713036,-979.5571000317482,-580339.4964630239,3431.1341841991525,-598307.9294216717,16.59944974656878,1.0,0.0
2052.9443965037353,161.21217270342544,1244.439208984375,88.24008178710938,190.20962524414062,172.16232299804688,160415.39799791394,-979.5063073376564,-580357.9169268511,3465.2483809428522,-598308.4965337298,16.692509134301474,1.0,0.0
2072.3513914035866,162.09189133301857,1243.5726318359375,88.0517578125,211.67942810058594,-169.08973693847656,160421.2231967199,-979.4634606579689,-580376.4417424665,3499.482251168345,-598310.2039665699,16.78512910085368,1.0,0.0
2091.8626905770507,162.96438606168954,1242.7059326171875,87.73858642578125,227.8421173095703,-157.6175079345703,160427.0600856406,-979.4322640637306,-580395.0724078419,3533.7766568455845,-598313.1552683221,16.876952212252604,1.0,0.0
2111.4792419725563,163.82951538591942,1241.83935546875,87.44244384765625,240.1740264892578,-152.02980041503906,160432.90105840765,-979.4139802197365,-580413.809941699,3568.12685857655,-598317.1866018911,16.96797158302752,1.0,0.0
2131.1984215758275,164.69059589224076,1240.9727783203125,87.2564697265625,250.86245727539062,-150.09799194335938,160438.74057890664,-979.4080407360939,-580432.6552853244,3602.5883842873154,-598321.9403478293,17.058551950968706,1.0,0.0
2151.0213425622787,165.55246519670467,1240.106201171875,87.21505737304688,261.4410095214844,-150.17306518554688,160444.5749191816,-979.4120995739845,-580451.6092259925,3637.2442424976034,-598327.1409911375,17.149212584809504,1.0,0.0
2167.619836705504,166.2754737606888,1239.384033203125,87.30767822265625,270.91143798828125,-150.91751098632812,160449.43200476796,-979.4197518566993,-580467.4877268216,3666.3465272537433,-598331.5407437371,17.2252759944202,1.0,0.0
2187.634160795831,167.15892963947863,1238.5174560546875,87.56875610351562,284.0296936035156,-151.47866821289062,160455.2555763443,-979.4286629895118,-580486.643328966,3701.7160090855323,-598336.5150351186,17.318243631171924,1.0,0.0
2207.7562889315886,168.06646164943345,1237.65087890625,87.9757080078125,300.6065673828125,-149.8600616455078,160461.078844085,-979.4312226513771,-580505.9108872109,3737.7018088949844,-598340.4887501006,17.413804669468846,1.0,0.0
2227.988695520442,169.00242201593792,1236.7841796875,88.43289184570312,324.86151123046875,-141.4174041748047,160466.91200560678,-979.4235207775978,-580525.290538372,3774.394977093558,-598342.5628667368,17.512467890607184,1.0,0.0
2248.3353936034255,169.96048216821015,1235.917724609375,88.6903076171875,1.7119336128234863,-120.68115997314453,160472.76861284743,-979.4075066784767,-580544.7820346635,3811.6963668838143,-598342.610716072,17.613584244953586,1.0,0.0
2268.7977322570514,170.9264287524563,1235.051025390625,88.50851440429688,39.42159652709961,-98.94923400878906,160478.661552647,-979.3901002148536,-580564.383512013,3849.362104401225,-598340.7422196498,17.715667827751304,1.0,0.0
2289.3760418563616,171.88988278009666,1234.1845703125,88.056396484375,62.545005798339844,-91.38179016113281,160484.59963520843,-979.3807542065529,-580584.0926541968,3887.2048743969062,-598337.938059896,17.817580000414978,1.0,0.0
2306.612214561901,172.6879800847069,1233.46240234375,87.66168212890625,73.51719665527344,-92.9190902709961,160489.58443388736,-979.3841759900001,-580600.5982264177,3918.8203452323796,-598335.475951451,17.902041182203277,1.0,0.0
2327.4006466374267,173.6326955182796,1232.595703125,87.25189208984375,80.63697814941406,-100.17740631103516,160495.6095801764,-979.4061372021583,-580620.5012245055,3956.7198200921994,-598332.5919372495,18.002064203879,1.0,0.0
2348.300994002726,174.56325812834072,1231.7291259765625,86.9302978515625,83.29642486572266,-111.09046936035156,160501.67998925847,-979.4500291088966,-580640.5081687222,3994.570059275604,-598330.0555190613,18.10062196306319,1.0,0.0
2369.312239175546,175.48476411382305,1230.862548828125,86.66424560546875,82.92377471923828,-124.07049560546875,160507.7931371121,-979.5139405468849,-580660.6185488402,4032.4587776693515,-598327.8183030292,18.198248522374115,1.0,0.0
2386.9062692882726,176.24499575758057,1230.140380859375,86.46438598632812,80.92842864990234,-135.67437744140625,160512.91946267683,-979.5783936718849,-580677.4554387769,4064.0465833212947,-598325.9179341721,18.27882759927172,1.0,0.0
2408.118273588945,177.15079788739348,1229.2738037109375,86.22799682617188,77.28225708007812,-149.59884643554688,160519.11042611412,-979.6628358105568,-580697.7525922988,4102.017788626254,-598323.2498728401,18.374899012761205,1.0,0.0
2429.4396397569217,178.05479715441942,1228.4072265625,85.99200439453125,72.80634307861328,-162.83465576171875,160525.34752609828,-979.748231623545,-580718.1493404107,4140.156668419368,-598319.9982276653,18.47085003211521,1.0,0.0
2447.2896163966507,178.8062588873515,1227.68505859375,85.77960205078125,68.60719299316406,-173.087646484375,160530.58261669017,-979.8164651135353,-580735.2222039275,4172.057071982883,-598316.9459462289,18.550659713098128,1.0,0.0
2468.8083686094033,179.70151460554953,1226.8184814453125,85.51376342773438,63.222869873046875,175.8135986328125,160536.91231502307,-979.8914582470802,-580755.7991260889,4210.399287545122,-598312.7800404251,18.6458134157686,1.0,0.0
2490.433918302413,180.5861832797664,1225.951904296875,85.26446533203125,57.42283630371094,166.025146484375,160543.29714466634,-979.9545914868263,-580776.4713330396,4248.740603212733,-598307.9756671854,18.739933066917786,1.0,0.0
2512.152173959301,181.4626658714552,1225.085205078125,85.0225830078125,51.25156784057617,157.621337890625,160549.73907916615,-980.0016311457023,-580797.2374367035,4287.119792089914,-598303.0214934356,18.833239168447392,1.0,0.0
2533.9782721213996,182.33382030633675,1224.21875,84.79937744140625,44.586849212646484,150.50701904296875,160556.23753824248,-980.0284198665861,-580818.0966172229,4325.585879119695,-598298.2609247903,18.926008737272014,1.0,0.0
2555.942262302502,183.20187293513624,1223.35205078125,84.58224487304688,37.45377731323242,144.73992919921875,160562.78998260107,-980.0303062063045,-580839.0491528686,4364.177826871281,-598293.9686417237,19.01845691529286,1.0,0.0
2577.9769787618425,184.06676132914836,1222.485595703125,84.36611938476562,29.917543411254883,140.41163635253906,160569.39292484432,-980.0021469601077,-580860.0956250312,4402.892455810332,-598290.2668841735,19.110568906274636,1.0,0.0
2600.1233608439798,184.93167421719855,1221.618896484375,84.16201782226562,21.937397003173828,137.4602508544922,160576.04236930798,-979.9385306750193,-580881.2368750739,4441.78990146704,-598287.1598721057,19.202677536034003,1.0,0.0
2618.6609148875577,185.65674899571533,1220.896728515625,84.02182006835938,14.830558776855469,135.8391876220703,160581.61660938495,-979.8546320106581,-580898.928055499,4474.427235720097,-598285.0532434795,19.279879663611496,1.0,0.0
2640.995956997038,186.53105131835,1220.0301513671875,83.9091796875,5.605230808258057,134.60244750976562,160588.34104364255,-979.7123214700207,-580920.2473640734,4513.840856892173,-598283.3794540602,19.372937428361524,1.0,0.0
2663.4442700931104,187.40974710694564,1219.16357421875,83.87652587890625,355.4013977050781,133.7589874267578,160595.09758384532,-979.5206018712694,-580941.6670497269,4553.521748540807,-598282.9432211656,19.46640682388056,1.0,0.0
2685.992178643355,188.2926235924769,1218.2969970703125,83.93927001953125,344.02777099609375,132.96359252929688,160601.87724623148,-979.2767903453192,-580963.1901424918,4593.464849463082,-598284.1525318865,19.5602383306599,1.0,0.0
2708.657527797739,189.18011647440667,1217.430419921875,84.09970092773438,331.2738952636719,131.9250946044922,160608.66828350222,-978.9805720922525,-580984.8203851316,4633.677718876395,-598287.4044774541,19.65445052910644,1.0,0.0
